{"price":36000,"dateOfTransfer":"1995-10-20T00:00:00","postcodeFull":"B32 4LE","propertyType":"Flat/Maisonette/Townhouse","oldOrNew":"Established","duration":"Leasehold","paon":"27","saon":"","street":"WESTCOMBE GROVE","locality":"BIRMINGHAM","townOrCity":"BIRMINGHAM","district":"BIRMINGHAM","county":"WEST MIDLANDS","ppdCategoryType":"Standard","recordStatus":"Addition","latitude":52.439246,"longitude":-2.01168,"postcodeStart":"B32 4","postcode":["B32","4LE"]}
{"price":52500,"dateOfTransfer":"1995-05-19T00:00:00","postcodeFull":"B32 4BB","propertyType":"Detached","oldOrNew":"New build","duration":"Freehold","paon":"2","saon":"","street":"POUND LANE","locality":"FRANKLEY","townOrCity":"BIRMINGHAM","district":"BROMSGROVE","county":"WORCESTERSHIRE","ppdCategoryType":"Standard","recordStatus":"Addition","latitude":52.41071,"longitude":-2.020772,"postcodeStart":"B32 4","postcode":["B32","4BB"]}
{"price":23000,"dateOfTransfer":"1995-08-18T00:00:00","postcodeFull":"B32 4NW","propertyType":"Flat/Maisonette/Townhouse","oldOrNew":"Established","duration":"Leasehold","paon":"6","saon":"FLAT 6","street":"CLENT WAY","locality":"BIRMINGHAM","townOrCity":"BIRMINGHAM","district":"BIRMINGHAM","county":"WEST MIDLANDS","ppdCategoryType":"Standard","recordStatus":"Addition","latitude":52.433465,"longitude":-2.015326,"postcodeStart":"B32 4","postcode":["B32","4NW"]}
{"price":23000,"dateOfTransfer":"1995-08-30T00:00:00","postcodeFull":"B32 4NW","propertyType":"Flat/Maisonette/Townhouse","oldOrNew":"Established","duration":"Leasehold","paon":"12","saon":"FLAT 3","street":"CLENT WAY","locality":"BIRMINGHAM","townOrCity":"BIRMINGHAM","district":"BIRMINGHAM","county":"WEST MIDLANDS","ppdCategoryType":"Standard","recordStatus":"Addition","latitude":52.433465,"longitude":-2.015326,"postcodeStart":"B32 4","postcode":["B32","4NW"]}
{"price":39000,"dateOfTransfer":"1995-01-11T00:00:00","postcodeFull":"B32 4LF","propertyType":"Flat/Maisonette/Townhouse","oldOrNew":"Established","duration":"Leasehold","paon":"25","saon":"","street":"PINEWOOD DRIVE","locality":"BARTLEY GREEN","townOrCity":"BIRMINGHAM","district":"BIRMINGHAM","county":"WEST MIDLANDS","ppdCategoryType":"Standard","recordStatus":"Addition","latitude":52.439588,"longitude":-2.011121,"postcodeStart":"B32 4","postcode":["B32","4LF"]}
{"price":47000,"dateOfTransfer":"1995-05-26T00:00:00","postcodeFull":"B32 4LX","propertyType":"Semi-detached","oldOrNew":"Established","duration":"Leasehold","paon":"103","saon":"","street":"CLENT VIEW ROAD","locality":"BARTLEY GREEN","townOrCity":"BIRMINGHAM","district":"BIRMINGHAM","county":"WEST MIDLANDS","ppdCategoryType":"Standard","recordStatus":"Addition","latitude":52.439012,"longitude":-2.012754,"postcodeStart":"B32 4","postcode":["B32","4LX"]}
{"price":49500,"dateOfTransfer":"1995-10-09T00:00:00","postcodeFull":"B32 4JR","propertyType":"Semi-detached","oldOrNew":"Established","duration":"Freehold","paon":"7","saon":"","street":"HARLECH CLOSE","locality":"BIRMINGHAM","townOrCity":"BIRMINGHAM","district":"BIRMINGHAM","county":"WEST MIDLANDS","ppdCategoryType":"Standard","recordStatus":"Addition","latitude":52.427586,"longitude":-2.008927,"postcodeStart":"B32 4","postcode":["B32","4JR"]}
{"price":51000,"dateOfTransfer":"1995-06-02T00:00:00","postcodeFull":"B32 4DA","propertyType":"Terraced","oldOrNew":"Established","duration":"Leasehold","paon":"63","saon":"","street":"KITWELL LANE","locality":"BIRMINGHAM","townOrCity":"BIRMINGHAM","district":"BIRMINGHAM","county":"WEST MIDLANDS","ppdCategoryType":"Standard","recordStatus":"Addition","latitude":52.435515,"longitude":-2.011694,"postcodeStart":"B32 4","postcode":["B32","4DA"]}
{"price":46500,"dateOfTransfer":"1995-03-03T00:00:00","postcodeFull":"B32 4DA","propertyType":"Terraced","oldOrNew":"Established","duration":"Leasehold","paon":"91","saon":"","street":"KITWELL LANE","locality":"BIRMINGHAM","townOrCity":"BIRMINGHAM","district":"BIRMINGHAM","county":"WEST MIDLANDS","ppdCategoryType":"Standard","recordStatus":"Addition","latitude":52.435515,"longitude":-2.011694,"postcodeStart":"B32 4","postcode":["B32","4DA"]}
{"price":41000,"dateOfTransfer":"1995-08-07T00:00:00","postcodeFull":"B32 4DU","propertyType":"Semi-detached","oldOrNew":"Established","duration":"Freehold","paon":"198","saon":"","street":"HASBURY ROAD","locality":"BIRMINGHAM","townOrCity":"BIRMINGHAM","district":"BIRMINGHAM","county":"WEST MIDLANDS","ppdCategoryType":"Standard","recordStatus":"Addition","latitude":52.433888,"longitude":-2.012488,"postcodeStart":"B32 4","postcode":["B32","4DU"]}
{"price":24000,"dateOfTransfer":"1995-10-27T00:00:00","postcodeFull":"B32 4DB","propertyType":"Flat/Maisonette/Townhouse","oldOrNew":"Established","duration":"Leasehold","paon":"38","saon":"","street":"WINDSOR VIEW","locality":"BIRMINGHAM","townOrCity":"BIRMINGHAM","district":"BIRMINGHAM","county":"WEST MIDLANDS","ppdCategoryType":"Standard","recordStatus":"Addition","latitude":52.430832,"longitude":-2.006324,"postcodeStart":"B32 4","postcode":["B32","4DB"]}
{"price":40000,"dateOfTransfer":"1995-01-31T00:00:00","postcodeFull":"B32 4DB","propertyType":"Semi-detached","oldOrNew":"Established","duration":"Leasehold","paon":"42","saon":"","street":"WINDSOR VIEW","locality":"BIRMINGHAM","townOrCity":"BIRMINGHAM","district":"BIRMINGHAM","county":"WEST MIDLANDS","ppdCategoryType":"Standard","recordStatus":"Addition","latitude":52.430832,"longitude":-2.006324,"postcodeStart":"B32 4","postcode":["B32","4DB"]}
{"price":30000,"dateOfTransfer":"1995-05-26T00:00:00","postcodeFull":"B32 4NW","propertyType":"Flat/Maisonette/Townhouse","oldOrNew":"Established","duration":"Leasehold","paon":"4","saon":"FLAT 6","street":"CLENT WAY","locality":"BIRMINGHAM","townOrCity":"BIRMINGHAM","district":"BIRMINGHAM","county":"WEST MIDLANDS","ppdCategoryType":"Standard","recordStatus":"Addition","latitude":52.433465,"longitude":-2.015326,"postcodeStart":"B32 4","postcode":["B32","4NW"]}
{"price":38000,"dateOfTransfer":"1995-06-01T00:00:00","postcodeFull":"B32 4AE","propertyType":"Terraced","oldOrNew":"Established","duration":"Leasehold","paon":"35","saon":"","street":"WOODGATE DRIVE","locality":"BIRMINGHAM","townOrCity":"BIRMINGHAM","district":"BIRMINGHAM","county":"WEST MIDLANDS","ppdCategoryType":"Standard","recordStatus":"Addition","latitude":52.438572,"longitude":-2.008326,"postcodeStart":"B32 4","postcode":["B32","4AE"]}
{"price":42000,"dateOfTransfer":"1995-08-31T00:00:00","postcodeFull":"B32 4LR","propertyType":"Terraced","oldOrNew":"Established","duration":"Leasehold","paon":"116","saon":"","street":"PINEWOOD DRIVE","locality":"BARTLEY GREEN","townOrCity":"BIRMINGHAM","district":"BIRMINGHAM","county":"WEST MIDLANDS","ppdCategoryType":"Standard","recordStatus":"Addition","latitude":52.437916,"longitude":-2.010783,"postcodeStart":"B32 4","postcode":["B32","4LR"]}
{"price":79950,"dateOfTransfer":"1995-06-30T00:00:00","postcodeFull":"B32 4BB","propertyType":"Terraced","oldOrNew":"New build","duration":"Freehold","paon":"LOWER HILL FARM","saon":"6","street":"POUND LANE","locality":"FRANKLEY","townOrCity":"BIRMINGHAM","district":"BROMSGROVE","county":"WORCESTERSHIRE","ppdCategoryType":"Standard","recordStatus":"Addition","latitude":52.41071,"longitude":-2.020772,"postcodeStart":"B32 4","postcode":["B32","4BB"]}
{"price":49000,"dateOfTransfer":"1995-09-01T00:00:00","postcodeFull":"B32 4DB","propertyType":"Detached","oldOrNew":"Established","duration":"Freehold","paon":"17","saon":"","street":"WINDSOR VIEW","locality":"BIRMINGHAM","townOrCity":"BIRMINGHAM","district":"BIRMINGHAM","county":"WEST MIDLANDS","ppdCategoryType":"Standard","recordStatus":"Addition","latitude":52.430832,"longitude":-2.006324,"postcodeStart":"B32 4","postcode":["B32","4DB"]}
{"price":23000,"dateOfTransfer":"1995-12-15T00:00:00","postcodeFull":"B32 4NN","propertyType":"Terraced","oldOrNew":"Established","duration":"Leasehold","paon":"22","saon":"FLAT 4","street":"CLENT WAY","locality":"BIRMINGHAM","townOrCity":"BIRMINGHAM","district":"BIRMINGHAM","county":"WEST MIDLANDS","ppdCategoryType":"Standard","recordStatus":"Addition","latitude":52.434373,"longitude":-2.014841,"postcodeStart":"B32 4","postcode":["B32","4NN"]}
{"price":25000,"dateOfTransfer":"1995-06-05T00:00:00","postcodeFull":"B32 4DB","propertyType":"Flat/Maisonette/Townhouse","oldOrNew":"Established","duration":"Leasehold","paon":"28","saon":"","street":"WINDSOR VIEW","locality":"BIRMINGHAM","townOrCity":"BIRMINGHAM","district":"BIRMINGHAM","county":"WEST MIDLANDS","ppdCategoryType":"Standard","recordStatus":"Addition","latitude":52.430832,"longitude":-2.006324,"postcodeStart":"B32 4","postcode":["B32","4DB"]}
{"price":42950,"dateOfTransfer":"1995-03-17T00:00:00","postcodeFull":"B32 4LS","propertyType":"Terraced","oldOrNew":"Established","duration":"Leasehold","paon":"206","saon":"","street":"PINEWOOD DRIVE","locality":"BARTLEY GREEN","townOrCity":"BIRMINGHAM","district":"BIRMINGHAM","county":"WEST MIDLANDS","ppdCategoryType":"Standard","recordStatus":"Addition","latitude":52.435407,"longitude":-2.012326,"postcodeStart":"B32 4","postcode":["B32","4LS"]}
{"price":43800,"dateOfTransfer":"1995-08-31T00:00:00","postcodeFull":"B32 4AE","propertyType":"Terraced","oldOrNew":"Established","duration":"Leasehold","paon":"37","saon":"","street":"WOODGATE DRIVE","locality":"BIRMINGHAM","townOrCity":"BIRMINGHAM","district":"BIRMINGHAM","county":"WEST MIDLANDS","ppdCategoryType":"Standard","recordStatus":"Addition","latitude":52.438572,"longitude":-2.008326,"postcodeStart":"B32 4","postcode":["B32","4AE"]}
{"price":25500,"dateOfTransfer":"1995-06-02T00:00:00","postcodeFull":"B32 4NW","propertyType":"Flat/Maisonette/Townhouse","oldOrNew":"Established","duration":"Leasehold","paon":"12","saon":"FLAT 5","street":"CLENT WAY","locality":"BIRMINGHAM","townOrCity":"BIRMINGHAM","district":"BIRMINGHAM","county":"WEST MIDLANDS","ppdCategoryType":"Standard","recordStatus":"Addition","latitude":52.433465,"longitude":-2.015326,"postcodeStart":"B32 4","postcode":["B32","4NW"]}
{"price":65500,"dateOfTransfer":"1995-05-19T00:00:00","postcodeFull":"B32 4BD","propertyType":"Detached","oldOrNew":"New build","duration":"Freehold","paon":"LOWER HILL FARM","saon":"1","street":"POUND LANE","locality":"FRANKLEY","townOrCity":"BIRMINGHAM","district":"BROMSGROVE","county":"WORCESTERSHIRE","ppdCategoryType":"Standard","recordStatus":"Addition","latitude":52.410558,"longitude":-2.020258,"postcodeStart":"B32 4","postcode":["B32","4BD"]}
{"price":56000,"dateOfTransfer":"1995-05-19T00:00:00","postcodeFull":"B32 4LT","propertyType":"Semi-detached","oldOrNew":"Established","duration":"Freehold","paon":"23","saon":"","street":"HILLSIDE CLOSE","locality":"BIRMINGHAM","townOrCity":"BIRMINGHAM","district":"BIRMINGHAM","county":"WEST MIDLANDS","ppdCategoryType":"Standard","recordStatus":"Addition","latitude":52.435254,"longitude":-2.0139,"postcodeStart":"B32 4","postcode":["B32","4LT"]}
{"price":54500,"dateOfTransfer":"1995-08-31T00:00:00","postcodeFull":"B32 4AE","propertyType":"Semi-detached","oldOrNew":"Established","duration":"Freehold","paon":"21","saon":"","street":"WOODGATE DRIVE","locality":"BIRMINGHAM","townOrCity":"BIRMINGHAM","district":"BIRMINGHAM","county":"WEST MIDLANDS","ppdCategoryType":"Standard","recordStatus":"Addition","latitude":52.438572,"longitude":-2.008326,"postcodeStart":"B32 4","postcode":["B32","4AE"]}
{"price":54500,"dateOfTransfer":"1995-06-23T00:00:00","postcodeFull":"B32 4LN","propertyType":"Semi-detached","oldOrNew":"Established","duration":"Leasehold","paon":"6","saon":"","street":"CLENT VIEW ROAD","locality":"BARTLEY GREEN","townOrCity":"BIRMINGHAM","district":"BIRMINGHAM","county":"WEST MIDLANDS","ppdCategoryType":"Standard","recordStatus":"Addition","latitude":52.436153,"longitude":-2.013386,"postcodeStart":"B32 4","postcode":["B32","4LN"]}
{"price":55000,"dateOfTransfer":"1995-09-19T00:00:00","postcodeFull":"B32 4BB","propertyType":"Terraced","oldOrNew":"New build","duration":"Freehold","paon":"LOWER HILL FARM","saon":"8","street":"POUND LANE","locality":"FRANKLEY","townOrCity":"BIRMINGHAM","district":"BROMSGROVE","county":"WORCESTERSHIRE","ppdCategoryType":"Standard","recordStatus":"Addition","latitude":52.41071,"longitude":-2.020772,"postcodeStart":"B32 4","postcode":["B32","4BB"]}
{"price":55500,"dateOfTransfer":"1995-01-27T00:00:00","postcodeFull":"B32 4LY","propertyType":"Semi-detached","oldOrNew":"Established","duration":"Leasehold","paon":"136","saon":"","street":"CLENT VIEW ROAD","locality":"BARTLEY GREEN","townOrCity":"BIRMINGHAM","district":"BIRMINGHAM","county":"WEST MIDLANDS","ppdCategoryType":"Standard","recordStatus":"Addition","latitude":52.439417,"longitude":-2.013504,"postcodeStart":"B32 4","postcode":["B32","4LY"]}
{"price":52950,"dateOfTransfer":"1995-07-12T00:00:00","postcodeFull":"B32 4LD","propertyType":"Semi-detached","oldOrNew":"Established","duration":"Leasehold","paon":"18","saon":"","street":"PINEWOOD DRIVE","locality":"BARTLEY GREEN","townOrCity":"BIRMINGHAM","district":"BIRMINGHAM","county":"WEST MIDLANDS","ppdCategoryType":"Standard","recordStatus":"Addition","latitude":52.440082,"longitude":-2.011166,"postcodeStart":"B32 4","postcode":["B32","4LD"]}
{"price":42500,"dateOfTransfer":"1995-06-09T00:00:00","postcodeFull":"B32 4BB","propertyType":"Flat/Maisonette/Townhouse","oldOrNew":"New build","duration":"Leasehold","paon":"LOWER HILL FARM","saon":"3","street":"POUND LANE","locality":"FRANKLEY","townOrCity":"BIRMINGHAM","district":"BROMSGROVE","county":"WORCESTERSHIRE","ppdCategoryType":"Standard","recordStatus":"Addition","latitude":52.41071,"longitude":-2.020772,"postcodeStart":"B32 4","postcode":["B32","4BB"]}
{"price":49750,"dateOfTransfer":"1995-06-01T00:00:00","postcodeFull":"B32 4LG","propertyType":"Terraced","oldOrNew":"Established","duration":"Leasehold","paon":"103","saon":"","street":"PINEWOOD DRIVE","locality":"BARTLEY GREEN","townOrCity":"BIRMINGHAM","district":"BIRMINGHAM","county":"WEST MIDLANDS","ppdCategoryType":"Standard","recordStatus":"Addition","latitude":52.437646,"longitude":-2.011371,"postcodeStart":"B32 4","postcode":["B32","4LG"]}
{"price":45000,"dateOfTransfer":"1995-08-02T00:00:00","postcodeFull":"B32 4BB","propertyType":"Flat/Maisonette/Townhouse","oldOrNew":"New build","duration":"Leasehold","paon":"LOWER HILL FARM","saon":"4","street":"POUND LANE","locality":"FRANKLEY","townOrCity":"BIRMINGHAM","district":"BROMSGROVE","county":"WORCESTERSHIRE","ppdCategoryType":"Standard","recordStatus":"Addition","latitude":52.41071,"longitude":-2.020772,"postcodeStart":"B32 4","postcode":["B32","4BB"]}
{"price":90000,"dateOfTransfer":"1995-07-06T00:00:00","postcodeFull":"B32 4AS","propertyType":"Semi-detached","oldOrNew":"Established","duration":"Freehold","paon":"15","saon":"","street":"FRANKLEY GREEN","locality":"BIRMINGHAM","townOrCity":"BIRMINGHAM","district":"BROMSGROVE","county":"WORCESTERSHIRE","ppdCategoryType":"Standard","recordStatus":"Addition","latitude":52.421994,"longitude":-2.014984,"postcodeStart":"B32 4","postcode":["B32","4AS"]}
{"price":44000,"dateOfTransfer":"1995-12-15T00:00:00","postcodeFull":"B32 4DJ","propertyType":"Detached","oldOrNew":"Established","duration":"Freehold","paon":"42","saon":"","street":"WYCHBURY ROAD","locality":"BIRMINGHAM","townOrCity":"BIRMINGHAM","district":"BIRMINGHAM","county":"WEST MIDLANDS","ppdCategoryType":"Standard","recordStatus":"Addition","latitude":52.431119,"longitude":-2.006413,"postcodeStart":"B32 4","postcode":["B32","4DJ"]}
{"price":128500,"dateOfTransfer":"1995-01-05T00:00:00","postcodeFull":"B32 4BG","propertyType":"Detached","oldOrNew":"Established","duration":"Freehold","paon":"THE OLD RECTORY","saon":"","street":"CHURCH HILL","locality":"QUINTON","townOrCity":"BIRMINGHAM","district":"BROMSGROVE","county":"WORCESTERSHIRE","ppdCategoryType":"Standard","recordStatus":"Addition","latitude":52.422566,"longitude":-2.010919,"postcodeStart":"B32 4","postcode":["B32","4BG"]}
{"price":45000,"dateOfTransfer":"1995-09-01T00:00:00","postcodeFull":"B32 4DJ","propertyType":"Semi-detached","oldOrNew":"Established","duration":"Leasehold","paon":"24","saon":"","street":"WYCHBURY ROAD","locality":"BIRMINGHAM","townOrCity":"BIRMINGHAM","district":"BIRMINGHAM","county":"WEST MIDLANDS","ppdCategoryType":"Standard","recordStatus":"Addition","latitude":52.431119,"longitude":-2.006413,"postcodeStart":"B32 4","postcode":["B32","4DJ"]}
{"price":79950,"dateOfTransfer":"1995-08-03T00:00:00","postcodeFull":"B32 4BB","propertyType":"Terraced","oldOrNew":"New build","duration":"Freehold","paon":"5 LOWER HILL BARN","saon":"","street":"POUND LANE","locality":"FRANKLEY","townOrCity":"BIRMINGHAM","district":"BROMSGROVE","county":"WORCESTERSHIRE","ppdCategoryType":"Standard","recordStatus":"Addition","latitude":52.41071,"longitude":-2.020772,"postcodeStart":"B32 4","postcode":["B32","4BB"]}
{"price":60000,"dateOfTransfer":"1995-04-28T00:00:00","postcodeFull":"B32 4BS","propertyType":"Semi-detached","oldOrNew":"Established","duration":"Freehold","paon":"16","saon":"","street":"SCOTLAND LANE","locality":"BIRMINGHAM","townOrCity":"BIRMINGHAM","district":"BIRMINGHAM","county":"WEST MIDLANDS","ppdCategoryType":"Standard","recordStatus":"Addition","latitude":52.432144,"longitude":-2.001589,"postcodeStart":"B32 4","postcode":["B32","4BS"]}
{"price":48000,"dateOfTransfer":"1995-11-17T00:00:00","postcodeFull":"B32 4LX","propertyType":"Semi-detached","oldOrNew":"Established","duration":"Leasehold","paon":"101","saon":"","street":"CLENT VIEW ROAD","locality":"BARTLEY GREEN","townOrCity":"BIRMINGHAM","district":"BIRMINGHAM","county":"WEST MIDLANDS","ppdCategoryType":"Standard","recordStatus":"Addition","latitude":52.439012,"longitude":-2.012754,"postcodeStart":"B32 4","postcode":["B32","4LX"]}
{"price":34000,"dateOfTransfer":"1995-05-19T00:00:00","postcodeFull":"B32 4ET","propertyType":"Terraced","oldOrNew":"Established","duration":"Freehold","paon":"29","saon":"","street":"HAYLEY GREEN ROAD","locality":"BIRMINGHAM","townOrCity":"BIRMINGHAM","district":"BIRMINGHAM","county":"WEST MIDLANDS","ppdCategoryType":"Standard","recordStatus":"Addition","latitude":52.433268,"longitude":-2.004207,"postcodeStart":"B32 4","postcode":["B32","4ET"]}
{"price":39000,"dateOfTransfer":"1995-12-20T00:00:00","postcodeFull":"B32 4LR","propertyType":"Terraced","oldOrNew":"Established","duration":"Leasehold","paon":"116","saon":"","street":"PINEWOOD DRIVE","locality":"BARTLEY GREEN","townOrCity":"BIRMINGHAM","district":"BIRMINGHAM","county":"WEST MIDLANDS","ppdCategoryType":"Standard","recordStatus":"Addition","latitude":52.437916,"longitude":-2.010783,"postcodeStart":"B32 4","postcode":["B32","4LR"]}
{"price":90000,"dateOfTransfer":"1995-11-20T00:00:00","postcodeFull":"B32 4BB","propertyType":"Flat/Maisonette/Townhouse","oldOrNew":"New build","duration":"Freehold","paon":"LOWER HILL FARM","saon":"9","street":"POUND LANE","locality":"FRANKLEY","townOrCity":"BIRMINGHAM","district":"BROMSGROVE","county":"WORCESTERSHIRE","ppdCategoryType":"Standard","recordStatus":"Addition","latitude":52.41071,"longitude":-2.020772,"postcodeStart":"B32 4","postcode":["B32","4BB"]}
{"price":40000,"dateOfTransfer":"1995-11-24T00:00:00","postcodeFull":"B32 4LG","propertyType":"Terraced","oldOrNew":"Established","duration":"Leasehold","paon":"99","saon":"","street":"PINEWOOD DRIVE","locality":"BARTLEY GREEN","townOrCity":"BIRMINGHAM","district":"BIRMINGHAM","county":"WEST MIDLANDS","ppdCategoryType":"Standard","recordStatus":"Addition","latitude":52.437646,"longitude":-2.011371,"postcodeStart":"B32 4","postcode":["B32","4LG"]}
{"price":45000,"dateOfTransfer":"1995-01-20T00:00:00","postcodeFull":"B32 4LR","propertyType":"Terraced","oldOrNew":"Established","duration":"Leasehold","paon":"146","saon":"","street":"PINEWOOD DRIVE","locality":"BARTLEY GREEN","townOrCity":"BIRMINGHAM","district":"BIRMINGHAM","county":"WEST MIDLANDS","ppdCategoryType":"Standard","recordStatus":"Addition","latitude":52.437916,"longitude":-2.010783,"postcodeStart":"B32 4","postcode":["B32","4LR"]}
{"price":49000,"dateOfTransfer":"1996-01-18T00:00:00","postcodeFull":"B32 4AN","propertyType":"Terraced","oldOrNew":"Established","duration":"Freehold","paon":"98","saon":"","street":"KITWELL LANE","locality":"BIRMINGHAM","townOrCity":"BIRMINGHAM","district":"BIRMINGHAM","county":"WEST MIDLANDS","ppdCategoryType":"Standard","recordStatus":"Addition","latitude":52.433519,"longitude":-2.013708,"postcodeStart":"B32 4","postcode":["B32","4AN"]}
{"price":38250,"dateOfTransfer":"1996-05-31T00:00:00","postcodeFull":"B32 4JX","propertyType":"Terraced","oldOrNew":"Established","duration":"Freehold","paon":"15","saon":"","street":"MAXSTOKE CLOSE","locality":"BIRMINGHAM","townOrCity":"BIRMINGHAM","district":"BIRMINGHAM","county":"WEST MIDLANDS","ppdCategoryType":"Standard","recordStatus":"Addition","latitude":52.428638,"longitude":-2.012604,"postcodeStart":"B32 4","postcode":["B32","4JX"]}
{"price":26000,"dateOfTransfer":"1996-08-16T00:00:00","postcodeFull":"B32 4DB","propertyType":"Flat/Maisonette/Townhouse","oldOrNew":"Established","duration":"Leasehold","paon":"24","saon":"","street":"WINDSOR VIEW","locality":"BIRMINGHAM","townOrCity":"BIRMINGHAM","district":"BIRMINGHAM","county":"WEST MIDLANDS","ppdCategoryType":"Standard","recordStatus":"Addition","latitude":52.430832,"longitude":-2.006324,"postcodeStart":"B32 4","postcode":["B32","4DB"]}
{"price":42000,"dateOfTransfer":"1996-03-29T00:00:00","postcodeFull":"B32 4LS","propertyType":"Semi-detached","oldOrNew":"Established","duration":"Leasehold","paon":"244","saon":"","street":"PINEWOOD DRIVE","locality":"BARTLEY GREEN","townOrCity":"BIRMINGHAM","district":"BIRMINGHAM","county":"WEST MIDLANDS","ppdCategoryType":"Standard","recordStatus":"Addition","latitude":52.435407,"longitude":-2.012326,"postcodeStart":"B32 4","postcode":["B32","4LS"]}
{"price":29000,"dateOfTransfer":"1996-10-31T00:00:00","postcodeFull":"B32 4NW","propertyType":"Flat/Maisonette/Townhouse","oldOrNew":"Established","duration":"Leasehold","paon":"14","saon":"FLAT 3","street":"CLENT WAY","locality":"BIRMINGHAM","townOrCity":"BIRMINGHAM","district":"BIRMINGHAM","county":"WEST MIDLANDS","ppdCategoryType":"Standard","recordStatus":"Addition","latitude":52.433465,"longitude":-2.015326,"postcodeStart":"B32 4","postcode":["B32","4NW"]}
{"price":16560,"dateOfTransfer":"1996-09-24T00:00:00","postcodeFull":"B32 4NN","propertyType":"Terraced","oldOrNew":"Established","duration":"Leasehold","paon":"11","saon":"FLAT 4","street":"CLENT WAY","locality":"BIRMINGHAM","townOrCity":"BIRMINGHAM","district":"BIRMINGHAM","county":"WEST MIDLANDS","ppdCategoryType":"Standard","recordStatus":"Addition","latitude":52.434373,"longitude":-2.014841,"postcodeStart":"B32 4","postcode":["B32","4NN"]}
{"price":45000,"dateOfTransfer":"1996-07-22T00:00:00","postcodeFull":"B32 4LR","propertyType":"Terraced","oldOrNew":"Established","duration":"Leasehold","paon":"100","saon":"","street":"PINEWOOD DRIVE","locality":"BARTLEY GREEN","townOrCity":"BIRMINGHAM","district":"BIRMINGHAM","county":"WEST MIDLANDS","ppdCategoryType":"Standard","recordStatus":"Addition","latitude":52.437916,"longitude":-2.010783,"postcodeStart":"B32 4","postcode":["B32","4LR"]}
{"price":43250,"dateOfTransfer":"1996-02-23T00:00:00","postcodeFull":"B32 4AL","propertyType":"Terraced","oldOrNew":"Established","duration":"Freehold","paon":"60","saon":"","street":"KITWELL LANE","locality":"BIRMINGHAM","townOrCity":"BIRMINGHAM","district":"BIRMINGHAM","county":"WEST MIDLANDS","ppdCategoryType":"Standard","recordStatus":"Addition","latitude":52.435003,"longitude":-2.011341,"postcodeStart":"B32 4","postcode":["B32","4AL"]}
{"price":53000,"dateOfTransfer":"1996-04-12T00:00:00","postcodeFull":"B32 4LL","propertyType":"Terraced","oldOrNew":"Established","duration":"Leasehold","paon":"221","saon":"","street":"PINEWOOD DRIVE","locality":"BARTLEY GREEN","townOrCity":"BIRMINGHAM","district":"BIRMINGHAM","county":"WEST MIDLANDS","ppdCategoryType":"Standard","recordStatus":"Addition","latitude":52.435173,"longitude":-2.013194,"postcodeStart":"B32 4","postcode":["B32","4LL"]}
{"price":21000,"dateOfTransfer":"1996-03-29T00:00:00","postcodeFull":"B32 4DB","propertyType":"Flat/Maisonette/Townhouse","oldOrNew":"Established","duration":"Leasehold","paon":"32","saon":"","street":"WINDSOR VIEW","locality":"BIRMINGHAM","townOrCity":"BIRMINGHAM","district":"BIRMINGHAM","county":"WEST MIDLANDS","ppdCategoryType":"Standard","recordStatus":"Addition","latitude":52.430832,"longitude":-2.006324,"postcodeStart":"B32 4","postcode":["B32","4DB"]}
{"price":56000,"dateOfTransfer":"1996-01-26T00:00:00","postcodeFull":"B32 4DB","propertyType":"Detached","oldOrNew":"Established","duration":"Freehold","paon":"29","saon":"","street":"WINDSOR VIEW","locality":"BIRMINGHAM","townOrCity":"BIRMINGHAM","district":"BIRMINGHAM","county":"WEST MIDLANDS","ppdCategoryType":"Standard","recordStatus":"Addition","latitude":52.430832,"longitude":-2.006324,"postcodeStart":"B32 4","postcode":["B32","4DB"]}
{"price":48500,"dateOfTransfer":"1996-12-12T00:00:00","postcodeFull":"B32 4AJ","propertyType":"Semi-detached","oldOrNew":"Established","duration":"Leasehold","paon":"84","saon":"","street":"WOOD LANE","locality":"WOODGATE","townOrCity":"BIRMINGHAM","district":"BIRMINGHAM","county":"WEST MIDLANDS","ppdCategoryType":"Standard","recordStatus":"Addition","latitude":52.437655,"longitude":-2.010385,"postcodeStart":"B32 4","postcode":["B32","4AJ"]}
{"price":30000,"dateOfTransfer":"1996-05-31T00:00:00","postcodeFull":"B32 4DB","propertyType":"Flat/Maisonette/Townhouse","oldOrNew":"Established","duration":"Leasehold","paon":"20","saon":"","street":"WINDSOR VIEW","locality":"BIRMINGHAM","townOrCity":"BIRMINGHAM","district":"BIRMINGHAM","county":"WEST MIDLANDS","ppdCategoryType":"Standard","recordStatus":"Addition","latitude":52.430832,"longitude":-2.006324,"postcodeStart":"B32 4","postcode":["B32","4DB"]}
{"price":32000,"dateOfTransfer":"1996-12-30T00:00:00","postcodeFull":"B32 4ET","propertyType":"Terraced","oldOrNew":"Established","duration":"Freehold","paon":"31","saon":"","street":"HAYLEY GREEN ROAD","locality":"BIRMINGHAM","townOrCity":"BIRMINGHAM","district":"BIRMINGHAM","county":"WEST MIDLANDS","ppdCategoryType":"Standard","recordStatus":"Addition","latitude":52.433268,"longitude":-2.004207,"postcodeStart":"B32 4","postcode":["B32","4ET"]}
{"price":41000,"dateOfTransfer":"1996-09-04T00:00:00","postcodeFull":"B32 4AW","propertyType":"Terraced","oldOrNew":"Established","duration":"Freehold","paon":"19","saon":"","street":"BUCKNALL CRESCENT","locality":"BIRMINGHAM","townOrCity":"BIRMINGHAM","district":"BIRMINGHAM","county":"WEST MIDLANDS","ppdCategoryType":"Standard","recordStatus":"Addition","latitude":52.433169,"longitude":-2.013267,"postcodeStart":"B32 4","postcode":["B32","4AW"]}
{"price":49500,"dateOfTransfer":"1996-06-21T00:00:00","postcodeFull":"B32 4LS","propertyType":"Semi-detached","oldOrNew":"Established","duration":"Leasehold","paon":"226","saon":"","street":"PINEWOOD DRIVE","locality":"BARTLEY GREEN","townOrCity":"BIRMINGHAM","district":"BIRMINGHAM","county":"WEST MIDLANDS","ppdCategoryType":"Standard","recordStatus":"Addition","latitude":52.435407,"longitude":-2.012326,"postcodeStart":"B32 4","postcode":["B32","4LS"]}
{"price":38500,"dateOfTransfer":"1996-08-02T00:00:00","postcodeFull":"B32 4DB","propertyType":"Terraced","oldOrNew":"Established","duration":"Leasehold","paon":"48","saon":"","street":"WINDSOR VIEW","locality":"BIRMINGHAM","townOrCity":"BIRMINGHAM","district":"BIRMINGHAM","county":"WEST MIDLANDS","ppdCategoryType":"Standard","recordStatus":"Addition","latitude":52.430832,"longitude":-2.006324,"postcodeStart":"B32 4","postcode":["B32","4DB"]}
{"price":48000,"dateOfTransfer":"1996-06-21T00:00:00","postcodeFull":"B32 4AJ","propertyType":"Semi-detached","oldOrNew":"Established","duration":"Leasehold","paon":"92","saon":"","street":"WOOD LANE","locality":"WOODGATE","townOrCity":"BIRMINGHAM","district":"BIRMINGHAM","county":"WEST MIDLANDS","ppdCategoryType":"Standard","recordStatus":"Addition","latitude":52.437655,"longitude":-2.010385,"postcodeStart":"B32 4","postcode":["B32","4AJ"]}
{"price":22000,"dateOfTransfer":"1996-05-24T00:00:00","postcodeFull":"B32 4NW","propertyType":"Flat/Maisonette/Townhouse","oldOrNew":"Established","duration":"Leasehold","paon":"12","saon":"FLAT 6","street":"CLENT WAY","locality":"BIRMINGHAM","townOrCity":"BIRMINGHAM","district":"BIRMINGHAM","county":"WEST MIDLANDS","ppdCategoryType":"Standard","recordStatus":"Addition","latitude":52.433465,"longitude":-2.015326,"postcodeStart":"B32 4","postcode":["B32","4NW"]}
{"price":32950,"dateOfTransfer":"1996-03-06T00:00:00","postcodeFull":"B32 4JL","propertyType":"Terraced","oldOrNew":"Established","duration":"Freehold","paon":"4","saon":"","street":"EARLS FERRY GARDENS","locality":"BIRMINGHAM","townOrCity":"BIRMINGHAM","district":"BIRMINGHAM","county":"WEST MIDLANDS","ppdCategoryType":"Standard","recordStatus":"Addition","latitude":52.428548,"longitude":-2.006015,"postcodeStart":"B32 4","postcode":["B32","4JL"]}
{"price":19000,"dateOfTransfer":"1996-04-26T00:00:00","postcodeFull":"B32 4HD","propertyType":"Terraced","oldOrNew":"Established","duration":"Leasehold","paon":"15","saon":"","street":"CURDALE ROAD","locality":"BIRMINGHAM","townOrCity":"BIRMINGHAM","district":"BIRMINGHAM","county":"WEST MIDLANDS","ppdCategoryType":"Standard","recordStatus":"Addition","latitude":52.433493,"longitude":-2.005236,"postcodeStart":"B32 4","postcode":["B32","4HD"]}
{"price":49250,"dateOfTransfer":"1996-09-27T00:00:00","postcodeFull":"B32 4BP","propertyType":"Terraced","oldOrNew":"Established","duration":"Freehold","paon":"17","saon":"","street":"SCOTLAND LANE","locality":"BIRMINGHAM","townOrCity":"BIRMINGHAM","district":"BIRMINGHAM","county":"WEST MIDLANDS","ppdCategoryType":"Standard","recordStatus":"Addition","latitude":52.43183,"longitude":-2.002015,"postcodeStart":"B32 4","postcode":["B32","4BP"]}
{"price":150000,"dateOfTransfer":"1996-03-01T00:00:00","postcodeFull":"B32 4AS","propertyType":"Detached","oldOrNew":"Established","duration":"Freehold","paon":"RAVENHURST","saon":"","street":"FRANKLEY GREEN","locality":"BIRMINGHAM","townOrCity":"BIRMINGHAM","district":"BROMSGROVE","county":"WORCESTERSHIRE","ppdCategoryType":"Standard","recordStatus":"Addition","latitude":52.421994,"longitude":-2.014984,"postcodeStart":"B32 4","postcode":["B32","4AS"]}
{"price":39000,"dateOfTransfer":"1996-09-23T00:00:00","postcodeFull":"B32 4DA","propertyType":"Terraced","oldOrNew":"Established","duration":"Leasehold","paon":"49","saon":"","street":"KITWELL LANE","locality":"BIRMINGHAM","townOrCity":"BIRMINGHAM","district":"BIRMINGHAM","county":"WEST MIDLANDS","ppdCategoryType":"Standard","recordStatus":"Addition","latitude":52.435515,"longitude":-2.011694,"postcodeStart":"B32 4","postcode":["B32","4DA"]}
{"price":42000,"dateOfTransfer":"1996-04-19T00:00:00","postcodeFull":"B32 4EP","propertyType":"Terraced","oldOrNew":"Established","duration":"Freehold","paon":"31","saon":"","street":"MILEBROOK GROVE","locality":"BIRMINGHAM","townOrCity":"BIRMINGHAM","district":"BIRMINGHAM","county":"WEST MIDLANDS","ppdCategoryType":"Standard","recordStatus":"Addition","latitude":52.435309,"longitude":-2.005457,"postcodeStart":"B32 4","postcode":["B32","4EP"]}
{"price":125000,"dateOfTransfer":"1996-02-16T00:00:00","postcodeFull":"B32 4AS","propertyType":"Detached","oldOrNew":"Established","duration":"Freehold","paon":"THE NIQUE","saon":"","street":"FRANKLEY GREEN","locality":"BIRMINGHAM","townOrCity":"BIRMINGHAM","district":"BROMSGROVE","county":"WORCESTERSHIRE","ppdCategoryType":"Standard","recordStatus":"Addition","latitude":52.421994,"longitude":-2.014984,"postcodeStart":"B32 4","postcode":["B32","4AS"]}
{"price":50000,"dateOfTransfer":"1996-05-17T00:00:00","postcodeFull":"B32 4LU","propertyType":"Terraced","oldOrNew":"Established","duration":"Leasehold","paon":"47","saon":"","street":"CLENT VIEW ROAD","locality":"BARTLEY GREEN","townOrCity":"BIRMINGHAM","district":"BIRMINGHAM","county":"WEST MIDLANDS","ppdCategoryType":"Standard","recordStatus":"Addition","latitude":52.437151,"longitude":-2.01268,"postcodeStart":"B32 4","postcode":["B32","4LU"]}
{"price":57950,"dateOfTransfer":"1996-01-31T00:00:00","postcodeFull":"B32 4DA","propertyType":"Semi-detached","oldOrNew":"Established","duration":"Leasehold","paon":"67","saon":"","street":"KITWELL LANE","locality":"BIRMINGHAM","townOrCity":"BIRMINGHAM","district":"BIRMINGHAM","county":"WEST MIDLANDS","ppdCategoryType":"Standard","recordStatus":"Addition","latitude":52.435515,"longitude":-2.011694,"postcodeStart":"B32 4","postcode":["B32","4DA"]}
{"price":30000,"dateOfTransfer":"1996-12-02T00:00:00","postcodeFull":"B32 4ED","propertyType":"Semi-detached","oldOrNew":"Established","duration":"Freehold","paon":"60","saon":"","street":"HASBURY ROAD","locality":"BIRMINGHAM","townOrCity":"BIRMINGHAM","district":"BIRMINGHAM","county":"WEST MIDLANDS","ppdCategoryType":"Standard","recordStatus":"Addition","latitude":52.432234,"longitude":-2.005207,"postcodeStart":"B32 4","postcode":["B32","4ED"]}
{"price":42500,"dateOfTransfer":"1996-10-10T00:00:00","postcodeFull":"B32 4JN","propertyType":"Terraced","oldOrNew":"Established","duration":"Freehold","paon":"4","saon":"","street":"LADY BANK","locality":"BIRMINGHAM","townOrCity":"BIRMINGHAM","district":"BIRMINGHAM","county":"WEST MIDLANDS","ppdCategoryType":"Standard","recordStatus":"Addition","latitude":52.428225,"longitude":-2.00678,"postcodeStart":"B32 4","postcode":["B32","4JN"]}
{"price":31825,"dateOfTransfer":"1996-02-02T00:00:00","postcodeFull":"B32 4JL","propertyType":"Terraced","oldOrNew":"Established","duration":"Freehold","paon":"4","saon":"","street":"EARLS FERRY GARDENS","locality":"BIRMINGHAM","townOrCity":"BIRMINGHAM","district":"BIRMINGHAM","county":"WEST MIDLANDS","ppdCategoryType":"Standard","recordStatus":"Addition","latitude":52.428548,"longitude":-2.006015,"postcodeStart":"B32 4","postcode":["B32","4JL"]}
{"price":43000,"dateOfTransfer":"1996-02-09T00:00:00","postcodeFull":"B32 4DA","propertyType":"Terraced","oldOrNew":"Established","duration":"Leasehold","paon":"11","saon":"","street":"KITWELL LANE","locality":"BIRMINGHAM","townOrCity":"BIRMINGHAM","district":"BIRMINGHAM","county":"WEST MIDLANDS","ppdCategoryType":"Standard","recordStatus":"Addition","latitude":52.435515,"longitude":-2.011694,"postcodeStart":"B32 4","postcode":["B32","4DA"]}
{"price":40500,"dateOfTransfer":"1996-08-05T00:00:00","postcodeFull":"B32 4JS","propertyType":"Terraced","oldOrNew":"Established","duration":"Freehold","paon":"58","saon":"","street":"HARLECH CLOSE","locality":"BIRMINGHAM","townOrCity":"BIRMINGHAM","district":"BIRMINGHAM","county":"WEST MIDLANDS","ppdCategoryType":"Standard","recordStatus":"Addition","latitude":52.427685,"longitude":-2.010045,"postcodeStart":"B32 4","postcode":["B32","4JS"]}
{"price":25500,"dateOfTransfer":"1996-09-23T00:00:00","postcodeFull":"B32 4DE","propertyType":"Semi-detached","oldOrNew":"Established","duration":"Freehold","paon":"14","saon":"","street":"TRIPPLETON AVENUE","locality":"BIRMINGHAM","townOrCity":"BIRMINGHAM","district":"BIRMINGHAM","county":"WEST MIDLANDS","ppdCategoryType":"Standard","recordStatus":"Addition","latitude":52.431587,"longitude":-2.007251,"postcodeStart":"B32 4","postcode":["B32","4DE"]}
{"price":53000,"dateOfTransfer":"1996-10-04T00:00:00","postcodeFull":"B32 4LW","propertyType":"Terraced","oldOrNew":"Established","duration":"Leasehold","paon":"76","saon":"","street":"CLENT VIEW ROAD","locality":"BARTLEY GREEN","townOrCity":"BIRMINGHAM","district":"BIRMINGHAM","county":"WEST MIDLANDS","ppdCategoryType":"Standard","recordStatus":"Addition","latitude":52.437807,"longitude":-2.012915,"postcodeStart":"B32 4","postcode":["B32","4LW"]}
{"price":38000,"dateOfTransfer":"1996-10-28T00:00:00","postcodeFull":"B32 4EG","propertyType":"Semi-detached","oldOrNew":"Established","duration":"Freehold","paon":"58","saon":"","street":"WOLVERLEY ROAD","locality":"BIRMINGHAM","townOrCity":"BIRMINGHAM","district":"BIRMINGHAM","county":"WEST MIDLANDS","ppdCategoryType":"Standard","recordStatus":"Addition","latitude":52.433223,"longitude":-2.00756,"postcodeStart":"B32 4","postcode":["B32","4EG"]}
{"price":18500,"dateOfTransfer":"1996-01-19T00:00:00","postcodeFull":"B32 4AJ","propertyType":"Terraced","oldOrNew":"Established","duration":"Leasehold","paon":"78","saon":"","street":"WOOD LANE","locality":"WOODGATE","townOrCity":"BIRMINGHAM","district":"BIRMINGHAM","county":"WEST MIDLANDS","ppdCategoryType":"Standard","recordStatus":"Addition","latitude":52.437655,"longitude":-2.010385,"postcodeStart":"B32 4","postcode":["B32","4AJ"]}
{"price":39000,"dateOfTransfer":"1997-02-14T00:00:00","postcodeFull":"B32 4JL","propertyType":"Terraced","oldOrNew":"Established","duration":"Freehold","paon":"8","saon":"","street":"EARLS FERRY GARDENS","locality":"BIRMINGHAM","townOrCity":"BIRMINGHAM","district":"BIRMINGHAM","county":"WEST MIDLANDS","ppdCategoryType":"Standard","recordStatus":"Addition","latitude":52.428548,"longitude":-2.006015,"postcodeStart":"B32 4","postcode":["B32","4JL"]}
{"price":46000,"dateOfTransfer":"1997-02-28T00:00:00","postcodeFull":"B32 4AE","propertyType":"Semi-detached","oldOrNew":"Established","duration":"Freehold","paon":"27","saon":"","street":"WOODGATE DRIVE","locality":"BIRMINGHAM","townOrCity":"BIRMINGHAM","district":"BIRMINGHAM","county":"WEST MIDLANDS","ppdCategoryType":"Standard","recordStatus":"Addition","latitude":52.438572,"longitude":-2.008326,"postcodeStart":"B32 4","postcode":["B32","4AE"]}
{"price":32100,"dateOfTransfer":"1997-11-06T00:00:00","postcodeFull":"B32 4DZ","propertyType":"Semi-detached","oldOrNew":"Established","duration":"Freehold","paon":"53","saon":"","street":"KITSWELL GARDENS","locality":"BIRMINGHAM","townOrCity":"BIRMINGHAM","district":"BIRMINGHAM","county":"WEST MIDLANDS","ppdCategoryType":"Standard","recordStatus":"Addition","latitude":52.432423,"longitude":-2.011517,"postcodeStart":"B32 4","postcode":["B32","4DZ"]}
{"price":44000,"dateOfTransfer":"1997-03-27T00:00:00","postcodeFull":"B32 4AW","propertyType":"Terraced","oldOrNew":"Established","duration":"Freehold","paon":"6","saon":"","street":"BUCKNALL CRESCENT","locality":"BIRMINGHAM","townOrCity":"BIRMINGHAM","district":"BIRMINGHAM","county":"WEST MIDLANDS","ppdCategoryType":"Standard","recordStatus":"Addition","latitude":52.433169,"longitude":-2.013267,"postcodeStart":"B32 4","postcode":["B32","4AW"]}
{"price":33500,"dateOfTransfer":"1997-12-12T00:00:00","postcodeFull":"B32 4HL","propertyType":"Terraced","oldOrNew":"Established","duration":"Freehold","paon":"191","saon":"","street":"FIELD LANE","locality":"BARTLEY GREEN","townOrCity":"BIRMINGHAM","district":"BIRMINGHAM","county":"WEST MIDLANDS","ppdCategoryType":"Standard","recordStatus":"Addition","latitude":52.436037,"longitude":-2.008796,"postcodeStart":"B32 4","postcode":["B32","4HL"]}
{"price":45500,"dateOfTransfer":"1997-07-09T00:00:00","postcodeFull":"B32 4AL","propertyType":"Terraced","oldOrNew":"Established","duration":"Freehold","paon":"66","saon":"","street":"KITWELL LANE","locality":"BIRMINGHAM","townOrCity":"BIRMINGHAM","district":"BIRMINGHAM","county":"WEST MIDLANDS","ppdCategoryType":"Standard","recordStatus":"Addition","latitude":52.435003,"longitude":-2.011341,"postcodeStart":"B32 4","postcode":["B32","4AL"]}
{"price":48000,"dateOfTransfer":"1997-05-23T00:00:00","postcodeFull":"B32 4LU","propertyType":"Terraced","oldOrNew":"Established","duration":"Leasehold","paon":"7","saon":"","street":"CLENT VIEW ROAD","locality":"BARTLEY GREEN","townOrCity":"BIRMINGHAM","district":"BIRMINGHAM","county":"WEST MIDLANDS","ppdCategoryType":"Standard","recordStatus":"Addition","latitude":52.437151,"longitude":-2.01268,"postcodeStart":"B32 4","postcode":["B32","4LU"]}
{"price":41500,"dateOfTransfer":"1997-06-30T00:00:00","postcodeFull":"B32 4LF","propertyType":"Semi-detached","oldOrNew":"Established","duration":"Leasehold","paon":"77","saon":"","street":"PINEWOOD DRIVE","locality":"BARTLEY GREEN","townOrCity":"BIRMINGHAM","district":"BIRMINGHAM","county":"WEST MIDLANDS","ppdCategoryType":"Standard","recordStatus":"Addition","latitude":52.439588,"longitude":-2.011121,"postcodeStart":"B32 4","postcode":["B32","4LF"]}
{"price":51500,"dateOfTransfer":"1997-12-12T00:00:00","postcodeFull":"B32 4LH","propertyType":"Terraced","oldOrNew":"Established","duration":"Leasehold","paon":"21","saon":"","street":"MOAT FARM DRIVE","locality":"BARTLEY GREEN","townOrCity":"BIRMINGHAM","district":"BIRMINGHAM","county":"WEST MIDLANDS","ppdCategoryType":"Standard","recordStatus":"Addition","latitude":52.436962,"longitude":-2.012283,"postcodeStart":"B32 4","postcode":["B32","4LH"]}
{"price":46250,"dateOfTransfer":"1997-08-19T00:00:00","postcodeFull":"B32 4LE","propertyType":"Terraced","oldOrNew":"Established","duration":"Leasehold","paon":"12","saon":"","street":"WESTCOMBE GROVE","locality":"BIRMINGHAM","townOrCity":"BIRMINGHAM","district":"BIRMINGHAM","county":"WEST MIDLANDS","ppdCategoryType":"Standard","recordStatus":"Addition","latitude":52.439246,"longitude":-2.01168,"postcodeStart":"B32 4","postcode":["B32","4LE"]}
{"price":25000,"dateOfTransfer":"1997-06-27T00:00:00","postcodeFull":"B32 4DB","propertyType":"Flat/Maisonette/Townhouse","oldOrNew":"Established","duration":"Leasehold","paon":"6","saon":"","street":"WINDSOR VIEW","locality":"BIRMINGHAM","townOrCity":"BIRMINGHAM","district":"BIRMINGHAM","county":"WEST MIDLANDS","ppdCategoryType":"Standard","recordStatus":"Addition","latitude":52.430832,"longitude":-2.006324,"postcodeStart":"B32 4","postcode":["B32","4DB"]}
{"price":60000,"dateOfTransfer":"1997-10-17T00:00:00","postcodeFull":"B32 4AS","propertyType":"Semi-detached","oldOrNew":"Established","duration":"Freehold","paon":"9","saon":"","street":"FRANKLEY GREEN","locality":"BIRMINGHAM","townOrCity":"BIRMINGHAM","district":"BROMSGROVE","county":"WORCESTERSHIRE","ppdCategoryType":"Standard","recordStatus":"Addition","latitude":52.421994,"longitude":-2.014984,"postcodeStart":"B32 4","postcode":["B32","4AS"]}
{"price":40000,"dateOfTransfer":"1997-09-10T00:00:00","postcodeFull":"B32 4EP","propertyType":"Terraced","oldOrNew":"Established","duration":"Freehold","paon":"9","saon":"","street":"MILEBROOK GROVE","locality":"BIRMINGHAM","townOrCity":"BIRMINGHAM","district":"BIRMINGHAM","county":"WEST MIDLANDS","ppdCategoryType":"Standard","recordStatus":"Addition","latitude":52.435309,"longitude":-2.005457,"postcodeStart":"B32 4","postcode":["B32","4EP"]}
{"price":54500,"dateOfTransfer":"1997-09-12T00:00:00","postcodeFull":"B32 4LZ","propertyType":"Terraced","oldOrNew":"Established","duration":"Leasehold","paon":"17","saon":"","street":"ELMCROFT AVENUE","locality":"BIRMINGHAM","townOrCity":"BIRMINGHAM","district":"BIRMINGHAM","county":"WEST MIDLANDS","ppdCategoryType":"Standard","recordStatus":"Addition","latitude":52.438734,"longitude":-2.011695,"postcodeStart":"B32 4","postcode":["B32","4LZ"]}
{"price":31000,"dateOfTransfer":"1997-09-12T00:00:00","postcodeFull":"B32 4DB","propertyType":"Flat/Maisonette/Townhouse","oldOrNew":"Established","duration":"Leasehold","paon":"8","saon":"","street":"WINDSOR VIEW","locality":"BIRMINGHAM","townOrCity":"BIRMINGHAM","district":"BIRMINGHAM","county":"WEST MIDLANDS","ppdCategoryType":"Standard","recordStatus":"Addition","latitude":52.430832,"longitude":-2.006324,"postcodeStart":"B32 4","postcode":["B32","4DB"]}
{"price":25000,"dateOfTransfer":"1997-11-28T00:00:00","postcodeFull":"B32 4NW","propertyType":"Flat/Maisonette/Townhouse","oldOrNew":"Established","duration":"Leasehold","paon":"6","saon":"FLAT 6","street":"CLENT WAY","locality":"BIRMINGHAM","townOrCity":"BIRMINGHAM","district":"BIRMINGHAM","county":"WEST MIDLANDS","ppdCategoryType":"Standard","recordStatus":"Addition","latitude":52.433465,"longitude":-2.015326,"postcodeStart":"B32 4","postcode":["B32","4NW"]}
{"price":40950,"dateOfTransfer":"1997-10-06T00:00:00","postcodeFull":"B32 4ED","propertyType":"Terraced","oldOrNew":"Established","duration":"Freehold","paon":"68","saon":"","street":"HASBURY ROAD","locality":"BIRMINGHAM","townOrCity":"BIRMINGHAM","district":"BIRMINGHAM","county":"WEST MIDLANDS","ppdCategoryType":"Standard","recordStatus":"Addition","latitude":52.432234,"longitude":-2.005207,"postcodeStart":"B32 4","postcode":["B32","4ED"]}
{"price":25000,"dateOfTransfer":"1997-10-06T00:00:00","postcodeFull":"B32 4DU","propertyType":"Semi-detached","oldOrNew":"Established","duration":"Freehold","paon":"186","saon":"","street":"HASBURY ROAD","locality":"BIRMINGHAM","townOrCity":"BIRMINGHAM","district":"BIRMINGHAM","county":"WEST MIDLANDS","ppdCategoryType":"Standard","recordStatus":"Addition","latitude":52.433888,"longitude":-2.012488,"postcodeStart":"B32 4","postcode":["B32","4DU"]}
{"price":38000,"dateOfTransfer":"1997-06-06T00:00:00","postcodeFull":"B32 4DZ","propertyType":"Terraced","oldOrNew":"Established","duration":"Freehold","paon":"40","saon":"","street":"KITSWELL GARDENS","locality":"BIRMINGHAM","townOrCity":"BIRMINGHAM","district":"BIRMINGHAM","county":"WEST MIDLANDS","ppdCategoryType":"Standard","recordStatus":"Addition","latitude":52.432423,"longitude":-2.011517,"postcodeStart":"B32 4","postcode":["B32","4DZ"]}
{"price":45500,"dateOfTransfer":"1997-05-12T00:00:00","postcodeFull":"B32 4LJ","propertyType":"Semi-detached","oldOrNew":"Established","duration":"Leasehold","paon":"181","saon":"","street":"PINEWOOD DRIVE","locality":"BARTLEY GREEN","townOrCity":"BIRMINGHAM","district":"BIRMINGHAM","county":"WEST MIDLANDS","ppdCategoryType":"Standard","recordStatus":"Addition","latitude":52.436135,"longitude":-2.01215,"postcodeStart":"B32 4","postcode":["B32","4LJ"]}
{"price":22500,"dateOfTransfer":"1997-01-03T00:00:00","postcodeFull":"B32 4BB","propertyType":"Semi-detached","oldOrNew":"Established","duration":"Freehold","paon":"LOWER HILL COTTAGE","saon":"1","street":"POUND LANE","locality":"FRANKLEY","townOrCity":"BIRMINGHAM","district":"BROMSGROVE","county":"WORCESTERSHIRE","ppdCategoryType":"Standard","recordStatus":"Addition","latitude":52.41071,"longitude":-2.020772,"postcodeStart":"B32 4","postcode":["B32","4BB"]}
{"price":44000,"dateOfTransfer":"1997-06-06T00:00:00","postcodeFull":"B32 4LG","propertyType":"Semi-detached","oldOrNew":"Established","duration":"Leasehold","paon":"117","saon":"","street":"PINEWOOD DRIVE","locality":"BARTLEY GREEN","townOrCity":"BIRMINGHAM","district":"BIRMINGHAM","county":"WEST MIDLANDS","ppdCategoryType":"Standard","recordStatus":"Addition","latitude":52.437646,"longitude":-2.011371,"postcodeStart":"B32 4","postcode":["B32","4LG"]}
{"price":45000,"dateOfTransfer":"1997-02-14T00:00:00","postcodeFull":"B32 4DJ","propertyType":"Terraced","oldOrNew":"Established","duration":"Freehold","paon":"4","saon":"","street":"WYCHBURY ROAD","locality":"BIRMINGHAM","townOrCity":"BIRMINGHAM","district":"BIRMINGHAM","county":"WEST MIDLANDS","ppdCategoryType":"Standard","recordStatus":"Addition","latitude":52.431119,"longitude":-2.006413,"postcodeStart":"B32 4","postcode":["B32","4DJ"]}
{"price":57000,"dateOfTransfer":"1997-01-31T00:00:00","postcodeFull":"B32 4DJ","propertyType":"Detached","oldOrNew":"Established","duration":"Freehold","paon":"40","saon":"","street":"WYCHBURY ROAD","locality":"BIRMINGHAM","townOrCity":"BIRMINGHAM","district":"BIRMINGHAM","county":"WEST MIDLANDS","ppdCategoryType":"Standard","recordStatus":"Addition","latitude":52.431119,"longitude":-2.006413,"postcodeStart":"B32 4","postcode":["B32","4DJ"]}
{"price":46750,"dateOfTransfer":"1997-11-28T00:00:00","postcodeFull":"B32 4LE","propertyType":"Terraced","oldOrNew":"Established","duration":"Leasehold","paon":"17","saon":"","street":"WESTCOMBE GROVE","locality":"BIRMINGHAM","townOrCity":"BIRMINGHAM","district":"BIRMINGHAM","county":"WEST MIDLANDS","ppdCategoryType":"Standard","recordStatus":"Addition","latitude":52.439246,"longitude":-2.01168,"postcodeStart":"B32 4","postcode":["B32","4LE"]}
{"price":25500,"dateOfTransfer":"1997-04-30T00:00:00","postcodeFull":"B32 4NW","propertyType":"Flat/Maisonette/Townhouse","oldOrNew":"Established","duration":"Leasehold","paon":"2","saon":"FLAT 2","street":"CLENT WAY","locality":"BIRMINGHAM","townOrCity":"BIRMINGHAM","district":"BIRMINGHAM","county":"WEST MIDLANDS","ppdCategoryType":"Standard","recordStatus":"Addition","latitude":52.433465,"longitude":-2.015326,"postcodeStart":"B32 4","postcode":["B32","4NW"]}
{"price":57000,"dateOfTransfer":"1997-11-28T00:00:00","postcodeFull":"B32 4LA","propertyType":"Semi-detached","oldOrNew":"Established","duration":"Freehold","paon":"6","saon":"","street":"WOODVALE ROAD","locality":"WOODGATE","townOrCity":"BIRMINGHAM","district":"BIRMINGHAM","county":"WEST MIDLANDS","ppdCategoryType":"Standard","recordStatus":"Addition","latitude":52.439156,"longitude":-2.010209,"postcodeStart":"B32 4","postcode":["B32","4LA"]}
{"price":46000,"dateOfTransfer":"1997-09-05T00:00:00","postcodeFull":"B32 4LD","propertyType":"Terraced","oldOrNew":"Established","duration":"Leasehold","paon":"70","saon":"","street":"PINEWOOD DRIVE","locality":"BARTLEY GREEN","townOrCity":"BIRMINGHAM","district":"BIRMINGHAM","county":"WEST MIDLANDS","ppdCategoryType":"Standard","recordStatus":"Addition","latitude":52.440082,"longitude":-2.011166,"postcodeStart":"B32 4","postcode":["B32","4LD"]}
{"price":44750,"dateOfTransfer":"1997-06-06T00:00:00","postcodeFull":"B32 4DJ","propertyType":"Terraced","oldOrNew":"Established","duration":"Leasehold","paon":"26","saon":"","street":"WYCHBURY ROAD","locality":"BIRMINGHAM","townOrCity":"BIRMINGHAM","district":"BIRMINGHAM","county":"WEST MIDLANDS","ppdCategoryType":"Standard","recordStatus":"Addition","latitude":52.431119,"longitude":-2.006413,"postcodeStart":"B32 4","postcode":["B32","4DJ"]}
{"price":30000,"dateOfTransfer":"1997-07-25T00:00:00","postcodeFull":"B32 4NW","propertyType":"Terraced","oldOrNew":"Established","duration":"Leasehold","paon":"14","saon":"FLAT 4","street":"CLENT WAY","locality":"BIRMINGHAM","townOrCity":"BIRMINGHAM","district":"BIRMINGHAM","county":"WEST MIDLANDS","ppdCategoryType":"Standard","recordStatus":"Addition","latitude":52.433465,"longitude":-2.015326,"postcodeStart":"B32 4","postcode":["B32","4NW"]}
{"price":44500,"dateOfTransfer":"1997-06-27T00:00:00","postcodeFull":"B32 4DJ","propertyType":"Semi-detached","oldOrNew":"Established","duration":"Leasehold","paon":"22","saon":"","street":"WYCHBURY ROAD","locality":"BIRMINGHAM","townOrCity":"BIRMINGHAM","district":"BIRMINGHAM","county":"WEST MIDLANDS","ppdCategoryType":"Standard","recordStatus":"Addition","latitude":52.431119,"longitude":-2.006413,"postcodeStart":"B32 4","postcode":["B32","4DJ"]}
{"price":49995,"dateOfTransfer":"1997-06-06T00:00:00","postcodeFull":"B32 4LG","propertyType":"Semi-detached","oldOrNew":"Established","duration":"Leasehold","paon":"117","saon":"","street":"PINEWOOD DRIVE","locality":"BARTLEY GREEN","townOrCity":"BIRMINGHAM","district":"BIRMINGHAM","county":"WEST MIDLANDS","ppdCategoryType":"Standard","recordStatus":"Addition","latitude":52.437646,"longitude":-2.011371,"postcodeStart":"B32 4","postcode":["B32","4LG"]}
{"price":30500,"dateOfTransfer":"1997-08-04T00:00:00","postcodeFull":"B32 4NW","propertyType":"Flat/Maisonette/Townhouse","oldOrNew":"Established","duration":"Leasehold","paon":"4","saon":"FLAT 3","street":"CLENT WAY","locality":"BIRMINGHAM","townOrCity":"BIRMINGHAM","district":"BIRMINGHAM","county":"WEST MIDLANDS","ppdCategoryType":"Standard","recordStatus":"Addition","latitude":52.433465,"longitude":-2.015326,"postcodeStart":"B32 4","postcode":["B32","4NW"]}
{"price":39950,"dateOfTransfer":"1997-07-28T00:00:00","postcodeFull":"B32 4ED","propertyType":"Semi-detached","oldOrNew":"Established","duration":"Freehold","paon":"39","saon":"","street":"HASBURY ROAD","locality":"BIRMINGHAM","townOrCity":"BIRMINGHAM","district":"BIRMINGHAM","county":"WEST MIDLANDS","ppdCategoryType":"Standard","recordStatus":"Addition","latitude":52.432234,"longitude":-2.005207,"postcodeStart":"B32 4","postcode":["B32","4ED"]}
{"price":41000,"dateOfTransfer":"1997-05-30T00:00:00","postcodeFull":"B32 4NL","propertyType":"Terraced","oldOrNew":"Established","duration":"Freehold","paon":"109","saon":"","street":"KITWELL LANE","locality":"BIRMINGHAM","townOrCity":"BIRMINGHAM","district":"BIRMINGHAM","county":"WEST MIDLANDS","ppdCategoryType":"Standard","recordStatus":"Addition","latitude":52.433834,"longitude":-2.014238,"postcodeStart":"B32 4","postcode":["B32","4NL"]}
{"price":36000,"dateOfTransfer":"1997-10-24T00:00:00","postcodeFull":"B32 4JT","propertyType":"Terraced","oldOrNew":"Established","duration":"Freehold","paon":"23","saon":"","street":"DOVER CLOSE","locality":"BIRMINGHAM","townOrCity":"BIRMINGHAM","district":"BIRMINGHAM","county":"WEST MIDLANDS","ppdCategoryType":"Standard","recordStatus":"Addition","latitude":52.42906,"longitude":-2.011074,"postcodeStart":"B32 4","postcode":["B32","4JT"]}
{"price":49000,"dateOfTransfer":"1997-07-28T00:00:00","postcodeFull":"B32 4LR","propertyType":"Terraced","oldOrNew":"Established","duration":"Leasehold","paon":"114","saon":"","street":"PINEWOOD DRIVE","locality":"BARTLEY GREEN","townOrCity":"BIRMINGHAM","district":"BIRMINGHAM","county":"WEST MIDLANDS","ppdCategoryType":"Standard","recordStatus":"Addition","latitude":52.437916,"longitude":-2.010783,"postcodeStart":"B32 4","postcode":["B32","4LR"]}
{"price":23000,"dateOfTransfer":"1997-01-31T00:00:00","postcodeFull":"B32 4NN","propertyType":"Flat/Maisonette/Townhouse","oldOrNew":"Established","duration":"Leasehold","paon":"22","saon":"FLAT 1","street":"CLENT WAY","locality":"BIRMINGHAM","townOrCity":"BIRMINGHAM","district":"BIRMINGHAM","county":"WEST MIDLANDS","ppdCategoryType":"Standard","recordStatus":"Addition","latitude":52.434373,"longitude":-2.014841,"postcodeStart":"B32 4","postcode":["B32","4NN"]}
{"price":53000,"dateOfTransfer":"1997-04-30T00:00:00","postcodeFull":"B32 4DA","propertyType":"Detached","oldOrNew":"Established","duration":"Leasehold","paon":"95","saon":"","street":"KITWELL LANE","locality":"BIRMINGHAM","townOrCity":"BIRMINGHAM","district":"BIRMINGHAM","county":"WEST MIDLANDS","ppdCategoryType":"Standard","recordStatus":"Addition","latitude":52.435515,"longitude":-2.011694,"postcodeStart":"B32 4","postcode":["B32","4DA"]}
{"price":52000,"dateOfTransfer":"1997-03-26T00:00:00","postcodeFull":"B32 4AJ","propertyType":"Terraced","oldOrNew":"Established","duration":"Leasehold","paon":"68","saon":"","street":"WOOD LANE","locality":"WOODGATE","townOrCity":"BIRMINGHAM","district":"BIRMINGHAM","county":"WEST MIDLANDS","ppdCategoryType":"Standard","recordStatus":"Addition","latitude":52.437655,"longitude":-2.010385,"postcodeStart":"B32 4","postcode":["B32","4AJ"]}
{"price":51000,"dateOfTransfer":"1997-07-18T00:00:00","postcodeFull":"B32 4LS","propertyType":"Semi-detached","oldOrNew":"Established","duration":"Leasehold","paon":"210","saon":"","street":"PINEWOOD DRIVE","locality":"BARTLEY GREEN","townOrCity":"BIRMINGHAM","district":"BIRMINGHAM","county":"WEST MIDLANDS","ppdCategoryType":"Standard","recordStatus":"Addition","latitude":52.435407,"longitude":-2.012326,"postcodeStart":"B32 4","postcode":["B32","4LS"]}
{"price":35000,"dateOfTransfer":"1997-04-28T00:00:00","postcodeFull":"B32 4DS","propertyType":"Semi-detached","oldOrNew":"Established","duration":"Freehold","paon":"36","saon":"","street":"BURRINGTON ROAD","locality":"BIRMINGHAM","townOrCity":"BIRMINGHAM","district":"BIRMINGHAM","county":"WEST MIDLANDS","ppdCategoryType":"Standard","recordStatus":"Addition","latitude":52.434131,"longitude":-2.010017,"postcodeStart":"B32 4","postcode":["B32","4DS"]}
{"price":27300,"dateOfTransfer":"1997-01-31T00:00:00","postcodeFull":"B32 4DX","propertyType":"Flat/Maisonette/Townhouse","oldOrNew":"Established","duration":"Leasehold","paon":"10","saon":"","street":"DUDNILL GROVE","locality":"BIRMINGHAM","townOrCity":"BIRMINGHAM","district":"BIRMINGHAM","county":"WEST MIDLANDS","ppdCategoryType":"Standard","recordStatus":"Addition","latitude":52.433277,"longitude":-2.012414,"postcodeStart":"B32 4","postcode":["B32","4DX"]}
{"price":47000,"dateOfTransfer":"1997-03-27T00:00:00","postcodeFull":"B32 4LJ","propertyType":"Terraced","oldOrNew":"Established","duration":"Leasehold","paon":"179","saon":"","street":"PINEWOOD DRIVE","locality":"BARTLEY GREEN","townOrCity":"BIRMINGHAM","district":"BIRMINGHAM","county":"WEST MIDLANDS","ppdCategoryType":"Standard","recordStatus":"Addition","latitude":52.436135,"longitude":-2.01215,"postcodeStart":"B32 4","postcode":["B32","4LJ"]}
{"price":48950,"dateOfTransfer":"1997-09-10T00:00:00","postcodeFull":"B32 4DA","propertyType":"Terraced","oldOrNew":"Established","duration":"Freehold","paon":"43","saon":"","street":"KITWELL LANE","locality":"BIRMINGHAM","townOrCity":"BIRMINGHAM","district":"BIRMINGHAM","county":"WEST MIDLANDS","ppdCategoryType":"Standard","recordStatus":"Addition","latitude":52.435515,"longitude":-2.011694,"postcodeStart":"B32 4","postcode":["B32","4DA"]}
{"price":49750,"dateOfTransfer":"1998-01-09T00:00:00","postcodeFull":"B32 4LU","propertyType":"Terraced","oldOrNew":"Established","duration":"Leasehold","paon":"31","saon":"","street":"CLENT VIEW ROAD","locality":"BARTLEY GREEN","townOrCity":"BIRMINGHAM","district":"BIRMINGHAM","county":"WEST MIDLANDS","ppdCategoryType":"Standard","recordStatus":"Addition","latitude":52.437151,"longitude":-2.01268,"postcodeStart":"B32 4","postcode":["B32","4LU"]}
{"price":43000,"dateOfTransfer":"1998-10-20T00:00:00","postcodeFull":"B32 4DZ","propertyType":"Terraced","oldOrNew":"Established","duration":"Freehold","paon":"39","saon":"","street":"KITSWELL GARDENS","locality":"BIRMINGHAM","townOrCity":"BIRMINGHAM","district":"BIRMINGHAM","county":"WEST MIDLANDS","ppdCategoryType":"Standard","recordStatus":"Addition","latitude":52.432423,"longitude":-2.011517,"postcodeStart":"B32 4","postcode":["B32","4DZ"]}
{"price":51100,"dateOfTransfer":"1998-05-29T00:00:00","postcodeFull":"B32 4LR","propertyType":"Terraced","oldOrNew":"Established","duration":"Leasehold","paon":"98","saon":"","street":"PINEWOOD DRIVE","locality":"BARTLEY GREEN","townOrCity":"BIRMINGHAM","district":"BIRMINGHAM","county":"WEST MIDLANDS","ppdCategoryType":"Standard","recordStatus":"Addition","latitude":52.437916,"longitude":-2.010783,"postcodeStart":"B32 4","postcode":["B32","4LR"]}
{"price":58000,"dateOfTransfer":"1998-05-30T00:00:00","postcodeFull":"B32 4DB","propertyType":"Detached","oldOrNew":"Established","duration":"Leasehold","paon":"15","saon":"","street":"WINDSOR VIEW","locality":"BIRMINGHAM","townOrCity":"BIRMINGHAM","district":"BIRMINGHAM","county":"WEST MIDLANDS","ppdCategoryType":"Standard","recordStatus":"Addition","latitude":52.430832,"longitude":-2.006324,"postcodeStart":"B32 4","postcode":["B32","4DB"]}
{"price":47000,"dateOfTransfer":"1998-06-12T00:00:00","postcodeFull":"B32 4BB","propertyType":"Flat/Maisonette/Townhouse","oldOrNew":"Established","duration":"Leasehold","paon":"LOWER HILL FARM","saon":"3","street":"POUND LANE","locality":"FRANKLEY","townOrCity":"BIRMINGHAM","district":"BROMSGROVE","county":"WORCESTERSHIRE","ppdCategoryType":"Standard","recordStatus":"Addition","latitude":52.41071,"longitude":-2.020772,"postcodeStart":"B32 4","postcode":["B32","4BB"]}
{"price":28000,"dateOfTransfer":"1998-08-28T00:00:00","postcodeFull":"B32 4DB","propertyType":"Flat/Maisonette/Townhouse","oldOrNew":"Established","duration":"Leasehold","paon":"22","saon":"","street":"WINDSOR VIEW","locality":"BIRMINGHAM","townOrCity":"BIRMINGHAM","district":"BIRMINGHAM","county":"WEST MIDLANDS","ppdCategoryType":"Standard","recordStatus":"Addition","latitude":52.430832,"longitude":-2.006324,"postcodeStart":"B32 4","postcode":["B32","4DB"]}
{"price":48950,"dateOfTransfer":"1998-07-15T00:00:00","postcodeFull":"B32 4LD","propertyType":"Terraced","oldOrNew":"Established","duration":"Freehold","paon":"30","saon":"","street":"PINEWOOD DRIVE","locality":"BARTLEY GREEN","townOrCity":"BIRMINGHAM","district":"BIRMINGHAM","county":"WEST MIDLANDS","ppdCategoryType":"Standard","recordStatus":"Addition","latitude":52.440082,"longitude":-2.011166,"postcodeStart":"B32 4","postcode":["B32","4LD"]}
{"price":50500,"dateOfTransfer":"1998-10-07T00:00:00","postcodeFull":"B32 4LR","propertyType":"Terraced","oldOrNew":"Established","duration":"Leasehold","paon":"128","saon":"","street":"PINEWOOD DRIVE","locality":"BARTLEY GREEN","townOrCity":"BIRMINGHAM","district":"BIRMINGHAM","county":"WEST MIDLANDS","ppdCategoryType":"Standard","recordStatus":"Addition","latitude":52.437916,"longitude":-2.010783,"postcodeStart":"B32 4","postcode":["B32","4LR"]}
{"price":99500,"dateOfTransfer":"1998-04-06T00:00:00","postcodeFull":"B32 4BD","propertyType":"Detached","oldOrNew":"Established","duration":"Freehold","paon":"LOWER HILL FARM","saon":"1","street":"POUND LANE","locality":"FRANKLEY","townOrCity":"BIRMINGHAM","district":"BROMSGROVE","county":"WORCESTERSHIRE","ppdCategoryType":"Standard","recordStatus":"Addition","latitude":52.410558,"longitude":-2.020258,"postcodeStart":"B32 4","postcode":["B32","4BD"]}
{"price":46000,"dateOfTransfer":"1998-03-06T00:00:00","postcodeFull":"B32 4LS","propertyType":"Terraced","oldOrNew":"Established","duration":"Leasehold","paon":"200","saon":"","street":"PINEWOOD DRIVE","locality":"BARTLEY GREEN","townOrCity":"BIRMINGHAM","district":"BIRMINGHAM","county":"WEST MIDLANDS","ppdCategoryType":"Standard","recordStatus":"Addition","latitude":52.435407,"longitude":-2.012326,"postcodeStart":"B32 4","postcode":["B32","4LS"]}
{"price":39500,"dateOfTransfer":"1998-10-02T00:00:00","postcodeFull":"B32 4BP","propertyType":"Terraced","oldOrNew":"Established","duration":"Freehold","paon":"33","saon":"","street":"SCOTLAND LANE","locality":"BIRMINGHAM","townOrCity":"BIRMINGHAM","district":"BIRMINGHAM","county":"WEST MIDLANDS","ppdCategoryType":"Standard","recordStatus":"Addition","latitude":52.43183,"longitude":-2.002015,"postcodeStart":"B32 4","postcode":["B32","4BP"]}
{"price":43000,"dateOfTransfer":"1998-03-06T00:00:00","postcodeFull":"B32 4LJ","propertyType":"Terraced","oldOrNew":"Established","duration":"Leasehold","paon":"167","saon":"","street":"PINEWOOD DRIVE","locality":"BARTLEY GREEN","townOrCity":"BIRMINGHAM","district":"BIRMINGHAM","county":"WEST MIDLANDS","ppdCategoryType":"Standard","recordStatus":"Addition","latitude":52.436135,"longitude":-2.01215,"postcodeStart":"B32 4","postcode":["B32","4LJ"]}
{"price":48000,"dateOfTransfer":"1998-11-20T00:00:00","postcodeFull":"B32 4AE","propertyType":"Terraced","oldOrNew":"Established","duration":"Leasehold","paon":"33","saon":"","street":"WOODGATE DRIVE","locality":"BIRMINGHAM","townOrCity":"BIRMINGHAM","district":"BIRMINGHAM","county":"WEST MIDLANDS","ppdCategoryType":"Standard","recordStatus":"Addition","latitude":52.438572,"longitude":-2.008326,"postcodeStart":"B32 4","postcode":["B32","4AE"]}
{"price":54000,"dateOfTransfer":"1998-10-23T00:00:00","postcodeFull":"B32 4LJ","propertyType":"Terraced","oldOrNew":"Established","duration":"Freehold","paon":"185","saon":"","street":"PINEWOOD DRIVE","locality":"BARTLEY GREEN","townOrCity":"BIRMINGHAM","district":"BIRMINGHAM","county":"WEST MIDLANDS","ppdCategoryType":"Standard","recordStatus":"Addition","latitude":52.436135,"longitude":-2.01215,"postcodeStart":"B32 4","postcode":["B32","4LJ"]}
{"price":49450,"dateOfTransfer":"1998-08-14T00:00:00","postcodeFull":"B32 4LR","propertyType":"Terraced","oldOrNew":"Established","duration":"Leasehold","paon":"122","saon":"","street":"PINEWOOD DRIVE","locality":"BARTLEY GREEN","townOrCity":"BIRMINGHAM","district":"BIRMINGHAM","county":"WEST MIDLANDS","ppdCategoryType":"Standard","recordStatus":"Addition","latitude":52.437916,"longitude":-2.010783,"postcodeStart":"B32 4","postcode":["B32","4LR"]}
{"price":47000,"dateOfTransfer":"1998-07-24T00:00:00","postcodeFull":"B32 4DB","propertyType":"Semi-detached","oldOrNew":"Established","duration":"Leasehold","paon":"42","saon":"","street":"WINDSOR VIEW","locality":"BIRMINGHAM","townOrCity":"BIRMINGHAM","district":"BIRMINGHAM","county":"WEST MIDLANDS","ppdCategoryType":"Standard","recordStatus":"Addition","latitude":52.430832,"longitude":-2.006324,"postcodeStart":"B32 4","postcode":["B32","4DB"]}
{"price":69950,"dateOfTransfer":"1998-03-04T00:00:00","postcodeFull":"B32 4BB","propertyType":"Flat/Maisonette/Townhouse","oldOrNew":"Established","duration":"Leasehold","paon":"LOWER HILL FARM","saon":"3","street":"POUND LANE","locality":"FRANKLEY","townOrCity":"BIRMINGHAM","district":"BROMSGROVE","county":"WORCESTERSHIRE","ppdCategoryType":"Standard","recordStatus":"Addition","latitude":52.41071,"longitude":-2.020772,"postcodeStart":"B32 4","postcode":["B32","4BB"]}
{"price":46000,"dateOfTransfer":"1998-08-28T00:00:00","postcodeFull":"B32 4AN","propertyType":"Terraced","oldOrNew":"Established","duration":"Freehold","paon":"94","saon":"","street":"KITWELL LANE","locality":"BIRMINGHAM","townOrCity":"BIRMINGHAM","district":"BIRMINGHAM","county":"WEST MIDLANDS","ppdCategoryType":"Standard","recordStatus":"Addition","latitude":52.433519,"longitude":-2.013708,"postcodeStart":"B32 4","postcode":["B32","4AN"]}
{"price":47000,"dateOfTransfer":"1998-04-03T00:00:00","postcodeFull":"B32 4AL","propertyType":"Semi-detached","oldOrNew":"Established","duration":"Freehold","paon":"62","saon":"","street":"KITWELL LANE","locality":"BIRMINGHAM","townOrCity":"BIRMINGHAM","district":"BIRMINGHAM","county":"WEST MIDLANDS","ppdCategoryType":"Standard","recordStatus":"Addition","latitude":52.435003,"longitude":-2.011341,"postcodeStart":"B32 4","postcode":["B32","4AL"]}
{"price":51000,"dateOfTransfer":"1998-12-04T00:00:00","postcodeFull":"B32 4LJ","propertyType":"Semi-detached","oldOrNew":"Established","duration":"Leasehold","paon":"199","saon":"","street":"PINEWOOD DRIVE","locality":"BARTLEY GREEN","townOrCity":"BIRMINGHAM","district":"BIRMINGHAM","county":"WEST MIDLANDS","ppdCategoryType":"Standard","recordStatus":"Addition","latitude":52.436135,"longitude":-2.01215,"postcodeStart":"B32 4","postcode":["B32","4LJ"]}
{"price":33000,"dateOfTransfer":"1998-03-27T00:00:00","postcodeFull":"B32 4NW","propertyType":"Flat/Maisonette/Townhouse","oldOrNew":"Established","duration":"Leasehold","paon":"16","saon":"FLAT 1","street":"CLENT WAY","locality":"BIRMINGHAM","townOrCity":"BIRMINGHAM","district":"BIRMINGHAM","county":"WEST MIDLANDS","ppdCategoryType":"Standard","recordStatus":"Addition","latitude":52.433465,"longitude":-2.015326,"postcodeStart":"B32 4","postcode":["B32","4NW"]}
{"price":28000,"dateOfTransfer":"1998-05-22T00:00:00","postcodeFull":"B32 4NN","propertyType":"Flat/Maisonette/Townhouse","oldOrNew":"Established","duration":"Leasehold","paon":"26","saon":"FLAT 3","street":"CLENT WAY","locality":"BIRMINGHAM","townOrCity":"BIRMINGHAM","district":"BIRMINGHAM","county":"WEST MIDLANDS","ppdCategoryType":"Standard","recordStatus":"Addition","latitude":52.434373,"longitude":-2.014841,"postcodeStart":"B32 4","postcode":["B32","4NN"]}
{"price":31000,"dateOfTransfer":"1998-12-11T00:00:00","postcodeFull":"B32 4LW","propertyType":"Terraced","oldOrNew":"Established","duration":"Leasehold","paon":"72","saon":"","street":"CLENT VIEW ROAD","locality":"BARTLEY GREEN","townOrCity":"BIRMINGHAM","district":"BIRMINGHAM","county":"WEST MIDLANDS","ppdCategoryType":"Standard","recordStatus":"Addition","latitude":52.437807,"longitude":-2.012915,"postcodeStart":"B32 4","postcode":["B32","4LW"]}
{"price":47500,"dateOfTransfer":"1998-12-11T00:00:00","postcodeFull":"B32 4LW","propertyType":"Terraced","oldOrNew":"Established","duration":"Leasehold","paon":"72","saon":"","street":"CLENT VIEW ROAD","locality":"BARTLEY GREEN","townOrCity":"BIRMINGHAM","district":"BIRMINGHAM","county":"WEST MIDLANDS","ppdCategoryType":"Standard","recordStatus":"Addition","latitude":52.437807,"longitude":-2.012915,"postcodeStart":"B32 4","postcode":["B32","4LW"]}
{"price":28000,"dateOfTransfer":"1998-03-31T00:00:00","postcodeFull":"B32 4DX","propertyType":"Flat/Maisonette/Townhouse","oldOrNew":"Established","duration":"Leasehold","paon":"23","saon":"","street":"DUDNILL GROVE","locality":"BIRMINGHAM","townOrCity":"BIRMINGHAM","district":"BIRMINGHAM","county":"WEST MIDLANDS","ppdCategoryType":"Standard","recordStatus":"Addition","latitude":52.433277,"longitude":-2.012414,"postcodeStart":"B32 4","postcode":["B32","4DX"]}
{"price":24120,"dateOfTransfer":"1998-10-12T00:00:00","postcodeFull":"B32 4DH","propertyType":"Semi-detached","oldOrNew":"New build","duration":"Freehold","paon":"1","saon":"","street":"WYCHBURY ROAD","locality":"BIRMINGHAM","townOrCity":"BIRMINGHAM","district":"BIRMINGHAM","county":"WEST MIDLANDS","ppdCategoryType":"Standard","recordStatus":"Addition","latitude":52.431254,"longitude":-2.006972,"postcodeStart":"B32 4","postcode":["B32","4DH"]}
{"price":44000,"dateOfTransfer":"1998-01-30T00:00:00","postcodeFull":"B32 4AL","propertyType":"Terraced","oldOrNew":"Established","duration":"Freehold","paon":"70","saon":"","street":"KITWELL LANE","locality":"BIRMINGHAM","townOrCity":"BIRMINGHAM","district":"BIRMINGHAM","county":"WEST MIDLANDS","ppdCategoryType":"Standard","recordStatus":"Addition","latitude":52.435003,"longitude":-2.011341,"postcodeStart":"B32 4","postcode":["B32","4AL"]}
{"price":47500,"dateOfTransfer":"1998-07-17T00:00:00","postcodeFull":"B32 4LN","propertyType":"Terraced","oldOrNew":"Established","duration":"Leasehold","paon":"38","saon":"","street":"CLENT VIEW ROAD","locality":"BARTLEY GREEN","townOrCity":"BIRMINGHAM","district":"BIRMINGHAM","county":"WEST MIDLANDS","ppdCategoryType":"Standard","recordStatus":"Addition","latitude":52.436153,"longitude":-2.013386,"postcodeStart":"B32 4","postcode":["B32","4LN"]}
{"price":49950,"dateOfTransfer":"1998-09-18T00:00:00","postcodeFull":"B32 4AL","propertyType":"Semi-detached","oldOrNew":"Established","duration":"Freehold","paon":"48","saon":"","street":"KITWELL LANE","locality":"BIRMINGHAM","townOrCity":"BIRMINGHAM","district":"BIRMINGHAM","county":"WEST MIDLANDS","ppdCategoryType":"Standard","recordStatus":"Addition","latitude":52.435003,"longitude":-2.011341,"postcodeStart":"B32 4","postcode":["B32","4AL"]}
{"price":51500,"dateOfTransfer":"1998-07-17T00:00:00","postcodeFull":"B32 4LD","propertyType":"Terraced","oldOrNew":"Established","duration":"Freehold","paon":"58","saon":"","street":"PINEWOOD DRIVE","locality":"BARTLEY GREEN","townOrCity":"BIRMINGHAM","district":"BIRMINGHAM","county":"WEST MIDLANDS","ppdCategoryType":"Standard","recordStatus":"Addition","latitude":52.440082,"longitude":-2.011166,"postcodeStart":"B32 4","postcode":["B32","4LD"]}
{"price":39000,"dateOfTransfer":"1998-08-21T00:00:00","postcodeFull":"B32 4JU","propertyType":"Terraced","oldOrNew":"Established","duration":"Freehold","paon":"14","saon":"","street":"LONGFORD CLOSE","locality":"BIRMINGHAM","townOrCity":"BIRMINGHAM","district":"BIRMINGHAM","county":"WEST MIDLANDS","ppdCategoryType":"Standard","recordStatus":"Addition","latitude":52.428818,"longitude":-2.011619,"postcodeStart":"B32 4","postcode":["B32","4JU"]}
{"price":38000,"dateOfTransfer":"1998-02-02T00:00:00","postcodeFull":"B32 4HL","propertyType":"Terraced","oldOrNew":"Established","duration":"Leasehold","paon":"179","saon":"","street":"FIELD LANE","locality":"BARTLEY GREEN","townOrCity":"BIRMINGHAM","district":"BIRMINGHAM","county":"WEST MIDLANDS","ppdCategoryType":"Standard","recordStatus":"Addition","latitude":52.436037,"longitude":-2.008796,"postcodeStart":"B32 4","postcode":["B32","4HL"]}
{"price":51000,"dateOfTransfer":"1998-01-30T00:00:00","postcodeFull":"B32 4LG","propertyType":"Semi-detached","oldOrNew":"Established","duration":"Leasehold","paon":"145","saon":"","street":"PINEWOOD DRIVE","locality":"BARTLEY GREEN","townOrCity":"BIRMINGHAM","district":"BIRMINGHAM","county":"WEST MIDLANDS","ppdCategoryType":"Standard","recordStatus":"Addition","latitude":52.437646,"longitude":-2.011371,"postcodeStart":"B32 4","postcode":["B32","4LG"]}
{"price":54400,"dateOfTransfer":"1998-07-14T00:00:00","postcodeFull":"B32 4LQ","propertyType":"Terraced","oldOrNew":"Established","duration":"Leasehold","paon":"20","saon":"","street":"HUNNINGTON CLOSE","locality":"BIRMINGHAM","townOrCity":"BIRMINGHAM","district":"BIRMINGHAM","county":"WEST MIDLANDS","ppdCategoryType":"Standard","recordStatus":"Addition","latitude":52.437853,"longitude":-2.011915,"postcodeStart":"B32 4","postcode":["B32","4LQ"]}
{"price":47000,"dateOfTransfer":"1998-04-03T00:00:00","postcodeFull":"B32 4LT","propertyType":"Semi-detached","oldOrNew":"Established","duration":"Leasehold","paon":"8","saon":"","street":"HILLSIDE CLOSE","locality":"BIRMINGHAM","townOrCity":"BIRMINGHAM","district":"BIRMINGHAM","county":"WEST MIDLANDS","ppdCategoryType":"Standard","recordStatus":"Addition","latitude":52.435254,"longitude":-2.0139,"postcodeStart":"B32 4","postcode":["B32","4LT"]}
{"price":21000,"dateOfTransfer":"1998-12-07T00:00:00","postcodeFull":"B32 4EH","propertyType":"Terraced","oldOrNew":"Established","duration":"Freehold","paon":"28","saon":"","street":"WOLVERLEY ROAD","locality":"BIRMINGHAM","townOrCity":"BIRMINGHAM","district":"BIRMINGHAM","county":"WEST MIDLANDS","ppdCategoryType":"Standard","recordStatus":"Addition","latitude":52.434041,"longitude":-2.006751,"postcodeStart":"B32 4","postcode":["B32","4EH"]}
{"price":44000,"dateOfTransfer":"1998-07-07T00:00:00","postcodeFull":"B32 4JA","propertyType":"Terraced","oldOrNew":"Established","duration":"Freehold","paon":"1","saon":"","street":"GLENGARRY CLOSE","locality":"BIRMINGHAM","townOrCity":"BIRMINGHAM","district":"BIRMINGHAM","county":"WEST MIDLANDS","ppdCategoryType":"Standard","recordStatus":"Addition","latitude":52.43076,"longitude":-2.002133,"postcodeStart":"B32 4","postcode":["B32","4JA"]}
{"price":39500,"dateOfTransfer":"1998-04-27T00:00:00","postcodeFull":"B32 4DS","propertyType":"Terraced","oldOrNew":"Established","duration":"Freehold","paon":"44","saon":"","street":"BURRINGTON ROAD","locality":"BIRMINGHAM","townOrCity":"BIRMINGHAM","district":"BIRMINGHAM","county":"WEST MIDLANDS","ppdCategoryType":"Standard","recordStatus":"Addition","latitude":52.434131,"longitude":-2.010017,"postcodeStart":"B32 4","postcode":["B32","4DS"]}
{"price":90000,"dateOfTransfer":"1998-09-18T00:00:00","postcodeFull":"B32 4BB","propertyType":"Terraced","oldOrNew":"Established","duration":"Freehold","paon":"LOWER HILL FARM","saon":"8","street":"POUND LANE","locality":"FRANKLEY","townOrCity":"BIRMINGHAM","district":"BROMSGROVE","county":"WORCESTERSHIRE","ppdCategoryType":"Standard","recordStatus":"Addition","latitude":52.41071,"longitude":-2.020772,"postcodeStart":"B32 4","postcode":["B32","4BB"]}
{"price":18000,"dateOfTransfer":"1998-10-26T00:00:00","postcodeFull":"B32 4LE","propertyType":"Flat/Maisonette/Townhouse","oldOrNew":"Established","duration":"Leasehold","paon":"31","saon":"","street":"WESTCOMBE GROVE","locality":"BIRMINGHAM","townOrCity":"BIRMINGHAM","district":"BIRMINGHAM","county":"WEST MIDLANDS","ppdCategoryType":"Standard","recordStatus":"Addition","latitude":52.439246,"longitude":-2.01168,"postcodeStart":"B32 4","postcode":["B32","4LE"]}
{"price":47500,"dateOfTransfer":"1998-12-08T00:00:00","postcodeFull":"B32 4LU","propertyType":"Semi-detached","oldOrNew":"Established","duration":"Leasehold","paon":"21","saon":"","street":"CLENT VIEW ROAD","locality":"BARTLEY GREEN","townOrCity":"BIRMINGHAM","district":"BIRMINGHAM","county":"WEST MIDLANDS","ppdCategoryType":"Standard","recordStatus":"Addition","latitude":52.437151,"longitude":-2.01268,"postcodeStart":"B32 4","postcode":["B32","4LU"]}
{"price":123000,"dateOfTransfer":"1998-07-31T00:00:00","postcodeFull":"B32 4BB","propertyType":"Terraced","oldOrNew":"Established","duration":"Freehold","paon":"5 LOWER HILL BARN","saon":"","street":"POUND LANE","locality":"FRANKLEY","townOrCity":"BIRMINGHAM","district":"BROMSGROVE","county":"WORCESTERSHIRE","ppdCategoryType":"Standard","recordStatus":"Addition","latitude":52.41071,"longitude":-2.020772,"postcodeStart":"B32 4","postcode":["B32","4BB"]}
{"price":100000,"dateOfTransfer":"1998-08-04T00:00:00","postcodeFull":"B32 4AS","propertyType":"Detached","oldOrNew":"Established","duration":"Freehold","paon":"PARK HOUSE","saon":"","street":"FRANKLEY GREEN","locality":"BIRMINGHAM","townOrCity":"BIRMINGHAM","district":"BROMSGROVE","county":"WORCESTERSHIRE","ppdCategoryType":"Standard","recordStatus":"Addition","latitude":52.421994,"longitude":-2.014984,"postcodeStart":"B32 4","postcode":["B32","4AS"]}
{"price":43500,"dateOfTransfer":"1998-09-25T00:00:00","postcodeFull":"B32 4JA","propertyType":"Detached","oldOrNew":"Established","duration":"Freehold","paon":"26","saon":"","street":"GLENGARRY CLOSE","locality":"BIRMINGHAM","townOrCity":"BIRMINGHAM","district":"BIRMINGHAM","county":"WEST MIDLANDS","ppdCategoryType":"Standard","recordStatus":"Addition","latitude":52.43076,"longitude":-2.002133,"postcodeStart":"B32 4","postcode":["B32","4JA"]}
{"price":37500,"dateOfTransfer":"1998-05-29T00:00:00","postcodeFull":"B32 4BS","propertyType":"Terraced","oldOrNew":"Established","duration":"Freehold","paon":"50","saon":"","street":"SCOTLAND LANE","locality":"BIRMINGHAM","townOrCity":"BIRMINGHAM","district":"BIRMINGHAM","county":"WEST MIDLANDS","ppdCategoryType":"Standard","recordStatus":"Addition","latitude":52.432144,"longitude":-2.001589,"postcodeStart":"B32 4","postcode":["B32","4BS"]}
{"price":51500,"dateOfTransfer":"1998-03-13T00:00:00","postcodeFull":"B32 4AL","propertyType":"Terraced","oldOrNew":"Established","duration":"Freehold","paon":"30","saon":"","street":"KITWELL LANE","locality":"BIRMINGHAM","townOrCity":"BIRMINGHAM","district":"BIRMINGHAM","county":"WEST MIDLANDS","ppdCategoryType":"Standard","recordStatus":"Addition","latitude":52.435003,"longitude":-2.011341,"postcodeStart":"B32 4","postcode":["B32","4AL"]}
{"price":46000,"dateOfTransfer":"1999-01-22T00:00:00","postcodeFull":"B32 4LP","propertyType":"Terraced","oldOrNew":"Established","duration":"Leasehold","paon":"235","saon":"","street":"PINEWOOD DRIVE","locality":"BARTLEY GREEN","townOrCity":"BIRMINGHAM","district":"BIRMINGHAM","county":"WEST MIDLANDS","ppdCategoryType":"Standard","recordStatus":"Addition","latitude":52.434733,"longitude":-2.013915,"postcodeStart":"B32 4","postcode":["B32","4LP"]}
{"price":45723,"dateOfTransfer":"1999-05-24T00:00:00","postcodeFull":"B32 4DH","propertyType":"Terraced","oldOrNew":"Established","duration":"Freehold","paon":"3","saon":"","street":"WYCHBURY ROAD","locality":"","townOrCity":"BIRMINGHAM","district":"BIRMINGHAM","county":"WEST MIDLANDS","ppdCategoryType":"Standard","recordStatus":"Addition","latitude":52.431254,"longitude":-2.006972,"postcodeStart":"B32 4","postcode":["B32","4DH"]}
{"price":48000,"dateOfTransfer":"1999-05-28T00:00:00","postcodeFull":"B32 4AE","propertyType":"Semi-detached","oldOrNew":"Established","duration":"Freehold","paon":"27","saon":"","street":"WOODGATE DRIVE","locality":"","townOrCity":"BIRMINGHAM","district":"BIRMINGHAM","county":"WEST MIDLANDS","ppdCategoryType":"Standard","recordStatus":"Addition","latitude":52.438572,"longitude":-2.008326,"postcodeStart":"B32 4","postcode":["B32","4AE"]}
{"price":79995,"dateOfTransfer":"1999-09-24T00:00:00","postcodeFull":"B32 4AA","propertyType":"Detached","oldOrNew":"Established","duration":"Freehold","paon":"38","saon":"","street":"WOOD LANE","locality":"WOODGATE","townOrCity":"BIRMINGHAM","district":"BIRMINGHAM","county":"WEST MIDLANDS","ppdCategoryType":"Standard","recordStatus":"Addition","latitude":52.439372,"longitude":-2.009871,"postcodeStart":"B32 4","postcode":["B32","4AA"]}
{"price":42000,"dateOfTransfer":"1999-07-09T00:00:00","postcodeFull":"B32 4AW","propertyType":"Terraced","oldOrNew":"Established","duration":"Freehold","paon":"8","saon":"","street":"BUCKNALL CRESCENT","locality":"","townOrCity":"BIRMINGHAM","district":"BIRMINGHAM","county":"WEST MIDLANDS","ppdCategoryType":"Standard","recordStatus":"Addition","latitude":52.433169,"longitude":-2.013267,"postcodeStart":"B32 4","postcode":["B32","4AW"]}
{"price":44500,"dateOfTransfer":"1999-05-28T00:00:00","postcodeFull":"B32 4LU","propertyType":"Terraced","oldOrNew":"Established","duration":"Leasehold","paon":"87","saon":"","street":"CLENT VIEW ROAD","locality":"BARTLEY GREEN","townOrCity":"BIRMINGHAM","district":"BIRMINGHAM","county":"WEST MIDLANDS","ppdCategoryType":"Standard","recordStatus":"Addition","latitude":52.437151,"longitude":-2.01268,"postcodeStart":"B32 4","postcode":["B32","4LU"]}
{"price":55000,"dateOfTransfer":"1999-05-21T00:00:00","postcodeFull":"B32 4LL","propertyType":"Terraced","oldOrNew":"Established","duration":"Leasehold","paon":"227","saon":"","street":"PINEWOOD DRIVE","locality":"BARTLEY GREEN","townOrCity":"BIRMINGHAM","district":"BIRMINGHAM","county":"WEST MIDLANDS","ppdCategoryType":"Standard","recordStatus":"Addition","latitude":52.435173,"longitude":-2.013194,"postcodeStart":"B32 4","postcode":["B32","4LL"]}
{"price":54700,"dateOfTransfer":"1999-03-19T00:00:00","postcodeFull":"B32 4LG","propertyType":"Semi-detached","oldOrNew":"Established","duration":"Leasehold","paon":"145","saon":"","street":"PINEWOOD DRIVE","locality":"BARTLEY GREEN","townOrCity":"BIRMINGHAM","district":"BIRMINGHAM","county":"WEST MIDLANDS","ppdCategoryType":"Standard","recordStatus":"Addition","latitude":52.437646,"longitude":-2.011371,"postcodeStart":"B32 4","postcode":["B32","4LG"]}
{"price":40000,"dateOfTransfer":"1999-12-10T00:00:00","postcodeFull":"B32 4JL","propertyType":"Terraced","oldOrNew":"Established","duration":"Freehold","paon":"4","saon":"","street":"EARLS FERRY GARDENS","locality":"","townOrCity":"BIRMINGHAM","district":"BIRMINGHAM","county":"WEST MIDLANDS","ppdCategoryType":"Standard","recordStatus":"Addition","latitude":52.428548,"longitude":-2.006015,"postcodeStart":"B32 4","postcode":["B32","4JL"]}
{"price":52000,"dateOfTransfer":"1999-07-06T00:00:00","postcodeFull":"B32 4LU","propertyType":"Terraced","oldOrNew":"Established","duration":"Freehold","paon":"85","saon":"","street":"CLENT VIEW ROAD","locality":"BARTLEY GREEN","townOrCity":"BIRMINGHAM","district":"BIRMINGHAM","county":"WEST MIDLANDS","ppdCategoryType":"Standard","recordStatus":"Addition","latitude":52.437151,"longitude":-2.01268,"postcodeStart":"B32 4","postcode":["B32","4LU"]}
{"price":56500,"dateOfTransfer":"1999-08-05T00:00:00","postcodeFull":"B32 4LZ","propertyType":"Semi-detached","oldOrNew":"Established","duration":"Freehold","paon":"3","saon":"","street":"ELMCROFT AVENUE","locality":"","townOrCity":"BIRMINGHAM","district":"BIRMINGHAM","county":"WEST MIDLANDS","ppdCategoryType":"Standard","recordStatus":"Addition","latitude":52.438734,"longitude":-2.011695,"postcodeStart":"B32 4","postcode":["B32","4LZ"]}
{"price":32500,"dateOfTransfer":"1999-08-04T00:00:00","postcodeFull":"B32 4JX","propertyType":"Terraced","oldOrNew":"Established","duration":"Freehold","paon":"7","saon":"","street":"MAXSTOKE CLOSE","locality":"","townOrCity":"BIRMINGHAM","district":"BIRMINGHAM","county":"WEST MIDLANDS","ppdCategoryType":"Standard","recordStatus":"Addition","latitude":52.428638,"longitude":-2.012604,"postcodeStart":"B32 4","postcode":["B32","4JX"]}
{"price":43950,"dateOfTransfer":"1999-11-05T00:00:00","postcodeFull":"B32 4EP","propertyType":"Terraced","oldOrNew":"Established","duration":"Freehold","paon":"9","saon":"","street":"MILEBROOK GROVE","locality":"","townOrCity":"BIRMINGHAM","district":"BIRMINGHAM","county":"WEST MIDLANDS","ppdCategoryType":"Standard","recordStatus":"Addition","latitude":52.435309,"longitude":-2.005457,"postcodeStart":"B32 4","postcode":["B32","4EP"]}
{"price":42500,"dateOfTransfer":"1999-06-11T00:00:00","postcodeFull":"B32 4LS","propertyType":"Semi-detached","oldOrNew":"Established","duration":"Leasehold","paon":"214","saon":"","street":"PINEWOOD DRIVE","locality":"BARTLEY GREEN","townOrCity":"BIRMINGHAM","district":"BIRMINGHAM","county":"WEST MIDLANDS","ppdCategoryType":"Standard","recordStatus":"Addition","latitude":52.435407,"longitude":-2.012326,"postcodeStart":"B32 4","postcode":["B32","4LS"]}
{"price":58950,"dateOfTransfer":"1999-05-28T00:00:00","postcodeFull":"B32 4AJ","propertyType":"Semi-detached","oldOrNew":"Established","duration":"Leasehold","paon":"82","saon":"","street":"WOOD LANE","locality":"WOODGATE","townOrCity":"BIRMINGHAM","district":"BIRMINGHAM","county":"WEST MIDLANDS","ppdCategoryType":"Standard","recordStatus":"Addition","latitude":52.437655,"longitude":-2.010385,"postcodeStart":"B32 4","postcode":["B32","4AJ"]}
{"price":57000,"dateOfTransfer":"1999-03-19T00:00:00","postcodeFull":"B32 4LF","propertyType":"Semi-detached","oldOrNew":"Established","duration":"Leasehold","paon":"71","saon":"","street":"PINEWOOD DRIVE","locality":"BARTLEY GREEN","townOrCity":"BIRMINGHAM","district":"BIRMINGHAM","county":"WEST MIDLANDS","ppdCategoryType":"Standard","recordStatus":"Addition","latitude":52.439588,"longitude":-2.011121,"postcodeStart":"B32 4","postcode":["B32","4LF"]}
{"price":46000,"dateOfTransfer":"1999-04-01T00:00:00","postcodeFull":"B32 4AL","propertyType":"Terraced","oldOrNew":"Established","duration":"Freehold","paon":"70","saon":"","street":"KITWELL LANE","locality":"","townOrCity":"BIRMINGHAM","district":"BIRMINGHAM","county":"WEST MIDLANDS","ppdCategoryType":"Standard","recordStatus":"Addition","latitude":52.435003,"longitude":-2.011341,"postcodeStart":"B32 4","postcode":["B32","4AL"]}
{"price":16000,"dateOfTransfer":"1999-05-28T00:00:00","postcodeFull":"B32 4HD","propertyType":"Terraced","oldOrNew":"Established","duration":"Leasehold","paon":"27","saon":"","street":"CURDALE ROAD","locality":"","townOrCity":"BIRMINGHAM","district":"BIRMINGHAM","county":"WEST MIDLANDS","ppdCategoryType":"Standard","recordStatus":"Addition","latitude":52.433493,"longitude":-2.005236,"postcodeStart":"B32 4","postcode":["B32","4HD"]}
{"price":50000,"dateOfTransfer":"1999-01-08T00:00:00","postcodeFull":"B32 4LQ","propertyType":"Terraced","oldOrNew":"Established","duration":"Leasehold","paon":"9","saon":"","street":"HUNNINGTON CLOSE","locality":"","townOrCity":"BIRMINGHAM","district":"BIRMINGHAM","county":"WEST MIDLANDS","ppdCategoryType":"Standard","recordStatus":"Addition","latitude":52.437853,"longitude":-2.011915,"postcodeStart":"B32 4","postcode":["B32","4LQ"]}
{"price":56000,"dateOfTransfer":"1999-05-28T00:00:00","postcodeFull":"B32 4AJ","propertyType":"Semi-detached","oldOrNew":"Established","duration":"Leasehold","paon":"92","saon":"","street":"WOOD LANE","locality":"WOODGATE","townOrCity":"BIRMINGHAM","district":"BIRMINGHAM","county":"WEST MIDLANDS","ppdCategoryType":"Standard","recordStatus":"Addition","latitude":52.437655,"longitude":-2.010385,"postcodeStart":"B32 4","postcode":["B32","4AJ"]}
{"price":24995,"dateOfTransfer":"1999-04-16T00:00:00","postcodeFull":"B32 4DB","propertyType":"Flat/Maisonette/Townhouse","oldOrNew":"Established","duration":"Leasehold","paon":"22","saon":"","street":"WINDSOR VIEW","locality":"","townOrCity":"BIRMINGHAM","district":"BIRMINGHAM","county":"WEST MIDLANDS","ppdCategoryType":"Standard","recordStatus":"Addition","latitude":52.430832,"longitude":-2.006324,"postcodeStart":"B32 4","postcode":["B32","4DB"]}
{"price":49500,"dateOfTransfer":"1999-06-11T00:00:00","postcodeFull":"B32 4LR","propertyType":"Terraced","oldOrNew":"Established","duration":"Leasehold","paon":"116","saon":"","street":"PINEWOOD DRIVE","locality":"BARTLEY GREEN","townOrCity":"BIRMINGHAM","district":"BIRMINGHAM","county":"WEST MIDLANDS","ppdCategoryType":"Standard","recordStatus":"Addition","latitude":52.437916,"longitude":-2.010783,"postcodeStart":"B32 4","postcode":["B32","4LR"]}
{"price":45723,"dateOfTransfer":"1999-05-24T00:00:00","postcodeFull":"B32 4DH","propertyType":"Terraced","oldOrNew":"Established","duration":"Leasehold","paon":"3","saon":"","street":"WYCHBURY ROAD","locality":"","townOrCity":"BIRMINGHAM","district":"BIRMINGHAM","county":"WEST MIDLANDS","ppdCategoryType":"Standard","recordStatus":"Addition","latitude":52.431254,"longitude":-2.006972,"postcodeStart":"B32 4","postcode":["B32","4DH"]}
{"price":46950,"dateOfTransfer":"1999-08-02T00:00:00","postcodeFull":"B32 4JT","propertyType":"Semi-detached","oldOrNew":"Established","duration":"Freehold","paon":"16","saon":"","street":"DOVER CLOSE","locality":"","townOrCity":"BIRMINGHAM","district":"BIRMINGHAM","county":"WEST MIDLANDS","ppdCategoryType":"Standard","recordStatus":"Addition","latitude":52.42906,"longitude":-2.011074,"postcodeStart":"B32 4","postcode":["B32","4JT"]}
{"price":52000,"dateOfTransfer":"1999-09-10T00:00:00","postcodeFull":"B32 4LG","propertyType":"Terraced","oldOrNew":"Established","duration":"Leasehold","paon":"133","saon":"","street":"PINEWOOD DRIVE","locality":"BARTLEY GREEN","townOrCity":"BIRMINGHAM","district":"BIRMINGHAM","county":"WEST MIDLANDS","ppdCategoryType":"Standard","recordStatus":"Addition","latitude":52.437646,"longitude":-2.011371,"postcodeStart":"B32 4","postcode":["B32","4LG"]}
{"price":52000,"dateOfTransfer":"1999-07-06T00:00:00","postcodeFull":"B32 4LU","propertyType":"Terraced","oldOrNew":"Established","duration":"Leasehold","paon":"85","saon":"","street":"CLENT VIEW ROAD","locality":"BARTLEY GREEN","townOrCity":"BIRMINGHAM","district":"BIRMINGHAM","county":"WEST MIDLANDS","ppdCategoryType":"Standard","recordStatus":"Addition","latitude":52.437151,"longitude":-2.01268,"postcodeStart":"B32 4","postcode":["B32","4LU"]}
{"price":50000,"dateOfTransfer":"1999-03-26T00:00:00","postcodeFull":"B32 4LS","propertyType":"Terraced","oldOrNew":"Established","duration":"Leasehold","paon":"232","saon":"","street":"PINEWOOD DRIVE","locality":"BARTLEY GREEN","townOrCity":"BIRMINGHAM","district":"BIRMINGHAM","county":"WEST MIDLANDS","ppdCategoryType":"Standard","recordStatus":"Addition","latitude":52.435407,"longitude":-2.012326,"postcodeStart":"B32 4","postcode":["B32","4LS"]}
{"price":46000,"dateOfTransfer":"1999-06-17T00:00:00","postcodeFull":"B32 4LD","propertyType":"Semi-detached","oldOrNew":"Established","duration":"Leasehold","paon":"84","saon":"","street":"PINEWOOD DRIVE","locality":"BARTLEY GREEN","townOrCity":"BIRMINGHAM","district":"BIRMINGHAM","county":"WEST MIDLANDS","ppdCategoryType":"Standard","recordStatus":"Addition","latitude":52.440082,"longitude":-2.011166,"postcodeStart":"B32 4","postcode":["B32","4LD"]}
{"price":53500,"dateOfTransfer":"1999-06-11T00:00:00","postcodeFull":"B32 4LD","propertyType":"Terraced","oldOrNew":"Established","duration":"Freehold","paon":"60","saon":"","street":"PINEWOOD DRIVE","locality":"BARTLEY GREEN","townOrCity":"BIRMINGHAM","district":"BIRMINGHAM","county":"WEST MIDLANDS","ppdCategoryType":"Standard","recordStatus":"Addition","latitude":52.440082,"longitude":-2.011166,"postcodeStart":"B32 4","postcode":["B32","4LD"]}
{"price":40000,"dateOfTransfer":"1999-04-16T00:00:00","postcodeFull":"B32 4BS","propertyType":"Semi-detached","oldOrNew":"Established","duration":"Freehold","paon":"30","saon":"","street":"SCOTLAND LANE","locality":"","townOrCity":"BIRMINGHAM","district":"BIRMINGHAM","county":"WEST MIDLANDS","ppdCategoryType":"Standard","recordStatus":"Addition","latitude":52.432144,"longitude":-2.001589,"postcodeStart":"B32 4","postcode":["B32","4BS"]}
{"price":53950,"dateOfTransfer":"1999-11-04T00:00:00","postcodeFull":"B32 4LQ","propertyType":"Terraced","oldOrNew":"Established","duration":"Leasehold","paon":"7","saon":"","street":"HUNNINGTON CLOSE","locality":"","townOrCity":"BIRMINGHAM","district":"BIRMINGHAM","county":"WEST MIDLANDS","ppdCategoryType":"Standard","recordStatus":"Addition","latitude":52.437853,"longitude":-2.011915,"postcodeStart":"B32 4","postcode":["B32","4LQ"]}
{"price":50000,"dateOfTransfer":"1999-06-25T00:00:00","postcodeFull":"B32 4LS","propertyType":"Terraced","oldOrNew":"Established","duration":"Leasehold","paon":"176","saon":"","street":"PINEWOOD DRIVE","locality":"BARTLEY GREEN","townOrCity":"BIRMINGHAM","district":"BIRMINGHAM","county":"WEST MIDLANDS","ppdCategoryType":"Standard","recordStatus":"Addition","latitude":52.435407,"longitude":-2.012326,"postcodeStart":"B32 4","postcode":["B32","4LS"]}
{"price":48000,"dateOfTransfer":"1999-11-04T00:00:00","postcodeFull":"B32 4DZ","propertyType":"Terraced","oldOrNew":"Established","duration":"Freehold","paon":"12","saon":"","street":"KITSWELL GARDENS","locality":"","townOrCity":"BIRMINGHAM","district":"BIRMINGHAM","county":"WEST MIDLANDS","ppdCategoryType":"Standard","recordStatus":"Addition","latitude":52.432423,"longitude":-2.011517,"postcodeStart":"B32 4","postcode":["B32","4DZ"]}
{"price":50500,"dateOfTransfer":"1999-04-23T00:00:00","postcodeFull":"B32 4AG","propertyType":"Terraced","oldOrNew":"Established","duration":"Freehold","paon":"117","saon":"","street":"WOOD LANE","locality":"WOODGATE","townOrCity":"BIRMINGHAM","district":"BIRMINGHAM","county":"WEST MIDLANDS","ppdCategoryType":"Standard","recordStatus":"Addition","latitude":52.437232,"longitude":-2.009929,"postcodeStart":"B32 4","postcode":["B32","4AG"]}
{"price":87500,"dateOfTransfer":"1999-09-07T00:00:00","postcodeFull":"B32 4LG","propertyType":"Semi-detached","oldOrNew":"Established","duration":"Freehold","paon":"119","saon":"","street":"PINEWOOD DRIVE","locality":"BARTLEY GREEN","townOrCity":"BIRMINGHAM","district":"BIRMINGHAM","county":"WEST MIDLANDS","ppdCategoryType":"Standard","recordStatus":"Addition","latitude":52.437646,"longitude":-2.011371,"postcodeStart":"B32 4","postcode":["B32","4LG"]}
{"price":54000,"dateOfTransfer":"1999-10-08T00:00:00","postcodeFull":"B32 4BU","propertyType":"Semi-detached","oldOrNew":"Established","duration":"Freehold","paon":"7","saon":"","street":"SCOTLAND LANE","locality":"","townOrCity":"BIRMINGHAM","district":"BIRMINGHAM","county":"WEST MIDLANDS","ppdCategoryType":"Standard","recordStatus":"Addition","latitude":52.432882,"longitude":-2.002648,"postcodeStart":"B32 4","postcode":["B32","4BU"]}
{"price":23000,"dateOfTransfer":"1999-06-25T00:00:00","postcodeFull":"B32 4LS","propertyType":"Terraced","oldOrNew":"Established","duration":"Leasehold","paon":"176","saon":"","street":"PINEWOOD DRIVE","locality":"BARTLEY GREEN","townOrCity":"BIRMINGHAM","district":"BIRMINGHAM","county":"WEST MIDLANDS","ppdCategoryType":"Standard","recordStatus":"Addition","latitude":52.435407,"longitude":-2.012326,"postcodeStart":"B32 4","postcode":["B32","4LS"]}
{"price":59000,"dateOfTransfer":"1999-07-30T00:00:00","postcodeFull":"B32 4LJ","propertyType":"Semi-detached","oldOrNew":"Established","duration":"Leasehold","paon":"171","saon":"","street":"PINEWOOD DRIVE","locality":"BARTLEY GREEN","townOrCity":"BIRMINGHAM","district":"BIRMINGHAM","county":"WEST MIDLANDS","ppdCategoryType":"Standard","recordStatus":"Addition","latitude":52.436135,"longitude":-2.01215,"postcodeStart":"B32 4","postcode":["B32","4LJ"]}
{"price":56000,"dateOfTransfer":"1999-08-18T00:00:00","postcodeFull":"B32 4DA","propertyType":"Semi-detached","oldOrNew":"Established","duration":"Leasehold","paon":"83","saon":"","street":"KITWELL LANE","locality":"","townOrCity":"BIRMINGHAM","district":"BIRMINGHAM","county":"WEST MIDLANDS","ppdCategoryType":"Standard","recordStatus":"Addition","latitude":52.435515,"longitude":-2.011694,"postcodeStart":"B32 4","postcode":["B32","4DA"]}
{"price":54950,"dateOfTransfer":"1999-10-08T00:00:00","postcodeFull":"B32 4AJ","propertyType":"Terraced","oldOrNew":"Established","duration":"Leasehold","paon":"68","saon":"","street":"WOOD LANE","locality":"WOODGATE","townOrCity":"BIRMINGHAM","district":"BIRMINGHAM","county":"WEST MIDLANDS","ppdCategoryType":"Standard","recordStatus":"Addition","latitude":52.437655,"longitude":-2.010385,"postcodeStart":"B32 4","postcode":["B32","4AJ"]}
{"price":46000,"dateOfTransfer":"1999-03-24T00:00:00","postcodeFull":"B32 4AL","propertyType":"Terraced","oldOrNew":"Established","duration":"Freehold","paon":"70","saon":"","street":"KITWELL LANE","locality":"","townOrCity":"BIRMINGHAM","district":"BIRMINGHAM","county":"WEST MIDLANDS","ppdCategoryType":"Standard","recordStatus":"Addition","latitude":52.435003,"longitude":-2.011341,"postcodeStart":"B32 4","postcode":["B32","4AL"]}
{"price":50000,"dateOfTransfer":"1999-06-25T00:00:00","postcodeFull":"B32 4LS","propertyType":"Terraced","oldOrNew":"Established","duration":"Leasehold","paon":"176","saon":"","street":"PINEWOOD DRIVE","locality":"BARTLEY GREEN","townOrCity":"BIRMINGHAM","district":"BIRMINGHAM","county":"WEST MIDLANDS","ppdCategoryType":"Standard","recordStatus":"Addition","latitude":52.435407,"longitude":-2.012326,"postcodeStart":"B32 4","postcode":["B32","4LS"]}
{"price":53000,"dateOfTransfer":"1999-10-15T00:00:00","postcodeFull":"B32 4LY","propertyType":"Detached","oldOrNew":"Established","duration":"Leasehold","paon":"134","saon":"","street":"CLENT VIEW ROAD","locality":"BARTLEY GREEN","townOrCity":"BIRMINGHAM","district":"BIRMINGHAM","county":"WEST MIDLANDS","ppdCategoryType":"Standard","recordStatus":"Addition","latitude":52.439417,"longitude":-2.013504,"postcodeStart":"B32 4","postcode":["B32","4LY"]}
{"price":58500,"dateOfTransfer":"1999-04-23T00:00:00","postcodeFull":"B32 4LF","propertyType":"Semi-detached","oldOrNew":"Established","duration":"Leasehold","paon":"53","saon":"","street":"PINEWOOD DRIVE","locality":"BARTLEY GREEN","townOrCity":"BIRMINGHAM","district":"BIRMINGHAM","county":"WEST MIDLANDS","ppdCategoryType":"Standard","recordStatus":"Addition","latitude":52.439588,"longitude":-2.011121,"postcodeStart":"B32 4","postcode":["B32","4LF"]}
{"price":66000,"dateOfTransfer":"1999-06-25T00:00:00","postcodeFull":"B32 4LT","propertyType":"Semi-detached","oldOrNew":"Established","duration":"Freehold","paon":"23","saon":"","street":"HILLSIDE CLOSE","locality":"","townOrCity":"BIRMINGHAM","district":"BIRMINGHAM","county":"WEST MIDLANDS","ppdCategoryType":"Standard","recordStatus":"Addition","latitude":52.435254,"longitude":-2.0139,"postcodeStart":"B32 4","postcode":["B32","4LT"]}
{"price":48000,"dateOfTransfer":"1999-11-22T00:00:00","postcodeFull":"B32 4DB","propertyType":"Semi-detached","oldOrNew":"Established","duration":"Freehold","paon":"1","saon":"","street":"WINDSOR VIEW","locality":"","townOrCity":"BIRMINGHAM","district":"BIRMINGHAM","county":"WEST MIDLANDS","ppdCategoryType":"Standard","recordStatus":"Addition","latitude":52.430832,"longitude":-2.006324,"postcodeStart":"B32 4","postcode":["B32","4DB"]}
{"price":50000,"dateOfTransfer":"1999-06-25T00:00:00","postcodeFull":"B32 4LS","propertyType":"Terraced","oldOrNew":"Established","duration":"Leasehold","paon":"198","saon":"","street":"PINEWOOD DRIVE","locality":"BARTLEY GREEN","townOrCity":"BIRMINGHAM","district":"BIRMINGHAM","county":"WEST MIDLANDS","ppdCategoryType":"Standard","recordStatus":"Addition","latitude":52.435407,"longitude":-2.012326,"postcodeStart":"B32 4","postcode":["B32","4LS"]}
{"price":49000,"dateOfTransfer":"1999-03-12T00:00:00","postcodeFull":"B32 4LY","propertyType":"Terraced","oldOrNew":"Established","duration":"Leasehold","paon":"154","saon":"","street":"CLENT VIEW ROAD","locality":"BARTLEY GREEN","townOrCity":"BIRMINGHAM","district":"BIRMINGHAM","county":"WEST MIDLANDS","ppdCategoryType":"Standard","recordStatus":"Addition","latitude":52.439417,"longitude":-2.013504,"postcodeStart":"B32 4","postcode":["B32","4LY"]}
{"price":26500,"dateOfTransfer":"1999-07-13T00:00:00","postcodeFull":"B32 4NN","propertyType":"Flat/Maisonette/Townhouse","oldOrNew":"Established","duration":"Leasehold","paon":"15","saon":"FLAT 1","street":"CLENT WAY","locality":"","townOrCity":"BIRMINGHAM","district":"BIRMINGHAM","county":"WEST MIDLANDS","ppdCategoryType":"Standard","recordStatus":"Addition","latitude":52.434373,"longitude":-2.014841,"postcodeStart":"B32 4","postcode":["B32","4NN"]}
