{"price":30000,"dateOfTransfer":"1995-10-09T00:00:00","postcodeFull":"B8 1PD","propertyType":"Terraced","oldOrNew":"Established","duration":"Freehold","paon":"236","saon":"","street":"WRIGHT ROAD","locality":"BIRMINGHAM","townOrCity":"BIRMINGHAM","district":"BIRMINGHAM","county":"WEST MIDLANDS","ppdCategoryType":"Standard","recordStatus":"Addition","latitude":52.494865,"longitude":-1.852047,"postcodeStart":"B8 1","postcode":["B8","1PD"]}
{"price":15000,"dateOfTransfer":"1995-07-05T00:00:00","postcodeFull":"B8 1QP","propertyType":"Terraced","oldOrNew":"Established","duration":"Freehold","paon":"59","saon":"","street":"ARLEY ROAD","locality":"SALTLEY","townOrCity":"BIRMINGHAM","district":"BIRMINGHAM","county":"WEST MIDLANDS","ppdCategoryType":"Standard","recordStatus":"Addition","latitude":52.494188,"longitude":-1.856748,"postcodeStart":"B8 1","postcode":["B8","1QP"]}
{"price":33250,"dateOfTransfer":"1995-09-11T00:00:00","postcodeFull":"B8 1LW","propertyType":"Terraced","oldOrNew":"Established","duration":"Freehold","paon":"26","saon":"","street":"GEORGE ARTHUR ROAD","locality":"SALTLEY","townOrCity":"BIRMINGHAM","district":"BIRMINGHAM","county":"WEST MIDLANDS","ppdCategoryType":"Standard","recordStatus":"Addition","latitude":52.489696,"longitude":-1.859104,"postcodeStart":"B8 1","postcode":["B8","1LW"]}
{"price":30500,"dateOfTransfer":"1995-05-31T00:00:00","postcodeFull":"B8 1SX","propertyType":"Terraced","oldOrNew":"Established","duration":"Freehold","paon":"22","saon":"","street":"TEALL ROAD","locality":"BIRMINGHAM","townOrCity":"BIRMINGHAM","district":"BIRMINGHAM","county":"WEST MIDLANDS","ppdCategoryType":"Standard","recordStatus":"Addition","latitude":52.492761,"longitude":-1.8512,"postcodeStart":"B8 1","postcode":["B8","1SX"]}
{"price":36000,"dateOfTransfer":"1995-01-05T00:00:00","postcodeFull":"B8 1ET","propertyType":"Terraced","oldOrNew":"Established","duration":"Freehold","paon":"10","saon":"","street":"BOWYER ROAD","locality":"SALTLEY","townOrCity":"BIRMINGHAM","district":"BIRMINGHAM","county":"WEST MIDLANDS","ppdCategoryType":"Standard","recordStatus":"Addition","latitude":52.48771,"longitude":-1.852203,"postcodeStart":"B8 1","postcode":["B8","1ET"]}
{"price":27000,"dateOfTransfer":"1995-12-18T00:00:00","postcodeFull":"B8 1LX","propertyType":"Terraced","oldOrNew":"Established","duration":"Freehold","paon":"48","saon":"","street":"REGINALD ROAD","locality":"SALTLEY","townOrCity":"BIRMINGHAM","district":"BIRMINGHAM","county":"WEST MIDLANDS","ppdCategoryType":"Standard","recordStatus":"Addition","latitude":52.489613,"longitude":-1.857381,"postcodeStart":"B8 1","postcode":["B8","1LX"]}
{"price":25000,"dateOfTransfer":"1995-02-27T00:00:00","postcodeFull":"B8 1RY","propertyType":"Terraced","oldOrNew":"Established","duration":"Freehold","paon":"16","saon":"","street":"CRADOCK ROAD","locality":"SALTLEY","townOrCity":"BIRMINGHAM","district":"BIRMINGHAM","county":"WEST MIDLANDS","ppdCategoryType":"Standard","recordStatus":"Addition","latitude":52.491431,"longitude":-1.852103,"postcodeStart":"B8 1","postcode":["B8","1RY"]}
{"price":36500,"dateOfTransfer":"1995-04-10T00:00:00","postcodeFull":"B8 1PT","propertyType":"Terraced","oldOrNew":"Established","duration":"Freehold","paon":"89","saon":"","street":"PHILLIMORE ROAD","locality":"SALTLEY","townOrCity":"BIRMINGHAM","district":"BIRMINGHAM","county":"WEST MIDLANDS","ppdCategoryType":"Standard","recordStatus":"Addition","latitude":52.492434,"longitude":-1.856415,"postcodeStart":"B8 1","postcode":["B8","1PT"]}
{"price":30000,"dateOfTransfer":"1995-10-31T00:00:00","postcodeFull":"B8 1QL","propertyType":"Terraced","oldOrNew":"Established","duration":"Freehold","paon":"16","saon":"","street":"MEMBURY ROAD","locality":"BIRMINGHAM","townOrCity":"BIRMINGHAM","district":"BIRMINGHAM","county":"WEST MIDLANDS","ppdCategoryType":"Standard","recordStatus":"Addition","latitude":52.49532,"longitude":-1.856273,"postcodeStart":"B8 1","postcode":["B8","1QL"]}
{"price":29950,"dateOfTransfer":"1995-01-27T00:00:00","postcodeFull":"B8 1PS","propertyType":"Terraced","oldOrNew":"Established","duration":"Freehold","paon":"59","saon":"","street":"PHILLIMORE ROAD","locality":"SALTLEY","townOrCity":"BIRMINGHAM","district":"BIRMINGHAM","county":"WEST MIDLANDS","ppdCategoryType":"Standard","recordStatus":"Addition","latitude":52.492172,"longitude":-1.855281,"postcodeStart":"B8 1","postcode":["B8","1PS"]}
{"price":23500,"dateOfTransfer":"1995-08-11T00:00:00","postcodeFull":"B8 1SG","propertyType":"Terraced","oldOrNew":"Established","duration":"Freehold","paon":"19","saon":"","street":"HAVELOCK ROAD","locality":"SALTLEY","townOrCity":"BIRMINGHAM","district":"BIRMINGHAM","county":"WEST MIDLANDS","ppdCategoryType":"Standard","recordStatus":"Addition","latitude":52.49195,"longitude":-1.857491,"postcodeStart":"B8 1","postcode":["B8","1SG"]}
{"price":27500,"dateOfTransfer":"1995-11-15T00:00:00","postcodeFull":"B8 1PA","propertyType":"Terraced","oldOrNew":"Established","duration":"Freehold","paon":"4","saon":"","street":"NIGEL ROAD","locality":"BIRMINGHAM","townOrCity":"BIRMINGHAM","district":"BIRMINGHAM","county":"WEST MIDLANDS","ppdCategoryType":"Standard","recordStatus":"Addition","latitude":52.494783,"longitude":-1.851119,"postcodeStart":"B8 1","postcode":["B8","1PA"]}
{"price":40000,"dateOfTransfer":"1995-06-30T00:00:00","postcodeFull":"B8 1SP","propertyType":"Terraced","oldOrNew":"Established","duration":"Freehold","paon":"20","saon":"","street":"MALTHOUSE LANE","locality":"WASHWOOD HEATH","townOrCity":"BIRMINGHAM","district":"BIRMINGHAM","county":"WEST MIDLANDS","ppdCategoryType":"Standard","recordStatus":"Addition","latitude":52.495483,"longitude":-1.84988,"postcodeStart":"B8 1","postcode":["B8","1SP"]}
{"price":19950,"dateOfTransfer":"1995-10-16T00:00:00","postcodeFull":"B8 1LW","propertyType":"Terraced","oldOrNew":"Established","duration":"Freehold","paon":"102","saon":"","street":"GEORGE ARTHUR ROAD","locality":"SALTLEY","townOrCity":"BIRMINGHAM","district":"BIRMINGHAM","county":"WEST MIDLANDS","ppdCategoryType":"Standard","recordStatus":"Addition","latitude":52.489696,"longitude":-1.859104,"postcodeStart":"B8 1","postcode":["B8","1LW"]}
{"price":18000,"dateOfTransfer":"1995-12-01T00:00:00","postcodeFull":"B8 1SX","propertyType":"Terraced","oldOrNew":"Established","duration":"Freehold","paon":"7","saon":"","street":"TEALL ROAD","locality":"BIRMINGHAM","townOrCity":"BIRMINGHAM","district":"BIRMINGHAM","county":"WEST MIDLANDS","ppdCategoryType":"Standard","recordStatus":"Addition","latitude":52.492761,"longitude":-1.8512,"postcodeStart":"B8 1","postcode":["B8","1SX"]}
{"price":33850,"dateOfTransfer":"1995-04-25T00:00:00","postcodeFull":"B8 1HF","propertyType":"Terraced","oldOrNew":"Established","duration":"Freehold","paon":"60","saon":"","street":"EDMUND ROAD","locality":"BIRMINGHAM","townOrCity":"BIRMINGHAM","district":"BIRMINGHAM","county":"WEST MIDLANDS","ppdCategoryType":"Standard","recordStatus":"Addition","latitude":52.487048,"longitude":-1.85496,"postcodeStart":"B8 1","postcode":["B8","1HF"]}
{"price":18000,"dateOfTransfer":"1995-05-26T00:00:00","postcodeFull":"B8 1SA","propertyType":"Terraced","oldOrNew":"Established","duration":"Freehold","paon":"51","saon":"","street":"HAVELOCK ROAD","locality":"SALTLEY","townOrCity":"BIRMINGHAM","district":"BIRMINGHAM","county":"WEST MIDLANDS","ppdCategoryType":"Standard","recordStatus":"Addition","latitude":52.491102,"longitude":-1.854946,"postcodeStart":"B8 1","postcode":["B8","1SA"]}
{"price":27500,"dateOfTransfer":"1995-06-28T00:00:00","postcodeFull":"B8 1NS","propertyType":"Terraced","oldOrNew":"Established","duration":"Freehold","paon":"56","saon":"","street":"WRIGHT ROAD","locality":"BIRMINGHAM","townOrCity":"BIRMINGHAM","district":"BIRMINGHAM","county":"WEST MIDLANDS","ppdCategoryType":"Standard","recordStatus":"Addition","latitude":52.491487,"longitude":-1.853192,"postcodeStart":"B8 1","postcode":["B8","1NS"]}
{"price":25000,"dateOfTransfer":"1995-04-28T00:00:00","postcodeFull":"B8 1QP","propertyType":"Terraced","oldOrNew":"Established","duration":"Freehold","paon":"52","saon":"","street":"ARLEY ROAD","locality":"SALTLEY","townOrCity":"BIRMINGHAM","district":"BIRMINGHAM","county":"WEST MIDLANDS","ppdCategoryType":"Standard","recordStatus":"Addition","latitude":52.494188,"longitude":-1.856748,"postcodeStart":"B8 1","postcode":["B8","1QP"]}
{"price":8000,"dateOfTransfer":"1995-08-31T00:00:00","postcodeFull":"B8 1PB","propertyType":"Terraced","oldOrNew":"Established","duration":"Freehold","paon":"241","saon":"","street":"WRIGHT ROAD","locality":"BIRMINGHAM","townOrCity":"BIRMINGHAM","district":"BIRMINGHAM","county":"WEST MIDLANDS","ppdCategoryType":"Standard","recordStatus":"Addition","latitude":52.495215,"longitude":-1.851516,"postcodeStart":"B8 1","postcode":["B8","1PB"]}
{"price":26500,"dateOfTransfer":"1995-03-10T00:00:00","postcodeFull":"B8 1PT","propertyType":"Terraced","oldOrNew":"Established","duration":"Freehold","paon":"81","saon":"","street":"PHILLIMORE ROAD","locality":"SALTLEY","townOrCity":"BIRMINGHAM","district":"BIRMINGHAM","county":"WEST MIDLANDS","ppdCategoryType":"Standard","recordStatus":"Addition","latitude":52.492434,"longitude":-1.856415,"postcodeStart":"B8 1","postcode":["B8","1PT"]}
{"price":10000,"dateOfTransfer":"1995-12-15T00:00:00","postcodeFull":"B8 1PS","propertyType":"Terraced","oldOrNew":"Established","duration":"Freehold","paon":"51","saon":"","street":"PHILLIMORE ROAD","locality":"SALTLEY","townOrCity":"BIRMINGHAM","district":"BIRMINGHAM","county":"WEST MIDLANDS","ppdCategoryType":"Standard","recordStatus":"Addition","latitude":52.492172,"longitude":-1.855281,"postcodeStart":"B8 1","postcode":["B8","1PS"]}
{"price":50000,"dateOfTransfer":"1995-10-24T00:00:00","postcodeFull":"B8 1NG","propertyType":"Terraced","oldOrNew":"Established","duration":"Freehold","paon":"10","saon":"","street":"ELLESMERE ROAD","locality":"BIRMINGHAM","townOrCity":"BIRMINGHAM","district":"BIRMINGHAM","county":"WEST MIDLANDS","ppdCategoryType":"Standard","recordStatus":"Addition","latitude":52.488576,"longitude":-1.854734,"postcodeStart":"B8 1","postcode":["B8","1NG"]}
{"price":26000,"dateOfTransfer":"1995-06-26T00:00:00","postcodeFull":"B8 1DT","propertyType":"Terraced","oldOrNew":"Established","duration":"Freehold","paon":"64","saon":"","street":"HAMS ROAD","locality":"BIRMINGHAM","townOrCity":"BIRMINGHAM","district":"BIRMINGHAM","county":"WEST MIDLANDS","ppdCategoryType":"Standard","recordStatus":"Addition","latitude":52.485425,"longitude":-1.859,"postcodeStart":"B8 1","postcode":["B8","1DT"]}
{"price":36000,"dateOfTransfer":"1995-11-10T00:00:00","postcodeFull":"B8 1NE","propertyType":"Terraced","oldOrNew":"Established","duration":"Freehold","paon":"59","saon":"","street":"ELLESMERE ROAD","locality":"BIRMINGHAM","townOrCity":"BIRMINGHAM","district":"BIRMINGHAM","county":"WEST MIDLANDS","ppdCategoryType":"Standard","recordStatus":"Addition","latitude":52.488833,"longitude":-1.854964,"postcodeStart":"B8 1","postcode":["B8","1NE"]}
{"price":27000,"dateOfTransfer":"1995-06-13T00:00:00","postcodeFull":"B8 1LU","propertyType":"Terraced","oldOrNew":"Established","duration":"Freehold","paon":"110","saon":"","street":"REGINALD ROAD","locality":"SALTLEY","townOrCity":"BIRMINGHAM","district":"BIRMINGHAM","county":"WEST MIDLANDS","ppdCategoryType":"Standard","recordStatus":"Addition","latitude":52.488445,"longitude":-1.858504,"postcodeStart":"B8 1","postcode":["B8","1LU"]}
{"price":43500,"dateOfTransfer":"1995-03-03T00:00:00","postcodeFull":"B8 1DG","propertyType":"Terraced","oldOrNew":"Established","duration":"Freehold","paon":"172","saon":"","street":"ASH ROAD","locality":"BIRMINGHAM","townOrCity":"BIRMINGHAM","district":"BIRMINGHAM","county":"WEST MIDLANDS","ppdCategoryType":"Standard","recordStatus":"Addition","latitude":52.48536,"longitude":-1.856983,"postcodeStart":"B8 1","postcode":["B8","1DG"]}
{"price":23000,"dateOfTransfer":"1995-10-31T00:00:00","postcodeFull":"B8 1QR","propertyType":"Terraced","oldOrNew":"New build","duration":"Freehold","paon":"3","saon":"","street":"HUTTON ROAD","locality":"SALTLEY","townOrCity":"BIRMINGHAM","district":"BIRMINGHAM","county":"WEST MIDLANDS","ppdCategoryType":"Standard","recordStatus":"Addition","latitude":52.494026,"longitude":-1.856616,"postcodeStart":"B8 1","postcode":["B8","1QR"]}
{"price":30000,"dateOfTransfer":"1995-10-24T00:00:00","postcodeFull":"B8 1HW","propertyType":"Terraced","oldOrNew":"Established","duration":"Freehold","paon":"201","saon":"","street":"ST SAVIOURS ROAD","locality":"SALTLEY","townOrCity":"BIRMINGHAM","district":"BIRMINGHAM","county":"WEST MIDLANDS","ppdCategoryType":"Standard","recordStatus":"Addition","latitude":52.485953,"longitude":-1.856303,"postcodeStart":"B8 1","postcode":["B8","1HW"]}
{"price":29000,"dateOfTransfer":"1995-03-30T00:00:00","postcodeFull":"B8 1NB","propertyType":"Terraced","oldOrNew":"Established","duration":"Freehold","paon":"108","saon":"","street":"RALPH ROAD","locality":"BIRMINGHAM","townOrCity":"BIRMINGHAM","district":"BIRMINGHAM","county":"WEST MIDLANDS","ppdCategoryType":"Standard","recordStatus":"Addition","latitude":52.488621,"longitude":-1.856324,"postcodeStart":"B8 1","postcode":["B8","1NB"]}
{"price":25000,"dateOfTransfer":"1995-09-01T00:00:00","postcodeFull":"B8 1QS","propertyType":"Terraced","oldOrNew":"Established","duration":"Freehold","paon":"3","saon":"","street":"ARLEY ROAD","locality":"SALTLEY","townOrCity":"BIRMINGHAM","district":"BIRMINGHAM","county":"WEST MIDLANDS","ppdCategoryType":"Standard","recordStatus":"Addition","latitude":52.49338,"longitude":-1.857958,"postcodeStart":"B8 1","postcode":["B8","1QS"]}
{"price":30000,"dateOfTransfer":"1995-08-10T00:00:00","postcodeFull":"B8 1LS","propertyType":"Terraced","oldOrNew":"Established","duration":"Freehold","paon":"123","saon":"","street":"REGINALD ROAD","locality":"SALTLEY","townOrCity":"BIRMINGHAM","district":"BIRMINGHAM","county":"WEST MIDLANDS","ppdCategoryType":"Standard","recordStatus":"Addition","latitude":52.489479,"longitude":-1.857956,"postcodeStart":"B8 1","postcode":["B8","1LS"]}
{"price":15000,"dateOfTransfer":"1995-09-06T00:00:00","postcodeFull":"B8 1DY","propertyType":"Terraced","oldOrNew":"Established","duration":"Freehold","paon":"82","saon":"","street":"ARDEN ROAD","locality":"SALTLEY","townOrCity":"BIRMINGHAM","district":"BIRMINGHAM","county":"WEST MIDLANDS","ppdCategoryType":"Standard","recordStatus":"Addition","latitude":52.484015,"longitude":-1.860212,"postcodeStart":"B8 1","postcode":["B8","1DY"]}
{"price":31000,"dateOfTransfer":"1995-01-18T00:00:00","postcodeFull":"B8 1LU","propertyType":"Terraced","oldOrNew":"Established","duration":"Freehold","paon":"152","saon":"","street":"REGINALD ROAD","locality":"SALTLEY","townOrCity":"BIRMINGHAM","district":"BIRMINGHAM","county":"WEST MIDLANDS","ppdCategoryType":"Standard","recordStatus":"Addition","latitude":52.488445,"longitude":-1.858504,"postcodeStart":"B8 1","postcode":["B8","1LU"]}
{"price":30000,"dateOfTransfer":"1995-06-02T00:00:00","postcodeFull":"B8 1EP","propertyType":"Terraced","oldOrNew":"Established","duration":"Leasehold","paon":"271","saon":"","street":"ST SAVIOURS ROAD","locality":"SALTLEY","townOrCity":"BIRMINGHAM","district":"BIRMINGHAM","county":"WEST MIDLANDS","ppdCategoryType":"Standard","recordStatus":"Addition","latitude":52.484939,"longitude":-1.853681,"postcodeStart":"B8 1","postcode":["B8","1EP"]}
{"price":29000,"dateOfTransfer":"1995-11-24T00:00:00","postcodeFull":"B8 1DG","propertyType":"Terraced","oldOrNew":"Established","duration":"Freehold","paon":"174","saon":"","street":"ASH ROAD","locality":"BIRMINGHAM","townOrCity":"BIRMINGHAM","district":"BIRMINGHAM","county":"WEST MIDLANDS","ppdCategoryType":"Standard","recordStatus":"Addition","latitude":52.48536,"longitude":-1.856983,"postcodeStart":"B8 1","postcode":["B8","1DG"]}
{"price":20000,"dateOfTransfer":"1995-03-17T00:00:00","postcodeFull":"B8 1SH","propertyType":"Terraced","oldOrNew":"Established","duration":"Freehold","paon":"19","saon":"","street":"WASHWOOD HEATH ROAD","locality":"BIRMINGHAM","townOrCity":"BIRMINGHAM","district":"BIRMINGHAM","county":"WEST MIDLANDS","ppdCategoryType":"Standard","recordStatus":"Addition","latitude":52.491888,"longitude":-1.859038,"postcodeStart":"B8 1","postcode":["B8","1SH"]}
{"price":31500,"dateOfTransfer":"1995-03-31T00:00:00","postcodeFull":"B8 1LS","propertyType":"Terraced","oldOrNew":"Established","duration":"Freehold","paon":"85","saon":"","street":"REGINALD ROAD","locality":"SALTLEY","townOrCity":"BIRMINGHAM","district":"BIRMINGHAM","county":"WEST MIDLANDS","ppdCategoryType":"Standard","recordStatus":"Addition","latitude":52.489479,"longitude":-1.857956,"postcodeStart":"B8 1","postcode":["B8","1LS"]}
{"price":30300,"dateOfTransfer":"1995-07-14T00:00:00","postcodeFull":"B8 1QD","propertyType":"Terraced","oldOrNew":"Established","duration":"Freehold","paon":"84","saon":"","street":"CHARTIST ROAD","locality":"BIRMINGHAM","townOrCity":"BIRMINGHAM","district":"BIRMINGHAM","county":"WEST MIDLANDS","ppdCategoryType":"Standard","recordStatus":"Addition","latitude":52.496819,"longitude":-1.854279,"postcodeStart":"B8 1","postcode":["B8","1QD"]}
{"price":14000,"dateOfTransfer":"1995-05-12T00:00:00","postcodeFull":"B8 1NB","propertyType":"Terraced","oldOrNew":"Established","duration":"Leasehold","paon":"26","saon":"","street":"RALPH ROAD","locality":"BIRMINGHAM","townOrCity":"BIRMINGHAM","district":"BIRMINGHAM","county":"WEST MIDLANDS","ppdCategoryType":"Standard","recordStatus":"Addition","latitude":52.488621,"longitude":-1.856324,"postcodeStart":"B8 1","postcode":["B8","1NB"]}
{"price":21250,"dateOfTransfer":"1995-12-28T00:00:00","postcodeFull":"B8 1QB","propertyType":"Terraced","oldOrNew":"Established","duration":"Freehold","paon":"19","saon":"","street":"CHARTIST ROAD","locality":"BIRMINGHAM","townOrCity":"BIRMINGHAM","district":"BIRMINGHAM","county":"WEST MIDLANDS","ppdCategoryType":"Standard","recordStatus":"Addition","latitude":52.497107,"longitude":-1.854337,"postcodeStart":"B8 1","postcode":["B8","1QB"]}
{"price":30100,"dateOfTransfer":"1995-09-25T00:00:00","postcodeFull":"B8 1LW","propertyType":"Terraced","oldOrNew":"Established","duration":"Freehold","paon":"104","saon":"","street":"GEORGE ARTHUR ROAD","locality":"SALTLEY","townOrCity":"BIRMINGHAM","district":"BIRMINGHAM","county":"WEST MIDLANDS","ppdCategoryType":"Standard","recordStatus":"Addition","latitude":52.489696,"longitude":-1.859104,"postcodeStart":"B8 1","postcode":["B8","1LW"]}
{"price":40000,"dateOfTransfer":"1995-06-30T00:00:00","postcodeFull":"B8 1NB","propertyType":"Terraced","oldOrNew":"Established","duration":"Freehold","paon":"92","saon":"","street":"RALPH ROAD","locality":"BIRMINGHAM","townOrCity":"BIRMINGHAM","district":"BIRMINGHAM","county":"WEST MIDLANDS","ppdCategoryType":"Standard","recordStatus":"Addition","latitude":52.488621,"longitude":-1.856324,"postcodeStart":"B8 1","postcode":["B8","1NB"]}
{"price":21000,"dateOfTransfer":"1995-11-17T00:00:00","postcodeFull":"B8 1NT","propertyType":"Terraced","oldOrNew":"Established","duration":"Freehold","paon":"54","saon":"","street":"HERRICK ROAD","locality":"SALTLEY","townOrCity":"BIRMINGHAM","district":"BIRMINGHAM","county":"WEST MIDLANDS","ppdCategoryType":"Standard","recordStatus":"Addition","latitude":52.492249,"longitude":-1.851688,"postcodeStart":"B8 1","postcode":["B8","1NT"]}
{"price":75000,"dateOfTransfer":"1995-11-10T00:00:00","postcodeFull":"B8 1HZ","propertyType":"Terraced","oldOrNew":"Established","duration":"Freehold","paon":"100","saon":"","street":"ALUM ROCK ROAD","locality":"","townOrCity":"BIRMINGHAM","district":"BIRMINGHAM","county":"WEST MIDLANDS","ppdCategoryType":"Standard","recordStatus":"Addition","latitude":52.490185,"longitude":-1.854684,"postcodeStart":"B8 1","postcode":["B8","1HZ"]}
{"price":28500,"dateOfTransfer":"1995-12-08T00:00:00","postcodeFull":"B8 1LU","propertyType":"Terraced","oldOrNew":"Established","duration":"Freehold","paon":"164","saon":"","street":"REGINALD ROAD","locality":"SALTLEY","townOrCity":"BIRMINGHAM","district":"BIRMINGHAM","county":"WEST MIDLANDS","ppdCategoryType":"Standard","recordStatus":"Addition","latitude":52.488445,"longitude":-1.858504,"postcodeStart":"B8 1","postcode":["B8","1LU"]}
{"price":35000,"dateOfTransfer":"1995-06-16T00:00:00","postcodeFull":"B8 1SR","propertyType":"Terraced","oldOrNew":"Established","duration":"Freehold","paon":"53","saon":"","street":"MALTHOUSE LANE","locality":"WASHWOOD HEATH","townOrCity":"BIRMINGHAM","district":"BIRMINGHAM","county":"WEST MIDLANDS","ppdCategoryType":"Standard","recordStatus":"Addition","latitude":52.495142,"longitude":-1.850441,"postcodeStart":"B8 1","postcode":["B8","1SR"]}
{"price":33000,"dateOfTransfer":"1995-02-28T00:00:00","postcodeFull":"B8 1PD","propertyType":"Terraced","oldOrNew":"Established","duration":"Freehold","paon":"216","saon":"","street":"WRIGHT ROAD","locality":"BIRMINGHAM","townOrCity":"BIRMINGHAM","district":"BIRMINGHAM","county":"WEST MIDLANDS","ppdCategoryType":"Standard","recordStatus":"Addition","latitude":52.494865,"longitude":-1.852047,"postcodeStart":"B8 1","postcode":["B8","1PD"]}
{"price":34000,"dateOfTransfer":"1995-09-04T00:00:00","postcodeFull":"B8 1LW","propertyType":"Terraced","oldOrNew":"Established","duration":"Freehold","paon":"82","saon":"","street":"GEORGE ARTHUR ROAD","locality":"SALTLEY","townOrCity":"BIRMINGHAM","district":"BIRMINGHAM","county":"WEST MIDLANDS","ppdCategoryType":"Standard","recordStatus":"Addition","latitude":52.489696,"longitude":-1.859104,"postcodeStart":"B8 1","postcode":["B8","1LW"]}
{"price":4500,"dateOfTransfer":"1995-11-30T00:00:00","postcodeFull":"B8 1DF","propertyType":"Terraced","oldOrNew":"Established","duration":"Freehold","paon":"232","saon":"","street":"ARDEN ROAD","locality":"SALTLEY","townOrCity":"BIRMINGHAM","district":"BIRMINGHAM","county":"WEST MIDLANDS","ppdCategoryType":"Standard","recordStatus":"Addition","latitude":52.485188,"longitude":-1.855996,"postcodeStart":"B8 1","postcode":["B8","1DF"]}
{"price":20000,"dateOfTransfer":"1995-01-20T00:00:00","postcodeFull":"B8 1NS","propertyType":"Terraced","oldOrNew":"Established","duration":"Freehold","paon":"56","saon":"","street":"WRIGHT ROAD","locality":"BIRMINGHAM","townOrCity":"BIRMINGHAM","district":"BIRMINGHAM","county":"WEST MIDLANDS","ppdCategoryType":"Standard","recordStatus":"Addition","latitude":52.491487,"longitude":-1.853192,"postcodeStart":"B8 1","postcode":["B8","1NS"]}
{"price":73000,"dateOfTransfer":"1995-03-17T00:00:00","postcodeFull":"B8 1LY","propertyType":"Semi-detached","oldOrNew":"Established","duration":"Freehold","paon":"93","saon":"","street":"ALUM ROCK ROAD","locality":"","townOrCity":"BIRMINGHAM","district":"BIRMINGHAM","county":"WEST MIDLANDS","ppdCategoryType":"Standard","recordStatus":"Addition","latitude":52.490291,"longitude":-1.855946,"postcodeStart":"B8 1","postcode":["B8","1LY"]}
{"price":42500,"dateOfTransfer":"1995-05-09T00:00:00","postcodeFull":"B8 1NQ","propertyType":"Terraced","oldOrNew":"Established","duration":"Freehold","paon":"78","saon":"","street":"ELLESMERE ROAD","locality":"BIRMINGHAM","townOrCity":"BIRMINGHAM","district":"BIRMINGHAM","county":"WEST MIDLANDS","ppdCategoryType":"Standard","recordStatus":"Addition","latitude":52.487354,"longitude":-1.855842,"postcodeStart":"B8 1","postcode":["B8","1NQ"]}
{"price":56000,"dateOfTransfer":"1995-05-09T00:00:00","postcodeFull":"B8 1HU","propertyType":"Semi-detached","oldOrNew":"Established","duration":"Freehold","paon":"180","saon":"","street":"ALUM ROCK ROAD","locality":"","townOrCity":"BIRMINGHAM","district":"BIRMINGHAM","county":"WEST MIDLANDS","ppdCategoryType":"Standard","recordStatus":"Addition","latitude":52.489571,"longitude":-1.852639,"postcodeStart":"B8 1","postcode":["B8","1HU"]}
{"price":6600,"dateOfTransfer":"1995-11-08T00:00:00","postcodeFull":"B8 1QH","propertyType":"Terraced","oldOrNew":"Established","duration":"Leasehold","paon":"72","saon":"","street":"BENNETTS ROAD","locality":"","townOrCity":"BIRMINGHAM","district":"BIRMINGHAM","county":"WEST MIDLANDS","ppdCategoryType":"Standard","recordStatus":"Addition","latitude":52.496181,"longitude":-1.855003,"postcodeStart":"B8 1","postcode":["B8","1QH"]}
{"price":29000,"dateOfTransfer":"1995-04-13T00:00:00","postcodeFull":"B8 1LW","propertyType":"Terraced","oldOrNew":"Established","duration":"Freehold","paon":"110","saon":"","street":"GEORGE ARTHUR ROAD","locality":"SALTLEY","townOrCity":"BIRMINGHAM","district":"BIRMINGHAM","county":"WEST MIDLANDS","ppdCategoryType":"Standard","recordStatus":"Addition","latitude":52.489696,"longitude":-1.859104,"postcodeStart":"B8 1","postcode":["B8","1LW"]}
{"price":24000,"dateOfTransfer":"1995-02-23T00:00:00","postcodeFull":"B8 1QN","propertyType":"Terraced","oldOrNew":"Established","duration":"Freehold","paon":"41","saon":"","street":"MEMBURY ROAD","locality":"BIRMINGHAM","townOrCity":"BIRMINGHAM","district":"BIRMINGHAM","county":"WEST MIDLANDS","ppdCategoryType":"Standard","recordStatus":"Addition","latitude":52.495355,"longitude":-1.855787,"postcodeStart":"B8 1","postcode":["B8","1QN"]}
{"price":37000,"dateOfTransfer":"1995-04-10T00:00:00","postcodeFull":"B8 1NT","propertyType":"Terraced","oldOrNew":"Established","duration":"Freehold","paon":"2","saon":"","street":"HERRICK ROAD","locality":"SALTLEY","townOrCity":"BIRMINGHAM","district":"BIRMINGHAM","county":"WEST MIDLANDS","ppdCategoryType":"Standard","recordStatus":"Addition","latitude":52.492249,"longitude":-1.851688,"postcodeStart":"B8 1","postcode":["B8","1NT"]}
{"price":29500,"dateOfTransfer":"1995-01-25T00:00:00","postcodeFull":"B8 1RU","propertyType":"Terraced","oldOrNew":"Established","duration":"Freehold","paon":"110","saon":"","street":"HAVELOCK ROAD","locality":"SALTLEY","townOrCity":"BIRMINGHAM","district":"BIRMINGHAM","county":"WEST MIDLANDS","ppdCategoryType":"Standard","recordStatus":"Addition","latitude":52.490533,"longitude":-1.85296,"postcodeStart":"B8 1","postcode":["B8","1RU"]}
{"price":42000,"dateOfTransfer":"1995-11-03T00:00:00","postcodeFull":"B8 1HG","propertyType":"Terraced","oldOrNew":"Established","duration":"Freehold","paon":"184","saon":"","street":"ST SAVIOURS ROAD","locality":"SALTLEY","townOrCity":"BIRMINGHAM","district":"BIRMINGHAM","county":"WEST MIDLANDS","ppdCategoryType":"Standard","recordStatus":"Addition","latitude":52.486312,"longitude":-1.856214,"postcodeStart":"B8 1","postcode":["B8","1HG"]}
{"price":23500,"dateOfTransfer":"1995-06-30T00:00:00","postcodeFull":"B8 1SA","propertyType":"Terraced","oldOrNew":"Established","duration":"Freehold","paon":"51","saon":"","street":"HAVELOCK ROAD","locality":"SALTLEY","townOrCity":"BIRMINGHAM","district":"BIRMINGHAM","county":"WEST MIDLANDS","ppdCategoryType":"Standard","recordStatus":"Addition","latitude":52.491102,"longitude":-1.854946,"postcodeStart":"B8 1","postcode":["B8","1SA"]}
{"price":26000,"dateOfTransfer":"1995-10-16T00:00:00","postcodeFull":"B8 1QA","propertyType":"Terraced","oldOrNew":"Established","duration":"Freehold","paon":"310","saon":"","street":"ASTON CHURCH ROAD","locality":"SALTLEY","townOrCity":"BIRMINGHAM","district":"BIRMINGHAM","county":"WEST MIDLANDS","ppdCategoryType":"Standard","recordStatus":"Addition","latitude":52.496681,"longitude":-1.851908,"postcodeStart":"B8 1","postcode":["B8","1QA"]}
{"price":20500,"dateOfTransfer":"1995-08-04T00:00:00","postcodeFull":"B8 1RD","propertyType":"Terraced","oldOrNew":"Established","duration":"Freehold","paon":"88","saon":"","street":"WASHWOOD HEATH ROAD","locality":"BIRMINGHAM","townOrCity":"BIRMINGHAM","district":"BIRMINGHAM","county":"WEST MIDLANDS","ppdCategoryType":"Standard","recordStatus":"Addition","latitude":52.493451,"longitude":-1.856868,"postcodeStart":"B8 1","postcode":["B8","1RD"]}
{"price":33700,"dateOfTransfer":"1995-05-10T00:00:00","postcodeFull":"B8 1QJ","propertyType":"Terraced","oldOrNew":"Established","duration":"Freehold","paon":"67","saon":"","street":"BENNETTS ROAD","locality":"BIRMINGHAM","townOrCity":"BIRMINGHAM","district":"BIRMINGHAM","county":"WEST MIDLANDS","ppdCategoryType":"Standard","recordStatus":"Addition","latitude":52.496352,"longitude":-1.85459,"postcodeStart":"B8 1","postcode":["B8","1QJ"]}
{"price":30000,"dateOfTransfer":"1995-08-11T00:00:00","postcodeFull":"B8 1PD","propertyType":"Terraced","oldOrNew":"Established","duration":"Freehold","paon":"206","saon":"","street":"WRIGHT ROAD","locality":"BIRMINGHAM","townOrCity":"BIRMINGHAM","district":"BIRMINGHAM","county":"WEST MIDLANDS","ppdCategoryType":"Standard","recordStatus":"Addition","latitude":52.494865,"longitude":-1.852047,"postcodeStart":"B8 1","postcode":["B8","1PD"]}
{"price":37500,"dateOfTransfer":"1995-04-13T00:00:00","postcodeFull":"B8 1HB","propertyType":"Terraced","oldOrNew":"Established","duration":"Freehold","paon":"63","saon":"","street":"EDMUND ROAD","locality":"BIRMINGHAM","townOrCity":"BIRMINGHAM","district":"BIRMINGHAM","county":"WEST MIDLANDS","ppdCategoryType":"Standard","recordStatus":"Addition","latitude":52.486823,"longitude":-1.854695,"postcodeStart":"B8 1","postcode":["B8","1HB"]}
{"price":28000,"dateOfTransfer":"1995-08-04T00:00:00","postcodeFull":"B8 1PR","propertyType":"Terraced","oldOrNew":"Established","duration":"Freehold","paon":"29","saon":"","street":"PHILLIMORE ROAD","locality":"SALTLEY","townOrCity":"BIRMINGHAM","district":"BIRMINGHAM","county":"WEST MIDLANDS","ppdCategoryType":"Standard","recordStatus":"Addition","latitude":52.491928,"longitude":-1.85431,"postcodeStart":"B8 1","postcode":["B8","1PR"]}
{"price":14500,"dateOfTransfer":"1995-03-01T00:00:00","postcodeFull":"B8 1RD","propertyType":"Terraced","oldOrNew":"Established","duration":"Freehold","paon":"84","saon":"","street":"WASHWOOD HEATH ROAD","locality":"BIRMINGHAM","townOrCity":"BIRMINGHAM","district":"BIRMINGHAM","county":"WEST MIDLANDS","ppdCategoryType":"Standard","recordStatus":"Addition","latitude":52.493451,"longitude":-1.856868,"postcodeStart":"B8 1","postcode":["B8","1RD"]}
{"price":32000,"dateOfTransfer":"1995-09-29T00:00:00","postcodeFull":"B8 1ST","propertyType":"Terraced","oldOrNew":"Established","duration":"Freehold","paon":"40","saon":"","street":"SALISBURY ROAD","locality":"SALTLEY","townOrCity":"BIRMINGHAM","district":"BIRMINGHAM","county":"WEST MIDLANDS","ppdCategoryType":"Standard","recordStatus":"Addition","latitude":52.494126,"longitude":-1.850282,"postcodeStart":"B8 1","postcode":["B8","1ST"]}
{"price":35000,"dateOfTransfer":"1995-06-02T00:00:00","postcodeFull":"B8 1RE","propertyType":"Terraced","oldOrNew":"Established","duration":"Freehold","paon":"102","saon":"","street":"","locality":"BOLDMERE ROAD","townOrCity":"BIRMINGHAM","district":"BIRMINGHAM","county":"WEST MIDLANDS","ppdCategoryType":"Standard","recordStatus":"Addition","latitude":52.4943,"longitude":-1.855874,"postcodeStart":"B8 1","postcode":["B8","1RE"]}
{"price":31000,"dateOfTransfer":"1995-10-13T00:00:00","postcodeFull":"B8 1RU","propertyType":"Terraced","oldOrNew":"Established","duration":"Freehold","paon":"116","saon":"","street":"HAVELOCK ROAD","locality":"SALTLEY","townOrCity":"BIRMINGHAM","district":"BIRMINGHAM","county":"WEST MIDLANDS","ppdCategoryType":"Standard","recordStatus":"Addition","latitude":52.490533,"longitude":-1.85296,"postcodeStart":"B8 1","postcode":["B8","1RU"]}
{"price":30000,"dateOfTransfer":"1995-09-06T00:00:00","postcodeFull":"B8 1PD","propertyType":"Terraced","oldOrNew":"Established","duration":"Freehold","paon":"220","saon":"","street":"WRIGHT ROAD","locality":"BIRMINGHAM","townOrCity":"BIRMINGHAM","district":"BIRMINGHAM","county":"WEST MIDLANDS","ppdCategoryType":"Standard","recordStatus":"Addition","latitude":52.494865,"longitude":-1.852047,"postcodeStart":"B8 1","postcode":["B8","1PD"]}
{"price":28500,"dateOfTransfer":"1995-12-08T00:00:00","postcodeFull":"B8 1QH","propertyType":"Terraced","oldOrNew":"Established","duration":"Freehold","paon":"80","saon":"","street":"BENNETTS ROAD","locality":"BIRMINGHAM","townOrCity":"BIRMINGHAM","district":"BIRMINGHAM","county":"WEST MIDLANDS","ppdCategoryType":"Standard","recordStatus":"Addition","latitude":52.496181,"longitude":-1.855003,"postcodeStart":"B8 1","postcode":["B8","1QH"]}
{"price":44000,"dateOfTransfer":"1995-05-20T00:00:00","postcodeFull":"B8 1NB","propertyType":"Terraced","oldOrNew":"Established","duration":"Freehold","paon":"46","saon":"","street":"RALPH ROAD","locality":"BIRMINGHAM","townOrCity":"BIRMINGHAM","district":"BIRMINGHAM","county":"WEST MIDLANDS","ppdCategoryType":"Standard","recordStatus":"Addition","latitude":52.488621,"longitude":-1.856324,"postcodeStart":"B8 1","postcode":["B8","1NB"]}
{"price":22000,"dateOfTransfer":"1995-10-03T00:00:00","postcodeFull":"B8 1QA","propertyType":"Terraced","oldOrNew":"Established","duration":"Freehold","paon":"310","saon":"","street":"ASTON CHURCH ROAD","locality":"SALTLEY","townOrCity":"BIRMINGHAM","district":"BIRMINGHAM","county":"WEST MIDLANDS","ppdCategoryType":"Standard","recordStatus":"Addition","latitude":52.496681,"longitude":-1.851908,"postcodeStart":"B8 1","postcode":["B8","1QA"]}
{"price":29500,"dateOfTransfer":"1995-01-27T00:00:00","postcodeFull":"B8 1QJ","propertyType":"Terraced","oldOrNew":"Established","duration":"Freehold","paon":"57","saon":"","street":"BENNETTS ROAD","locality":"BIRMINGHAM","townOrCity":"BIRMINGHAM","district":"BIRMINGHAM","county":"WEST MIDLANDS","ppdCategoryType":"Standard","recordStatus":"Addition","latitude":52.496352,"longitude":-1.85459,"postcodeStart":"B8 1","postcode":["B8","1QJ"]}
{"price":24000,"dateOfTransfer":"1995-07-24T00:00:00","postcodeFull":"B8 1ST","propertyType":"Terraced","oldOrNew":"Established","duration":"Freehold","paon":"26","saon":"","street":"SALISBURY ROAD","locality":"SALTLEY","townOrCity":"BIRMINGHAM","district":"BIRMINGHAM","county":"WEST MIDLANDS","ppdCategoryType":"Standard","recordStatus":"Addition","latitude":52.494126,"longitude":-1.850282,"postcodeStart":"B8 1","postcode":["B8","1ST"]}
{"price":29500,"dateOfTransfer":"1995-12-22T00:00:00","postcodeFull":"B8 1NF","propertyType":"Terraced","oldOrNew":"Established","duration":"Freehold","paon":"113","saon":"","street":"ELLESMERE ROAD","locality":"BIRMINGHAM","townOrCity":"BIRMINGHAM","district":"BIRMINGHAM","county":"WEST MIDLANDS","ppdCategoryType":"Standard","recordStatus":"Addition","latitude":52.487526,"longitude":-1.856136,"postcodeStart":"B8 1","postcode":["B8","1NF"]}
{"price":33000,"dateOfTransfer":"1995-07-28T00:00:00","postcodeFull":"B8 1NY","propertyType":"Terraced","oldOrNew":"Established","duration":"Freehold","paon":"203","saon":"","street":"WRIGHT ROAD","locality":"BIRMINGHAM","townOrCity":"BIRMINGHAM","district":"BIRMINGHAM","county":"WEST MIDLANDS","ppdCategoryType":"Standard","recordStatus":"Addition","latitude":52.494361,"longitude":-1.851725,"postcodeStart":"B8 1","postcode":["B8","1NY"]}
{"price":40000,"dateOfTransfer":"1995-05-04T00:00:00","postcodeFull":"B8 1DJ","propertyType":"Semi-detached","oldOrNew":"Established","duration":"Freehold","paon":"56","saon":"","street":"ASH ROAD","locality":"BIRMINGHAM","townOrCity":"BIRMINGHAM","district":"BIRMINGHAM","county":"WEST MIDLANDS","ppdCategoryType":"Standard","recordStatus":"Addition","latitude":52.487414,"longitude":-1.860775,"postcodeStart":"B8 1","postcode":["B8","1DJ"]}
{"price":18000,"dateOfTransfer":"1996-12-13T00:00:00","postcodeFull":"B8 1RU","propertyType":"Terraced","oldOrNew":"Established","duration":"Freehold","paon":"117 - 119","saon":"","street":"HAVELOCK ROAD","locality":"SALTLEY","townOrCity":"BIRMINGHAM","district":"BIRMINGHAM","county":"WEST MIDLANDS","ppdCategoryType":"Standard","recordStatus":"Addition","latitude":52.490533,"longitude":-1.85296,"postcodeStart":"B8 1","postcode":["B8","1RU"]}
{"price":20500,"dateOfTransfer":"1996-09-10T00:00:00","postcodeFull":"B8 1NS","propertyType":"Terraced","oldOrNew":"Established","duration":"Freehold","paon":"93","saon":"","street":"WRIGHT ROAD","locality":"BIRMINGHAM","townOrCity":"BIRMINGHAM","district":"BIRMINGHAM","county":"WEST MIDLANDS","ppdCategoryType":"Standard","recordStatus":"Addition","latitude":52.491487,"longitude":-1.853192,"postcodeStart":"B8 1","postcode":["B8","1NS"]}
{"price":37000,"dateOfTransfer":"1996-02-01T00:00:00","postcodeFull":"B8 1DH","propertyType":"Terraced","oldOrNew":"Established","duration":"Freehold","paon":"11","saon":"","street":"HALL ROAD","locality":"SALTLEY","townOrCity":"BIRMINGHAM","district":"BIRMINGHAM","county":"WEST MIDLANDS","ppdCategoryType":"Standard","recordStatus":"Addition","latitude":52.487133,"longitude":-1.858935,"postcodeStart":"B8 1","postcode":["B8","1DH"]}
{"price":28750,"dateOfTransfer":"1996-09-27T00:00:00","postcodeFull":"B8 1RW","propertyType":"Terraced","oldOrNew":"Established","duration":"Freehold","paon":"131","saon":"","street":"WASHWOOD HEATH ROAD","locality":"BIRMINGHAM","townOrCity":"BIRMINGHAM","district":"BIRMINGHAM","county":"WEST MIDLANDS","ppdCategoryType":"Standard","recordStatus":"Addition","latitude":52.49467,"longitude":-1.854139,"postcodeStart":"B8 1","postcode":["B8","1RW"]}
{"price":27500,"dateOfTransfer":"1996-09-30T00:00:00","postcodeFull":"B8 1RU","propertyType":"Semi-detached","oldOrNew":"Established","duration":"Freehold","paon":"143","saon":"","street":"HAVELOCK ROAD","locality":"SALTLEY","townOrCity":"BIRMINGHAM","district":"BIRMINGHAM","county":"WEST MIDLANDS","ppdCategoryType":"Standard","recordStatus":"Addition","latitude":52.490533,"longitude":-1.85296,"postcodeStart":"B8 1","postcode":["B8","1RU"]}
{"price":35000,"dateOfTransfer":"1996-10-04T00:00:00","postcodeFull":"B8 1HA","propertyType":"Terraced","oldOrNew":"Established","duration":"Freehold","paon":"190","saon":"","street":"ST SAVIOURS ROAD","locality":"SALTLEY","townOrCity":"BIRMINGHAM","district":"BIRMINGHAM","county":"WEST MIDLANDS","ppdCategoryType":"Standard","recordStatus":"Addition","latitude":52.485681,"longitude":-1.855185,"postcodeStart":"B8 1","postcode":["B8","1HA"]}
{"price":17000,"dateOfTransfer":"1996-11-21T00:00:00","postcodeFull":"B8 1DW","propertyType":"Terraced","oldOrNew":"Established","duration":"Freehold","paon":"19","saon":"","street":"ASH ROAD","locality":"BIRMINGHAM","townOrCity":"BIRMINGHAM","district":"BIRMINGHAM","county":"WEST MIDLANDS","ppdCategoryType":"Standard","recordStatus":"Addition","latitude":52.48719,"longitude":-1.860967,"postcodeStart":"B8 1","postcode":["B8","1DW"]}
{"price":17000,"dateOfTransfer":"1996-04-26T00:00:00","postcodeFull":"B8 1PE","propertyType":"Terraced","oldOrNew":"Established","duration":"Freehold","paon":"118","saon":"","street":"WRIGHT ROAD","locality":"BIRMINGHAM","townOrCity":"BIRMINGHAM","district":"BIRMINGHAM","county":"WEST MIDLANDS","ppdCategoryType":"Standard","recordStatus":"Addition","latitude":52.493607,"longitude":-1.852449,"postcodeStart":"B8 1","postcode":["B8","1PE"]}
{"price":29950,"dateOfTransfer":"1996-10-14T00:00:00","postcodeFull":"B8 1PT","propertyType":"Terraced","oldOrNew":"Established","duration":"Freehold","paon":"92","saon":"","street":"PHILLIMORE ROAD","locality":"SALTLEY","townOrCity":"BIRMINGHAM","district":"BIRMINGHAM","county":"WEST MIDLANDS","ppdCategoryType":"Standard","recordStatus":"Addition","latitude":52.492434,"longitude":-1.856415,"postcodeStart":"B8 1","postcode":["B8","1PT"]}
{"price":31000,"dateOfTransfer":"1996-08-04T00:00:00","postcodeFull":"B8 1NE","propertyType":"Semi-detached","oldOrNew":"Established","duration":"Freehold","paon":"37","saon":"","street":"ELLESMERE ROAD","locality":"BIRMINGHAM","townOrCity":"BIRMINGHAM","district":"BIRMINGHAM","county":"WEST MIDLANDS","ppdCategoryType":"Standard","recordStatus":"Addition","latitude":52.488833,"longitude":-1.854964,"postcodeStart":"B8 1","postcode":["B8","1NE"]}
{"price":30000,"dateOfTransfer":"1996-10-09T00:00:00","postcodeFull":"B8 1TE","propertyType":"Terraced","oldOrNew":"Established","duration":"Freehold","paon":"22","saon":"","street":"","locality":"FOXGROVE ROAD","townOrCity":"BIRMINGHAM","district":"BIRMINGHAM","county":"WEST MIDLANDS","ppdCategoryType":"Standard","recordStatus":"Addition","latitude":52.486415,"longitude":-1.852502,"postcodeStart":"B8 1","postcode":["B8","1TE"]}
{"price":92000,"dateOfTransfer":"1996-11-29T00:00:00","postcodeFull":"B8 1LY","propertyType":"Terraced","oldOrNew":"Established","duration":"Freehold","paon":"69","saon":"","street":"ALUM ROCK ROAD","locality":"","townOrCity":"BIRMINGHAM","district":"BIRMINGHAM","county":"WEST MIDLANDS","ppdCategoryType":"Standard","recordStatus":"Addition","latitude":52.490291,"longitude":-1.855946,"postcodeStart":"B8 1","postcode":["B8","1LY"]}
{"price":43414,"dateOfTransfer":"1996-07-26T00:00:00","postcodeFull":"B8 1DG","propertyType":"Detached","oldOrNew":"Established","duration":"Freehold","paon":"196","saon":"","street":"ASH ROAD","locality":"","townOrCity":"BIRMINGHAM","district":"BIRMINGHAM","county":"WEST MIDLANDS","ppdCategoryType":"Standard","recordStatus":"Addition","latitude":52.48536,"longitude":-1.856983,"postcodeStart":"B8 1","postcode":["B8","1DG"]}
{"price":25000,"dateOfTransfer":"1996-07-18T00:00:00","postcodeFull":"B8 1QA","propertyType":"Terraced","oldOrNew":"Established","duration":"Freehold","paon":"314","saon":"","street":"ASTON CHURCH ROAD","locality":"SALTLEY","townOrCity":"BIRMINGHAM","district":"BIRMINGHAM","county":"WEST MIDLANDS","ppdCategoryType":"Standard","recordStatus":"Addition","latitude":52.496681,"longitude":-1.851908,"postcodeStart":"B8 1","postcode":["B8","1QA"]}
{"price":15000,"dateOfTransfer":"1996-05-10T00:00:00","postcodeFull":"B8 1NH","propertyType":"Terraced","oldOrNew":"Established","duration":"Freehold","paon":"157","saon":"","street":"ALUM ROCK ROAD","locality":"","townOrCity":"BIRMINGHAM","district":"BIRMINGHAM","county":"WEST MIDLANDS","ppdCategoryType":"Standard","recordStatus":"Addition","latitude":52.489455,"longitude":-1.853376,"postcodeStart":"B8 1","postcode":["B8","1NH"]}
{"price":82250,"dateOfTransfer":"1996-09-27T00:00:00","postcodeFull":"B8 1HU","propertyType":"Semi-detached","oldOrNew":"Established","duration":"Freehold","paon":"176 - 178","saon":"","street":"ALUM ROCK ROAD","locality":"","townOrCity":"BIRMINGHAM","district":"BIRMINGHAM","county":"WEST MIDLANDS","ppdCategoryType":"Standard","recordStatus":"Addition","latitude":52.489571,"longitude":-1.852639,"postcodeStart":"B8 1","postcode":["B8","1HU"]}
{"price":11000,"dateOfTransfer":"1996-03-29T00:00:00","postcodeFull":"B8 1RE","propertyType":"Terraced","oldOrNew":"Established","duration":"Leasehold","paon":"110","saon":"","street":"WASHWOOD HEATH ROAD","locality":"BIRMINGHAM","townOrCity":"BIRMINGHAM","district":"BIRMINGHAM","county":"WEST MIDLANDS","ppdCategoryType":"Standard","recordStatus":"Addition","latitude":52.4943,"longitude":-1.855874,"postcodeStart":"B8 1","postcode":["B8","1RE"]}
{"price":27000,"dateOfTransfer":"1996-12-16T00:00:00","postcodeFull":"B8 1DT","propertyType":"Terraced","oldOrNew":"Established","duration":"Freehold","paon":"52","saon":"","street":"HAMS ROAD","locality":"BIRMINGHAM","townOrCity":"BIRMINGHAM","district":"BIRMINGHAM","county":"WEST MIDLANDS","ppdCategoryType":"Standard","recordStatus":"Addition","latitude":52.485425,"longitude":-1.859,"postcodeStart":"B8 1","postcode":["B8","1DT"]}
{"price":34000,"dateOfTransfer":"1996-04-01T00:00:00","postcodeFull":"B8 1QS","propertyType":"Terraced","oldOrNew":"Established","duration":"Freehold","paon":"200","saon":"","street":"ARLEY ROAD","locality":"SALTLEY","townOrCity":"BIRMINGHAM","district":"BIRMINGHAM","county":"WEST MIDLANDS","ppdCategoryType":"Standard","recordStatus":"Addition","latitude":52.49338,"longitude":-1.857958,"postcodeStart":"B8 1","postcode":["B8","1QS"]}
{"price":30500,"dateOfTransfer":"1996-04-26T00:00:00","postcodeFull":"B8 1PE","propertyType":"Terraced","oldOrNew":"Established","duration":"Freehold","paon":"122","saon":"","street":"WRIGHT ROAD","locality":"BIRMINGHAM","townOrCity":"BIRMINGHAM","district":"BIRMINGHAM","county":"WEST MIDLANDS","ppdCategoryType":"Standard","recordStatus":"Addition","latitude":52.493607,"longitude":-1.852449,"postcodeStart":"B8 1","postcode":["B8","1PE"]}
{"price":31000,"dateOfTransfer":"1996-09-11T00:00:00","postcodeFull":"B8 1DW","propertyType":"Terraced","oldOrNew":"Established","duration":"Freehold","paon":"47","saon":"","street":"ASH ROAD","locality":"BIRMINGHAM","townOrCity":"BIRMINGHAM","district":"BIRMINGHAM","county":"WEST MIDLANDS","ppdCategoryType":"Standard","recordStatus":"Addition","latitude":52.48719,"longitude":-1.860967,"postcodeStart":"B8 1","postcode":["B8","1DW"]}
{"price":26000,"dateOfTransfer":"1996-06-14T00:00:00","postcodeFull":"B8 1QR","propertyType":"Terraced","oldOrNew":"Established","duration":"Freehold","paon":"26","saon":"","street":"HUTTON ROAD","locality":"SALTLEY","townOrCity":"BIRMINGHAM","district":"BIRMINGHAM","county":"WEST MIDLANDS","ppdCategoryType":"Standard","recordStatus":"Addition","latitude":52.494026,"longitude":-1.856616,"postcodeStart":"B8 1","postcode":["B8","1QR"]}
{"price":21250,"dateOfTransfer":"1996-09-13T00:00:00","postcodeFull":"B8 1QJ","propertyType":"Terraced","oldOrNew":"Established","duration":"Freehold","paon":"105","saon":"","street":"BENNETTS ROAD","locality":"BIRMINGHAM","townOrCity":"BIRMINGHAM","district":"BIRMINGHAM","county":"WEST MIDLANDS","ppdCategoryType":"Standard","recordStatus":"Addition","latitude":52.496352,"longitude":-1.85459,"postcodeStart":"B8 1","postcode":["B8","1QJ"]}
{"price":46000,"dateOfTransfer":"1996-05-03T00:00:00","postcodeFull":"B8 1HD","propertyType":"Terraced","oldOrNew":"Established","duration":"Freehold","paon":"135","saon":"","street":"EDMUND ROAD","locality":"BIRMINGHAM","townOrCity":"BIRMINGHAM","district":"BIRMINGHAM","county":"WEST MIDLANDS","ppdCategoryType":"Standard","recordStatus":"Addition","latitude":52.488232,"longitude":-1.85338,"postcodeStart":"B8 1","postcode":["B8","1HD"]}
{"price":29500,"dateOfTransfer":"1996-01-05T00:00:00","postcodeFull":"B8 1DG","propertyType":"Terraced","oldOrNew":"Established","duration":"Freehold","paon":"162","saon":"","street":"ASH ROAD","locality":"BIRMINGHAM","townOrCity":"BIRMINGHAM","district":"BIRMINGHAM","county":"WEST MIDLANDS","ppdCategoryType":"Standard","recordStatus":"Addition","latitude":52.48536,"longitude":-1.856983,"postcodeStart":"B8 1","postcode":["B8","1DG"]}
{"price":24500,"dateOfTransfer":"1996-01-02T00:00:00","postcodeFull":"B8 1RT","propertyType":"Terraced","oldOrNew":"Established","duration":"Freehold","paon":"16","saon":"","street":"HAVELOCK ROAD","locality":"SALTLEY","townOrCity":"BIRMINGHAM","district":"BIRMINGHAM","county":"WEST MIDLANDS","ppdCategoryType":"Standard","recordStatus":"Addition","latitude":52.491684,"longitude":-1.855764,"postcodeStart":"B8 1","postcode":["B8","1RT"]}
{"price":31500,"dateOfTransfer":"1996-03-01T00:00:00","postcodeFull":"B8 1DH","propertyType":"Terraced","oldOrNew":"Established","duration":"Freehold","paon":"31","saon":"","street":"HALL ROAD","locality":"SALTLEY","townOrCity":"BIRMINGHAM","district":"BIRMINGHAM","county":"WEST MIDLANDS","ppdCategoryType":"Standard","recordStatus":"Addition","latitude":52.487133,"longitude":-1.858935,"postcodeStart":"B8 1","postcode":["B8","1DH"]}
{"price":42000,"dateOfTransfer":"1996-06-21T00:00:00","postcodeFull":"B8 1EY","propertyType":"Semi-detached","oldOrNew":"Established","duration":"Freehold","paon":"117","saon":"","street":"BOWYER ROAD","locality":"SALTLEY","townOrCity":"BIRMINGHAM","district":"BIRMINGHAM","county":"WEST MIDLANDS","ppdCategoryType":"Standard","recordStatus":"Addition","latitude":52.486408,"longitude":-1.854004,"postcodeStart":"B8 1","postcode":["B8","1EY"]}
{"price":40000,"dateOfTransfer":"1996-07-19T00:00:00","postcodeFull":"B8 1HB","propertyType":"Terraced","oldOrNew":"Established","duration":"Freehold","paon":"19","saon":"","street":"EDMUND ROAD","locality":"BIRMINGHAM","townOrCity":"BIRMINGHAM","district":"BIRMINGHAM","county":"WEST MIDLANDS","ppdCategoryType":"Standard","recordStatus":"Addition","latitude":52.486823,"longitude":-1.854695,"postcodeStart":"B8 1","postcode":["B8","1HB"]}
{"price":25000,"dateOfTransfer":"1996-03-07T00:00:00","postcodeFull":"B8 1SX","propertyType":"Terraced","oldOrNew":"Established","duration":"Freehold","paon":"7","saon":"","street":"TEALL ROAD","locality":"BIRMINGHAM","townOrCity":"BIRMINGHAM","district":"BIRMINGHAM","county":"WEST MIDLANDS","ppdCategoryType":"Standard","recordStatus":"Addition","latitude":52.492761,"longitude":-1.8512,"postcodeStart":"B8 1","postcode":["B8","1SX"]}
{"price":34000,"dateOfTransfer":"1996-11-19T00:00:00","postcodeFull":"B8 1HN","propertyType":"Terraced","oldOrNew":"Established","duration":"Freehold","paon":"69","saon":"","street":"ST SAVIOURS ROAD","locality":"SALTLEY","townOrCity":"BIRMINGHAM","district":"BIRMINGHAM","county":"WEST MIDLANDS","ppdCategoryType":"Standard","recordStatus":"Addition","latitude":52.488096,"longitude":-1.859801,"postcodeStart":"B8 1","postcode":["B8","1HN"]}
{"price":30500,"dateOfTransfer":"1996-12-20T00:00:00","postcodeFull":"B8 1PS","propertyType":"Terraced","oldOrNew":"Established","duration":"Freehold","paon":"76","saon":"","street":"PHILLIMORE ROAD","locality":"SALTLEY","townOrCity":"BIRMINGHAM","district":"BIRMINGHAM","county":"WEST MIDLANDS","ppdCategoryType":"Standard","recordStatus":"Addition","latitude":52.492172,"longitude":-1.855281,"postcodeStart":"B8 1","postcode":["B8","1PS"]}
{"price":26000,"dateOfTransfer":"1996-04-03T00:00:00","postcodeFull":"B8 1QR","propertyType":"Terraced","oldOrNew":"Established","duration":"Freehold","paon":"25","saon":"","street":"HUTTON ROAD","locality":"SALTLEY","townOrCity":"BIRMINGHAM","district":"BIRMINGHAM","county":"WEST MIDLANDS","ppdCategoryType":"Standard","recordStatus":"Addition","latitude":52.494026,"longitude":-1.856616,"postcodeStart":"B8 1","postcode":["B8","1QR"]}
{"price":22999,"dateOfTransfer":"1996-08-28T00:00:00","postcodeFull":"B8 1TE","propertyType":"Terraced","oldOrNew":"Established","duration":"Freehold","paon":"9","saon":"","street":"HARTOPP ROAD","locality":"BIRMINGHAM","townOrCity":"BIRMINGHAM","district":"BIRMINGHAM","county":"WEST MIDLANDS","ppdCategoryType":"Standard","recordStatus":"Addition","latitude":52.486415,"longitude":-1.852502,"postcodeStart":"B8 1","postcode":["B8","1TE"]}
{"price":19000,"dateOfTransfer":"1996-07-01T00:00:00","postcodeFull":"B8 1DW","propertyType":"Terraced","oldOrNew":"Established","duration":"Freehold","paon":"19","saon":"","street":"ASH ROAD","locality":"BIRMINGHAM","townOrCity":"BIRMINGHAM","district":"BIRMINGHAM","county":"WEST MIDLANDS","ppdCategoryType":"Standard","recordStatus":"Addition","latitude":52.48719,"longitude":-1.860967,"postcodeStart":"B8 1","postcode":["B8","1DW"]}
{"price":28000,"dateOfTransfer":"1996-09-23T00:00:00","postcodeFull":"B8 1QL","propertyType":"Terraced","oldOrNew":"Established","duration":"Freehold","paon":"46","saon":"","street":"MEMBURY ROAD","locality":"BIRMINGHAM","townOrCity":"BIRMINGHAM","district":"BIRMINGHAM","county":"WEST MIDLANDS","ppdCategoryType":"Standard","recordStatus":"Addition","latitude":52.49532,"longitude":-1.856273,"postcodeStart":"B8 1","postcode":["B8","1QL"]}
{"price":20000,"dateOfTransfer":"1996-12-18T00:00:00","postcodeFull":"B8 1DW","propertyType":"Terraced","oldOrNew":"Established","duration":"Freehold","paon":"7","saon":"","street":"ASH ROAD","locality":"BIRMINGHAM","townOrCity":"BIRMINGHAM","district":"BIRMINGHAM","county":"WEST MIDLANDS","ppdCategoryType":"Standard","recordStatus":"Addition","latitude":52.48719,"longitude":-1.860967,"postcodeStart":"B8 1","postcode":["B8","1DW"]}
{"price":38000,"dateOfTransfer":"1996-05-24T00:00:00","postcodeFull":"B8 1NF","propertyType":"Terraced","oldOrNew":"Established","duration":"Freehold","paon":"113","saon":"","street":"ELLESMERE ROAD","locality":"BIRMINGHAM","townOrCity":"BIRMINGHAM","district":"BIRMINGHAM","county":"WEST MIDLANDS","ppdCategoryType":"Standard","recordStatus":"Addition","latitude":52.487526,"longitude":-1.856136,"postcodeStart":"B8 1","postcode":["B8","1NF"]}
{"price":34250,"dateOfTransfer":"1996-06-28T00:00:00","postcodeFull":"B8 1NA","propertyType":"Terraced","oldOrNew":"Established","duration":"Freehold","paon":"33","saon":"","street":"RALPH ROAD","locality":"BIRMINGHAM","townOrCity":"BIRMINGHAM","district":"BIRMINGHAM","county":"WEST MIDLANDS","ppdCategoryType":"Standard","recordStatus":"Addition","latitude":52.488839,"longitude":-1.856795,"postcodeStart":"B8 1","postcode":["B8","1NA"]}
{"price":15960,"dateOfTransfer":"1996-07-22T00:00:00","postcodeFull":"B8 1RG","propertyType":"Terraced","oldOrNew":"New build","duration":"Freehold","paon":"15","saon":"","street":"SANDWAY GARDENS","locality":"BIRMINGHAM","townOrCity":"BIRMINGHAM","district":"BIRMINGHAM","county":"WEST MIDLANDS","ppdCategoryType":"Standard","recordStatus":"Addition","latitude":52.495382,"longitude":-1.855094,"postcodeStart":"B8 1","postcode":["B8","1RG"]}
{"price":21000,"dateOfTransfer":"1996-10-31T00:00:00","postcodeFull":"B8 1RT","propertyType":"Terraced","oldOrNew":"Established","duration":"Freehold","paon":"4","saon":"","street":"HAVELOCK ROAD","locality":"SALTLEY","townOrCity":"BIRMINGHAM","district":"BIRMINGHAM","county":"WEST MIDLANDS","ppdCategoryType":"Standard","recordStatus":"Addition","latitude":52.491684,"longitude":-1.855764,"postcodeStart":"B8 1","postcode":["B8","1RT"]}
{"price":15800,"dateOfTransfer":"1996-06-10T00:00:00","postcodeFull":"B8 1SR","propertyType":"Terraced","oldOrNew":"Established","duration":"Freehold","paon":"59","saon":"","street":"MALTHOUSE LANE","locality":"WASHWOOD HEATH","townOrCity":"BIRMINGHAM","district":"BIRMINGHAM","county":"WEST MIDLANDS","ppdCategoryType":"Standard","recordStatus":"Addition","latitude":52.495142,"longitude":-1.850441,"postcodeStart":"B8 1","postcode":["B8","1SR"]}
{"price":25000,"dateOfTransfer":"1996-02-23T00:00:00","postcodeFull":"B8 1QB","propertyType":"Terraced","oldOrNew":"Established","duration":"Freehold","paon":"19","saon":"","street":"CHARTIST ROAD","locality":"BIRMINGHAM","townOrCity":"BIRMINGHAM","district":"BIRMINGHAM","county":"WEST MIDLANDS","ppdCategoryType":"Standard","recordStatus":"Addition","latitude":52.497107,"longitude":-1.854337,"postcodeStart":"B8 1","postcode":["B8","1QB"]}
{"price":31500,"dateOfTransfer":"1996-08-23T00:00:00","postcodeFull":"B8 1NS","propertyType":"Terraced","oldOrNew":"Established","duration":"Freehold","paon":"105","saon":"","street":"WRIGHT ROAD","locality":"BIRMINGHAM","townOrCity":"BIRMINGHAM","district":"BIRMINGHAM","county":"WEST MIDLANDS","ppdCategoryType":"Standard","recordStatus":"Addition","latitude":52.491487,"longitude":-1.853192,"postcodeStart":"B8 1","postcode":["B8","1NS"]}
{"price":10000,"dateOfTransfer":"1996-06-12T00:00:00","postcodeFull":"B8 1DT","propertyType":"Terraced","oldOrNew":"Established","duration":"Freehold","paon":"44","saon":"","street":"HAMS ROAD","locality":"BIRMINGHAM","townOrCity":"BIRMINGHAM","district":"BIRMINGHAM","county":"WEST MIDLANDS","ppdCategoryType":"Standard","recordStatus":"Addition","latitude":52.485425,"longitude":-1.859,"postcodeStart":"B8 1","postcode":["B8","1DT"]}
{"price":18000,"dateOfTransfer":"1996-11-13T00:00:00","postcodeFull":"B8 1DG","propertyType":"Terraced","oldOrNew":"Established","duration":"Freehold","paon":"172","saon":"","street":"ASH ROAD","locality":"BIRMINGHAM","townOrCity":"BIRMINGHAM","district":"BIRMINGHAM","county":"WEST MIDLANDS","ppdCategoryType":"Standard","recordStatus":"Addition","latitude":52.48536,"longitude":-1.856983,"postcodeStart":"B8 1","postcode":["B8","1DG"]}
{"price":19000,"dateOfTransfer":"1996-02-23T00:00:00","postcodeFull":"B8 1DY","propertyType":"Terraced","oldOrNew":"Established","duration":"Freehold","paon":"82","saon":"","street":"ARDEN ROAD","locality":"SALTLEY","townOrCity":"BIRMINGHAM","district":"BIRMINGHAM","county":"WEST MIDLANDS","ppdCategoryType":"Standard","recordStatus":"Addition","latitude":52.484015,"longitude":-1.860212,"postcodeStart":"B8 1","postcode":["B8","1DY"]}
{"price":33500,"dateOfTransfer":"1996-09-27T00:00:00","postcodeFull":"B8 1NT","propertyType":"Terraced","oldOrNew":"Established","duration":"Freehold","paon":"16","saon":"","street":"HERRICK ROAD","locality":"SALTLEY","townOrCity":"BIRMINGHAM","district":"BIRMINGHAM","county":"WEST MIDLANDS","ppdCategoryType":"Standard","recordStatus":"Addition","latitude":52.492249,"longitude":-1.851688,"postcodeStart":"B8 1","postcode":["B8","1NT"]}
{"price":27000,"dateOfTransfer":"1996-10-30T00:00:00","postcodeFull":"B8 1QN","propertyType":"Terraced","oldOrNew":"Established","duration":"Freehold","paon":"13","saon":"","street":"MEMBURY ROAD","locality":"BIRMINGHAM","townOrCity":"BIRMINGHAM","district":"BIRMINGHAM","county":"WEST MIDLANDS","ppdCategoryType":"Standard","recordStatus":"Addition","latitude":52.495355,"longitude":-1.855787,"postcodeStart":"B8 1","postcode":["B8","1QN"]}
{"price":29000,"dateOfTransfer":"1996-12-06T00:00:00","postcodeFull":"B8 1QB","propertyType":"Terraced","oldOrNew":"Established","duration":"Freehold","paon":"13","saon":"","street":"CHARTIST ROAD","locality":"BIRMINGHAM","townOrCity":"BIRMINGHAM","district":"BIRMINGHAM","county":"WEST MIDLANDS","ppdCategoryType":"Standard","recordStatus":"Addition","latitude":52.497107,"longitude":-1.854337,"postcodeStart":"B8 1","postcode":["B8","1QB"]}
{"price":45000,"dateOfTransfer":"1996-09-26T00:00:00","postcodeFull":"B8 1HH","propertyType":"Terraced","oldOrNew":"Established","duration":"Freehold","paon":"92","saon":"","street":"ST SAVIOURS ROAD","locality":"SALTLEY","townOrCity":"BIRMINGHAM","district":"BIRMINGHAM","county":"WEST MIDLANDS","ppdCategoryType":"Standard","recordStatus":"Addition","latitude":52.487636,"longitude":-1.858315,"postcodeStart":"B8 1","postcode":["B8","1HH"]}
{"price":60000,"dateOfTransfer":"1996-01-08T00:00:00","postcodeFull":"B8 1NH","propertyType":"Terraced","oldOrNew":"Established","duration":"Freehold","paon":"153","saon":"","street":"ALUM ROCK ROAD","locality":"BIRMINGHAM","townOrCity":"BIRMINGHAM","district":"BIRMINGHAM","county":"WEST MIDLANDS","ppdCategoryType":"Standard","recordStatus":"Addition","latitude":52.489455,"longitude":-1.853376,"postcodeStart":"B8 1","postcode":["B8","1NH"]}
{"price":20000,"dateOfTransfer":"1996-03-29T00:00:00","postcodeFull":"B8 1QS","propertyType":"Terraced","oldOrNew":"Established","duration":"Freehold","paon":"6","saon":"","street":"ARLEY ROAD","locality":"SALTLEY","townOrCity":"BIRMINGHAM","district":"BIRMINGHAM","county":"WEST MIDLANDS","ppdCategoryType":"Standard","recordStatus":"Addition","latitude":52.49338,"longitude":-1.857958,"postcodeStart":"B8 1","postcode":["B8","1QS"]}
{"price":32000,"dateOfTransfer":"1996-07-19T00:00:00","postcodeFull":"B8 1RE","propertyType":"Terraced","oldOrNew":"Established","duration":"Freehold","paon":"104","saon":"","street":"","locality":"BOLDMERE ROAD","townOrCity":"BIRMINGHAM","district":"BIRMINGHAM","county":"WEST MIDLANDS","ppdCategoryType":"Standard","recordStatus":"Addition","latitude":52.4943,"longitude":-1.855874,"postcodeStart":"B8 1","postcode":["B8","1RE"]}
{"price":22000,"dateOfTransfer":"1996-02-12T00:00:00","postcodeFull":"B8 1QP","propertyType":"Terraced","oldOrNew":"Established","duration":"Freehold","paon":"22","saon":"","street":"ARLEY ROAD","locality":"SALTLEY","townOrCity":"BIRMINGHAM","district":"BIRMINGHAM","county":"WEST MIDLANDS","ppdCategoryType":"Standard","recordStatus":"Addition","latitude":52.494188,"longitude":-1.856748,"postcodeStart":"B8 1","postcode":["B8","1QP"]}
{"price":29000,"dateOfTransfer":"1996-08-23T00:00:00","postcodeFull":"B8 1QJ","propertyType":"Terraced","oldOrNew":"Established","duration":"Freehold","paon":"75","saon":"","street":"BENNETTS ROAD","locality":"BIRMINGHAM","townOrCity":"BIRMINGHAM","district":"BIRMINGHAM","county":"WEST MIDLANDS","ppdCategoryType":"Standard","recordStatus":"Addition","latitude":52.496352,"longitude":-1.85459,"postcodeStart":"B8 1","postcode":["B8","1QJ"]}
{"price":45300,"dateOfTransfer":"1996-12-02T00:00:00","postcodeFull":"B8 1HB","propertyType":"Terraced","oldOrNew":"Established","duration":"Freehold","paon":"51","saon":"","street":"EDMUND ROAD","locality":"BIRMINGHAM","townOrCity":"BIRMINGHAM","district":"BIRMINGHAM","county":"WEST MIDLANDS","ppdCategoryType":"Standard","recordStatus":"Addition","latitude":52.486823,"longitude":-1.854695,"postcodeStart":"B8 1","postcode":["B8","1HB"]}
{"price":40000,"dateOfTransfer":"1996-09-13T00:00:00","postcodeFull":"B8 1NB","propertyType":"Terraced","oldOrNew":"Established","duration":"Freehold","paon":"120","saon":"","street":"RALPH ROAD","locality":"BIRMINGHAM","townOrCity":"BIRMINGHAM","district":"BIRMINGHAM","county":"WEST MIDLANDS","ppdCategoryType":"Standard","recordStatus":"Addition","latitude":52.488621,"longitude":-1.856324,"postcodeStart":"B8 1","postcode":["B8","1NB"]}
{"price":18100,"dateOfTransfer":"1996-12-31T00:00:00","postcodeFull":"B8 1PE","propertyType":"Terraced","oldOrNew":"New build","duration":"Freehold","paon":"142","saon":"","street":"WRIGHT ROAD","locality":"BIRMINGHAM","townOrCity":"BIRMINGHAM","district":"BIRMINGHAM","county":"WEST MIDLANDS","ppdCategoryType":"Standard","recordStatus":"Addition","latitude":52.493607,"longitude":-1.852449,"postcodeStart":"B8 1","postcode":["B8","1PE"]}
{"price":27000,"dateOfTransfer":"1996-03-22T00:00:00","postcodeFull":"B8 1PS","propertyType":"Terraced","oldOrNew":"Established","duration":"Freehold","paon":"50","saon":"","street":"PHILLIMORE ROAD","locality":"SALTLEY","townOrCity":"BIRMINGHAM","district":"BIRMINGHAM","county":"WEST MIDLANDS","ppdCategoryType":"Standard","recordStatus":"Addition","latitude":52.492172,"longitude":-1.855281,"postcodeStart":"B8 1","postcode":["B8","1PS"]}
{"price":32000,"dateOfTransfer":"1996-09-11T00:00:00","postcodeFull":"B8 1RY","propertyType":"Terraced","oldOrNew":"Established","duration":"Freehold","paon":"48","saon":"","street":"CRADOCK ROAD","locality":"SALTLEY","townOrCity":"BIRMINGHAM","district":"BIRMINGHAM","county":"WEST MIDLANDS","ppdCategoryType":"Standard","recordStatus":"Addition","latitude":52.491431,"longitude":-1.852103,"postcodeStart":"B8 1","postcode":["B8","1RY"]}
{"price":34000,"dateOfTransfer":"1996-05-16T00:00:00","postcodeFull":"B8 1RU","propertyType":"Terraced","oldOrNew":"Established","duration":"Freehold","paon":"108","saon":"","street":"HAVELOCK ROAD","locality":"SALTLEY","townOrCity":"BIRMINGHAM","district":"BIRMINGHAM","county":"WEST MIDLANDS","ppdCategoryType":"Standard","recordStatus":"Addition","latitude":52.490533,"longitude":-1.85296,"postcodeStart":"B8 1","postcode":["B8","1RU"]}
{"price":32000,"dateOfTransfer":"1996-10-24T00:00:00","postcodeFull":"B8 1QB","propertyType":"Terraced","oldOrNew":"Established","duration":"Freehold","paon":"7","saon":"","street":"CHARTIST ROAD","locality":"BIRMINGHAM","townOrCity":"BIRMINGHAM","district":"BIRMINGHAM","county":"WEST MIDLANDS","ppdCategoryType":"Standard","recordStatus":"Addition","latitude":52.497107,"longitude":-1.854337,"postcodeStart":"B8 1","postcode":["B8","1QB"]}
{"price":30000,"dateOfTransfer":"1996-11-22T00:00:00","postcodeFull":"B8 1RY","propertyType":"Terraced","oldOrNew":"Established","duration":"Freehold","paon":"70","saon":"","street":"CRADOCK ROAD","locality":"SALTLEY","townOrCity":"BIRMINGHAM","district":"BIRMINGHAM","county":"WEST MIDLANDS","ppdCategoryType":"Standard","recordStatus":"Addition","latitude":52.491431,"longitude":-1.852103,"postcodeStart":"B8 1","postcode":["B8","1RY"]}
{"price":30000,"dateOfTransfer":"1996-01-10T00:00:00","postcodeFull":"B8 1RE","propertyType":"Terraced","oldOrNew":"Established","duration":"Freehold","paon":"112","saon":"","street":"WASHWOOD HEATH ROAD","locality":"BIRMINGHAM","townOrCity":"BIRMINGHAM","district":"BIRMINGHAM","county":"WEST MIDLANDS","ppdCategoryType":"Standard","recordStatus":"Addition","latitude":52.4943,"longitude":-1.855874,"postcodeStart":"B8 1","postcode":["B8","1RE"]}
{"price":26000,"dateOfTransfer":"1996-01-12T00:00:00","postcodeFull":"B8 1DT","propertyType":"Terraced","oldOrNew":"Established","duration":"Freehold","paon":"64","saon":"","street":"HAMS ROAD","locality":"BIRMINGHAM","townOrCity":"BIRMINGHAM","district":"BIRMINGHAM","county":"WEST MIDLANDS","ppdCategoryType":"Standard","recordStatus":"Addition","latitude":52.485425,"longitude":-1.859,"postcodeStart":"B8 1","postcode":["B8","1DT"]}
{"price":45000,"dateOfTransfer":"1996-09-09T00:00:00","postcodeFull":"B8 1NQ","propertyType":"Terraced","oldOrNew":"Established","duration":"Freehold","paon":"126","saon":"","street":"ELLESMERE ROAD","locality":"BIRMINGHAM","townOrCity":"BIRMINGHAM","district":"BIRMINGHAM","county":"WEST MIDLANDS","ppdCategoryType":"Standard","recordStatus":"Addition","latitude":52.487354,"longitude":-1.855842,"postcodeStart":"B8 1","postcode":["B8","1NQ"]}
{"price":42100,"dateOfTransfer":"1996-02-09T00:00:00","postcodeFull":"B8 1EX","propertyType":"Terraced","oldOrNew":"Established","duration":"Freehold","paon":"27","saon":"","street":"BOWYER ROAD","locality":"SALTLEY","townOrCity":"BIRMINGHAM","district":"BIRMINGHAM","county":"WEST MIDLANDS","ppdCategoryType":"Standard","recordStatus":"Addition","latitude":52.487949,"longitude":-1.852507,"postcodeStart":"B8 1","postcode":["B8","1EX"]}
{"price":32000,"dateOfTransfer":"1996-08-23T00:00:00","postcodeFull":"B8 1NS","propertyType":"Terraced","oldOrNew":"Established","duration":"Freehold","paon":"107","saon":"","street":"WRIGHT ROAD","locality":"BIRMINGHAM","townOrCity":"BIRMINGHAM","district":"BIRMINGHAM","county":"WEST MIDLANDS","ppdCategoryType":"Standard","recordStatus":"Addition","latitude":52.491487,"longitude":-1.853192,"postcodeStart":"B8 1","postcode":["B8","1NS"]}
{"price":21000,"dateOfTransfer":"1996-07-12T00:00:00","postcodeFull":"B8 1SR","propertyType":"Terraced","oldOrNew":"Established","duration":"Freehold","paon":"15","saon":"","street":"MALTHOUSE LANE","locality":"WASHWOOD HEATH","townOrCity":"BIRMINGHAM","district":"BIRMINGHAM","county":"WEST MIDLANDS","ppdCategoryType":"Standard","recordStatus":"Addition","latitude":52.495142,"longitude":-1.850441,"postcodeStart":"B8 1","postcode":["B8","1SR"]}
{"price":27500,"dateOfTransfer":"1996-07-18T00:00:00","postcodeFull":"B8 1QR","propertyType":"Terraced","oldOrNew":"Established","duration":"Freehold","paon":"22","saon":"","street":"HUTTON ROAD","locality":"SALTLEY","townOrCity":"BIRMINGHAM","district":"BIRMINGHAM","county":"WEST MIDLANDS","ppdCategoryType":"Standard","recordStatus":"Addition","latitude":52.494026,"longitude":-1.856616,"postcodeStart":"B8 1","postcode":["B8","1QR"]}
{"price":49000,"dateOfTransfer":"1996-02-16T00:00:00","postcodeFull":"B8 1NB","propertyType":"Terraced","oldOrNew":"Established","duration":"Freehold","paon":"96","saon":"","street":"RALPH ROAD","locality":"BIRMINGHAM","townOrCity":"BIRMINGHAM","district":"BIRMINGHAM","county":"WEST MIDLANDS","ppdCategoryType":"Standard","recordStatus":"Addition","latitude":52.488621,"longitude":-1.856324,"postcodeStart":"B8 1","postcode":["B8","1NB"]}
{"price":15000,"dateOfTransfer":"1996-04-09T00:00:00","postcodeFull":"B8 1HA","propertyType":"Terraced","oldOrNew":"Established","duration":"Freehold","paon":"198","saon":"","street":"ST SAVIOURS ROAD","locality":"SALTLEY","townOrCity":"BIRMINGHAM","district":"BIRMINGHAM","county":"WEST MIDLANDS","ppdCategoryType":"Standard","recordStatus":"Addition","latitude":52.485681,"longitude":-1.855185,"postcodeStart":"B8 1","postcode":["B8","1HA"]}
{"price":27000,"dateOfTransfer":"1996-07-25T00:00:00","postcodeFull":"B8 1TE","propertyType":"Terraced","oldOrNew":"Established","duration":"Freehold","paon":"20","saon":"","street":"","locality":"FOXGROVE ROAD","townOrCity":"BIRMINGHAM","district":"BIRMINGHAM","county":"WEST MIDLANDS","ppdCategoryType":"Standard","recordStatus":"Addition","latitude":52.486415,"longitude":-1.852502,"postcodeStart":"B8 1","postcode":["B8","1TE"]}
{"price":33000,"dateOfTransfer":"1996-03-25T00:00:00","postcodeFull":"B8 1NS","propertyType":"Terraced","oldOrNew":"Established","duration":"Freehold","paon":"43","saon":"","street":"WRIGHT ROAD","locality":"BIRMINGHAM","townOrCity":"BIRMINGHAM","district":"BIRMINGHAM","county":"WEST MIDLANDS","ppdCategoryType":"Standard","recordStatus":"Addition","latitude":52.491487,"longitude":-1.853192,"postcodeStart":"B8 1","postcode":["B8","1NS"]}
{"price":39500,"dateOfTransfer":"1996-03-20T00:00:00","postcodeFull":"B8 1ES","propertyType":"Terraced","oldOrNew":"Established","duration":"Freehold","paon":"116","saon":"","street":"BOWYER ROAD","locality":"SALTLEY","townOrCity":"BIRMINGHAM","district":"BIRMINGHAM","county":"WEST MIDLANDS","ppdCategoryType":"Standard","recordStatus":"Addition","latitude":52.486201,"longitude":-1.853696,"postcodeStart":"B8 1","postcode":["B8","1ES"]}
{"price":20000,"dateOfTransfer":"1996-09-27T00:00:00","postcodeFull":"B8 1PD","propertyType":"Terraced","oldOrNew":"Established","duration":"Freehold","paon":"198","saon":"","street":"WRIGHT ROAD","locality":"BIRMINGHAM","townOrCity":"BIRMINGHAM","district":"BIRMINGHAM","county":"WEST MIDLANDS","ppdCategoryType":"Standard","recordStatus":"Addition","latitude":52.494865,"longitude":-1.852047,"postcodeStart":"B8 1","postcode":["B8","1PD"]}
{"price":27000,"dateOfTransfer":"1996-03-08T00:00:00","postcodeFull":"B8 1QR","propertyType":"Terraced","oldOrNew":"Established","duration":"Freehold","paon":"24","saon":"","street":"HUTTON ROAD","locality":"SALTLEY","townOrCity":"BIRMINGHAM","district":"BIRMINGHAM","county":"WEST MIDLANDS","ppdCategoryType":"Standard","recordStatus":"Addition","latitude":52.494026,"longitude":-1.856616,"postcodeStart":"B8 1","postcode":["B8","1QR"]}
{"price":47000,"dateOfTransfer":"1996-11-20T00:00:00","postcodeFull":"B8 1HB","propertyType":"Terraced","oldOrNew":"Established","duration":"Freehold","paon":"3","saon":"","street":"EDMUND ROAD","locality":"BIRMINGHAM","townOrCity":"BIRMINGHAM","district":"BIRMINGHAM","county":"WEST MIDLANDS","ppdCategoryType":"Standard","recordStatus":"Addition","latitude":52.486823,"longitude":-1.854695,"postcodeStart":"B8 1","postcode":["B8","1HB"]}
{"price":29000,"dateOfTransfer":"1996-09-27T00:00:00","postcodeFull":"B8 1QJ","propertyType":"Terraced","oldOrNew":"Established","duration":"Leasehold","paon":"55","saon":"","street":"BENNETTS ROAD","locality":"BIRMINGHAM","townOrCity":"BIRMINGHAM","district":"BIRMINGHAM","county":"WEST MIDLANDS","ppdCategoryType":"Standard","recordStatus":"Addition","latitude":52.496352,"longitude":-1.85459,"postcodeStart":"B8 1","postcode":["B8","1QJ"]}
{"price":29800,"dateOfTransfer":"1997-09-04T00:00:00","postcodeFull":"B8 1QJ","propertyType":"Terraced","oldOrNew":"Established","duration":"Freehold","paon":"73","saon":"","street":"BENNETTS ROAD","locality":"BIRMINGHAM","townOrCity":"BIRMINGHAM","district":"BIRMINGHAM","county":"WEST MIDLANDS","ppdCategoryType":"Standard","recordStatus":"Addition","latitude":52.496352,"longitude":-1.85459,"postcodeStart":"B8 1","postcode":["B8","1QJ"]}
{"price":35000,"dateOfTransfer":"1997-12-19T00:00:00","postcodeFull":"B8 1RJ","propertyType":"Terraced","oldOrNew":"Established","duration":"Freehold","paon":"260","saon":"","street":"WASHWOOD HEATH ROAD","locality":"BIRMINGHAM","townOrCity":"BIRMINGHAM","district":"BIRMINGHAM","county":"WEST MIDLANDS","ppdCategoryType":"Standard","recordStatus":"Addition","latitude":52.496249,"longitude":-1.851203,"postcodeStart":"B8 1","postcode":["B8","1RJ"]}
{"price":23000,"dateOfTransfer":"1997-01-10T00:00:00","postcodeFull":"B8 1QJ","propertyType":"Terraced","oldOrNew":"Established","duration":"Freehold","paon":"105","saon":"","street":"BENNETTS ROAD","locality":"BIRMINGHAM","townOrCity":"BIRMINGHAM","district":"BIRMINGHAM","county":"WEST MIDLANDS","ppdCategoryType":"Standard","recordStatus":"Addition","latitude":52.496352,"longitude":-1.85459,"postcodeStart":"B8 1","postcode":["B8","1QJ"]}
{"price":20000,"dateOfTransfer":"1997-11-28T00:00:00","postcodeFull":"B8 1PR","propertyType":"Terraced","oldOrNew":"Established","duration":"Freehold","paon":"23","saon":"","street":"PHILLIMORE ROAD","locality":"SALTLEY","townOrCity":"BIRMINGHAM","district":"BIRMINGHAM","county":"WEST MIDLANDS","ppdCategoryType":"Standard","recordStatus":"Addition","latitude":52.491928,"longitude":-1.85431,"postcodeStart":"B8 1","postcode":["B8","1PR"]}
{"price":30000,"dateOfTransfer":"1997-11-14T00:00:00","postcodeFull":"B8 1PE","propertyType":"Terraced","oldOrNew":"Established","duration":"Leasehold","paon":"132","saon":"","street":"WRIGHT ROAD","locality":"BIRMINGHAM","townOrCity":"BIRMINGHAM","district":"BIRMINGHAM","county":"WEST MIDLANDS","ppdCategoryType":"Standard","recordStatus":"Addition","latitude":52.493607,"longitude":-1.852449,"postcodeStart":"B8 1","postcode":["B8","1PE"]}
{"price":33000,"dateOfTransfer":"1997-06-16T00:00:00","postcodeFull":"B8 1LU","propertyType":"Terraced","oldOrNew":"Established","duration":"Freehold","paon":"122","saon":"","street":"REGINALD ROAD","locality":"SALTLEY","townOrCity":"BIRMINGHAM","district":"BIRMINGHAM","county":"WEST MIDLANDS","ppdCategoryType":"Standard","recordStatus":"Addition","latitude":52.488445,"longitude":-1.858504,"postcodeStart":"B8 1","postcode":["B8","1LU"]}
{"price":21000,"dateOfTransfer":"1997-05-22T00:00:00","postcodeFull":"B8 1NS","propertyType":"Terraced","oldOrNew":"Established","duration":"Freehold","paon":"55","saon":"","street":"WRIGHT ROAD","locality":"BIRMINGHAM","townOrCity":"BIRMINGHAM","district":"BIRMINGHAM","county":"WEST MIDLANDS","ppdCategoryType":"Standard","recordStatus":"Addition","latitude":52.491487,"longitude":-1.853192,"postcodeStart":"B8 1","postcode":["B8","1NS"]}
{"price":36000,"dateOfTransfer":"1997-12-16T00:00:00","postcodeFull":"B8 1NS","propertyType":"Terraced","oldOrNew":"Established","duration":"Freehold","paon":"93","saon":"","street":"WRIGHT ROAD","locality":"BIRMINGHAM","townOrCity":"BIRMINGHAM","district":"BIRMINGHAM","county":"WEST MIDLANDS","ppdCategoryType":"Standard","recordStatus":"Addition","latitude":52.491487,"longitude":-1.853192,"postcodeStart":"B8 1","postcode":["B8","1NS"]}
{"price":47000,"dateOfTransfer":"1997-01-17T00:00:00","postcodeFull":"B8 1ET","propertyType":"Terraced","oldOrNew":"Established","duration":"Freehold","paon":"18","saon":"","street":"BOWYER ROAD","locality":"SALTLEY","townOrCity":"BIRMINGHAM","district":"BIRMINGHAM","county":"WEST MIDLANDS","ppdCategoryType":"Standard","recordStatus":"Addition","latitude":52.48771,"longitude":-1.852203,"postcodeStart":"B8 1","postcode":["B8","1ET"]}
{"price":37000,"dateOfTransfer":"1997-03-03T00:00:00","postcodeFull":"B8 1NE","propertyType":"Semi-detached","oldOrNew":"Established","duration":"Freehold","paon":"37","saon":"","street":"ELLESMERE ROAD","locality":"BIRMINGHAM","townOrCity":"BIRMINGHAM","district":"BIRMINGHAM","county":"WEST MIDLANDS","ppdCategoryType":"Standard","recordStatus":"Addition","latitude":52.488833,"longitude":-1.854964,"postcodeStart":"B8 1","postcode":["B8","1NE"]}
{"price":31500,"dateOfTransfer":"1997-11-26T00:00:00","postcodeFull":"B8 1SX","propertyType":"Terraced","oldOrNew":"Established","duration":"Freehold","paon":"27","saon":"","street":"TEALL ROAD","locality":"BIRMINGHAM","townOrCity":"BIRMINGHAM","district":"BIRMINGHAM","county":"WEST MIDLANDS","ppdCategoryType":"Standard","recordStatus":"Addition","latitude":52.492761,"longitude":-1.8512,"postcodeStart":"B8 1","postcode":["B8","1SX"]}
{"price":82000,"dateOfTransfer":"1997-11-07T00:00:00","postcodeFull":"B8 1LS","propertyType":"Detached","oldOrNew":"New build","duration":"Freehold","paon":"1","saon":"","street":"REGINALD ROAD","locality":"SALTLEY","townOrCity":"BIRMINGHAM","district":"BIRMINGHAM","county":"WEST MIDLANDS","ppdCategoryType":"Standard","recordStatus":"Addition","latitude":52.489479,"longitude":-1.857956,"postcodeStart":"B8 1","postcode":["B8","1LS"]}
{"price":37000,"dateOfTransfer":"1997-09-12T00:00:00","postcodeFull":"B8 1NT","propertyType":"Terraced","oldOrNew":"Established","duration":"Freehold","paon":"63","saon":"","street":"HERRICK ROAD","locality":"SALTLEY","townOrCity":"BIRMINGHAM","district":"BIRMINGHAM","county":"WEST MIDLANDS","ppdCategoryType":"Standard","recordStatus":"Addition","latitude":52.492249,"longitude":-1.851688,"postcodeStart":"B8 1","postcode":["B8","1NT"]}
{"price":44000,"dateOfTransfer":"1997-08-20T00:00:00","postcodeFull":"B8 1NE","propertyType":"Terraced","oldOrNew":"Established","duration":"Freehold","paon":"53","saon":"","street":"ELLESMERE ROAD","locality":"BIRMINGHAM","townOrCity":"BIRMINGHAM","district":"BIRMINGHAM","county":"WEST MIDLANDS","ppdCategoryType":"Standard","recordStatus":"Addition","latitude":52.488833,"longitude":-1.854964,"postcodeStart":"B8 1","postcode":["B8","1NE"]}
{"price":46800,"dateOfTransfer":"1997-10-03T00:00:00","postcodeFull":"B8 1EJ","propertyType":"Semi-detached","oldOrNew":"Established","duration":"Freehold","paon":"5","saon":"","street":"LANCELOT CLOSE","locality":"BIRMINGHAM","townOrCity":"BIRMINGHAM","district":"BIRMINGHAM","county":"WEST MIDLANDS","ppdCategoryType":"Standard","recordStatus":"Addition","latitude":52.485419,"longitude":-1.853949,"postcodeStart":"B8 1","postcode":["B8","1EJ"]}
{"price":27000,"dateOfTransfer":"1997-12-23T00:00:00","postcodeFull":"B8 1QD","propertyType":"Terraced","oldOrNew":"Established","duration":"Freehold","paon":"36","saon":"","street":"CHARTIST ROAD","locality":"BIRMINGHAM","townOrCity":"BIRMINGHAM","district":"BIRMINGHAM","county":"WEST MIDLANDS","ppdCategoryType":"Standard","recordStatus":"Addition","latitude":52.496819,"longitude":-1.854279,"postcodeStart":"B8 1","postcode":["B8","1QD"]}
{"price":29000,"dateOfTransfer":"1997-04-18T00:00:00","postcodeFull":"B8 1PS","propertyType":"Terraced","oldOrNew":"Established","duration":"Freehold","paon":"73","saon":"","street":"PHILLIMORE ROAD","locality":"SALTLEY","townOrCity":"BIRMINGHAM","district":"BIRMINGHAM","county":"WEST MIDLANDS","ppdCategoryType":"Standard","recordStatus":"Addition","latitude":52.492172,"longitude":-1.855281,"postcodeStart":"B8 1","postcode":["B8","1PS"]}
{"price":31600,"dateOfTransfer":"1997-05-16T00:00:00","postcodeFull":"B8 1NS","propertyType":"Terraced","oldOrNew":"Established","duration":"Freehold","paon":"67","saon":"","street":"WRIGHT ROAD","locality":"BIRMINGHAM","townOrCity":"BIRMINGHAM","district":"BIRMINGHAM","county":"WEST MIDLANDS","ppdCategoryType":"Standard","recordStatus":"Addition","latitude":52.491487,"longitude":-1.853192,"postcodeStart":"B8 1","postcode":["B8","1NS"]}
{"price":71500,"dateOfTransfer":"1997-08-11T00:00:00","postcodeFull":"B8 1SP","propertyType":"Detached","oldOrNew":"Established","duration":"Freehold","paon":"42","saon":"","street":"MALTHOUSE LANE","locality":"WASHWOOD HEATH","townOrCity":"BIRMINGHAM","district":"BIRMINGHAM","county":"WEST MIDLANDS","ppdCategoryType":"Standard","recordStatus":"Addition","latitude":52.495483,"longitude":-1.84988,"postcodeStart":"B8 1","postcode":["B8","1SP"]}
{"price":35000,"dateOfTransfer":"1997-11-19T00:00:00","postcodeFull":"B8 1NF","propertyType":"Terraced","oldOrNew":"Established","duration":"Freehold","paon":"73","saon":"","street":"ELLESMERE ROAD","locality":"BIRMINGHAM","townOrCity":"BIRMINGHAM","district":"BIRMINGHAM","county":"WEST MIDLANDS","ppdCategoryType":"Standard","recordStatus":"Addition","latitude":52.487526,"longitude":-1.856136,"postcodeStart":"B8 1","postcode":["B8","1NF"]}
{"price":16000,"dateOfTransfer":"1997-10-10T00:00:00","postcodeFull":"B8 1NR","propertyType":"Terraced","oldOrNew":"Established","duration":"Freehold","paon":"6","saon":"","street":"WRIGHT ROAD","locality":"BIRMINGHAM","townOrCity":"BIRMINGHAM","district":"BIRMINGHAM","county":"WEST MIDLANDS","ppdCategoryType":"Standard","recordStatus":"Addition","latitude":52.490489,"longitude":-1.85377,"postcodeStart":"B8 1","postcode":["B8","1NR"]}
{"price":40000,"dateOfTransfer":"1997-03-04T00:00:00","postcodeFull":"B8 1EX","propertyType":"Terraced","oldOrNew":"Established","duration":"Freehold","paon":"65","saon":"","street":"BOWYER ROAD","locality":"SALTLEY","townOrCity":"BIRMINGHAM","district":"BIRMINGHAM","county":"WEST MIDLANDS","ppdCategoryType":"Standard","recordStatus":"Addition","latitude":52.487949,"longitude":-1.852507,"postcodeStart":"B8 1","postcode":["B8","1EX"]}
{"price":38000,"dateOfTransfer":"1997-09-24T00:00:00","postcodeFull":"B8 1NB","propertyType":"Terraced","oldOrNew":"Established","duration":"Freehold","paon":"42","saon":"","street":"RALPH ROAD","locality":"BIRMINGHAM","townOrCity":"BIRMINGHAM","district":"BIRMINGHAM","county":"WEST MIDLANDS","ppdCategoryType":"Standard","recordStatus":"Addition","latitude":52.488621,"longitude":-1.856324,"postcodeStart":"B8 1","postcode":["B8","1NB"]}
{"price":45000,"dateOfTransfer":"1997-03-20T00:00:00","postcodeFull":"B8 1HD","propertyType":"Terraced","oldOrNew":"Established","duration":"Freehold","paon":"91","saon":"","street":"EDMUND ROAD","locality":"BIRMINGHAM","townOrCity":"BIRMINGHAM","district":"BIRMINGHAM","county":"WEST MIDLANDS","ppdCategoryType":"Standard","recordStatus":"Addition","latitude":52.488232,"longitude":-1.85338,"postcodeStart":"B8 1","postcode":["B8","1HD"]}
{"price":29500,"dateOfTransfer":"1997-11-21T00:00:00","postcodeFull":"B8 1QB","propertyType":"Terraced","oldOrNew":"Established","duration":"Leasehold","paon":"35","saon":"","street":"CHARTIST ROAD","locality":"BIRMINGHAM","townOrCity":"BIRMINGHAM","district":"BIRMINGHAM","county":"WEST MIDLANDS","ppdCategoryType":"Standard","recordStatus":"Addition","latitude":52.497107,"longitude":-1.854337,"postcodeStart":"B8 1","postcode":["B8","1QB"]}
{"price":49000,"dateOfTransfer":"1997-06-18T00:00:00","postcodeFull":"B8 1NB","propertyType":"Terraced","oldOrNew":"Established","duration":"Freehold","paon":"98","saon":"","street":"RALPH ROAD","locality":"BIRMINGHAM","townOrCity":"BIRMINGHAM","district":"BIRMINGHAM","county":"WEST MIDLANDS","ppdCategoryType":"Standard","recordStatus":"Addition","latitude":52.488621,"longitude":-1.856324,"postcodeStart":"B8 1","postcode":["B8","1NB"]}
{"price":21500,"dateOfTransfer":"1997-02-25T00:00:00","postcodeFull":"B8 1QH","propertyType":"Terraced","oldOrNew":"Established","duration":"Freehold","paon":"10","saon":"","street":"BENNETTS ROAD","locality":"BIRMINGHAM","townOrCity":"BIRMINGHAM","district":"BIRMINGHAM","county":"WEST MIDLANDS","ppdCategoryType":"Standard","recordStatus":"Addition","latitude":52.496181,"longitude":-1.855003,"postcodeStart":"B8 1","postcode":["B8","1QH"]}
{"price":18025,"dateOfTransfer":"1997-05-28T00:00:00","postcodeFull":"B8 1SR","propertyType":"Terraced","oldOrNew":"Established","duration":"Freehold","paon":"53","saon":"","street":"MALTHOUSE LANE","locality":"WASHWOOD HEATH","townOrCity":"BIRMINGHAM","district":"BIRMINGHAM","county":"WEST MIDLANDS","ppdCategoryType":"Standard","recordStatus":"Addition","latitude":52.495142,"longitude":-1.850441,"postcodeStart":"B8 1","postcode":["B8","1SR"]}
{"price":34500,"dateOfTransfer":"1997-01-31T00:00:00","postcodeFull":"B8 1LW","propertyType":"Terraced","oldOrNew":"Established","duration":"Freehold","paon":"68","saon":"","street":"GEORGE ARTHUR ROAD","locality":"SALTLEY","townOrCity":"BIRMINGHAM","district":"BIRMINGHAM","county":"WEST MIDLANDS","ppdCategoryType":"Standard","recordStatus":"Addition","latitude":52.489696,"longitude":-1.859104,"postcodeStart":"B8 1","postcode":["B8","1LW"]}
{"price":22220,"dateOfTransfer":"1997-03-10T00:00:00","postcodeFull":"B8 1PN","propertyType":"Semi-detached","oldOrNew":"Established","duration":"Freehold","paon":"2","saon":"","street":"HUTTON AVENUE","locality":"BIRMINGHAM","townOrCity":"BIRMINGHAM","district":"BIRMINGHAM","county":"WEST MIDLANDS","ppdCategoryType":"Standard","recordStatus":"Addition","latitude":52.493098,"longitude":-1.855175,"postcodeStart":"B8 1","postcode":["B8","1PN"]}
{"price":40000,"dateOfTransfer":"1997-07-25T00:00:00","postcodeFull":"B8 1EX","propertyType":"Terraced","oldOrNew":"Established","duration":"Freehold","paon":"77","saon":"","street":"BOWYER ROAD","locality":"SALTLEY","townOrCity":"BIRMINGHAM","district":"BIRMINGHAM","county":"WEST MIDLANDS","ppdCategoryType":"Standard","recordStatus":"Addition","latitude":52.487949,"longitude":-1.852507,"postcodeStart":"B8 1","postcode":["B8","1EX"]}
{"price":30000,"dateOfTransfer":"1997-12-02T00:00:00","postcodeFull":"B8 1LS","propertyType":"Terraced","oldOrNew":"Established","duration":"Freehold","paon":"87","saon":"","street":"REGINALD ROAD","locality":"SALTLEY","townOrCity":"BIRMINGHAM","district":"BIRMINGHAM","county":"WEST MIDLANDS","ppdCategoryType":"Standard","recordStatus":"Addition","latitude":52.489479,"longitude":-1.857956,"postcodeStart":"B8 1","postcode":["B8","1LS"]}
{"price":30500,"dateOfTransfer":"1997-11-21T00:00:00","postcodeFull":"B8 1PS","propertyType":"Terraced","oldOrNew":"Established","duration":"Freehold","paon":"63","saon":"","street":"PHILLIMORE ROAD","locality":"SALTLEY","townOrCity":"BIRMINGHAM","district":"BIRMINGHAM","county":"WEST MIDLANDS","ppdCategoryType":"Standard","recordStatus":"Addition","latitude":52.492172,"longitude":-1.855281,"postcodeStart":"B8 1","postcode":["B8","1PS"]}
{"price":25000,"dateOfTransfer":"1997-05-09T00:00:00","postcodeFull":"B8 1NT","propertyType":"Terraced","oldOrNew":"Established","duration":"Freehold","paon":"2","saon":"","street":"HERRICK ROAD","locality":"SALTLEY","townOrCity":"BIRMINGHAM","district":"BIRMINGHAM","county":"WEST MIDLANDS","ppdCategoryType":"Standard","recordStatus":"Addition","latitude":52.492249,"longitude":-1.851688,"postcodeStart":"B8 1","postcode":["B8","1NT"]}
{"price":28500,"dateOfTransfer":"1997-08-14T00:00:00","postcodeFull":"B8 1NT","propertyType":"Terraced","oldOrNew":"Established","duration":"Freehold","paon":"61","saon":"","street":"HERRICK ROAD","locality":"SALTLEY","townOrCity":"BIRMINGHAM","district":"BIRMINGHAM","county":"WEST MIDLANDS","ppdCategoryType":"Standard","recordStatus":"Addition","latitude":52.492249,"longitude":-1.851688,"postcodeStart":"B8 1","postcode":["B8","1NT"]}
{"price":40000,"dateOfTransfer":"1997-07-04T00:00:00","postcodeFull":"B8 1HE","propertyType":"Terraced","oldOrNew":"Established","duration":"Freehold","paon":"116","saon":"","street":"EDMUND ROAD","locality":"BIRMINGHAM","townOrCity":"BIRMINGHAM","district":"BIRMINGHAM","county":"WEST MIDLANDS","ppdCategoryType":"Standard","recordStatus":"Addition","latitude":52.488359,"longitude":-1.853821,"postcodeStart":"B8 1","postcode":["B8","1HE"]}
{"price":27500,"dateOfTransfer":"1997-09-02T00:00:00","postcodeFull":"B8 1HN","propertyType":"Terraced","oldOrNew":"Established","duration":"Freehold","paon":"115","saon":"","street":"ST SAVIOURS ROAD","locality":"SALTLEY","townOrCity":"BIRMINGHAM","district":"BIRMINGHAM","county":"WEST MIDLANDS","ppdCategoryType":"Standard","recordStatus":"Addition","latitude":52.488096,"longitude":-1.859801,"postcodeStart":"B8 1","postcode":["B8","1HN"]}
{"price":40000,"dateOfTransfer":"1997-03-14T00:00:00","postcodeFull":"B8 1EY","propertyType":"Terraced","oldOrNew":"Established","duration":"Freehold","paon":"85","saon":"","street":"BOWYER ROAD","locality":"SALTLEY","townOrCity":"BIRMINGHAM","district":"BIRMINGHAM","county":"WEST MIDLANDS","ppdCategoryType":"Standard","recordStatus":"Addition","latitude":52.486408,"longitude":-1.854004,"postcodeStart":"B8 1","postcode":["B8","1EY"]}
{"price":32000,"dateOfTransfer":"1997-12-12T00:00:00","postcodeFull":"B8 1NQ","propertyType":"Terraced","oldOrNew":"Established","duration":"Freehold","paon":"136","saon":"","street":"ELLESMERE ROAD","locality":"BIRMINGHAM","townOrCity":"BIRMINGHAM","district":"BIRMINGHAM","county":"WEST MIDLANDS","ppdCategoryType":"Standard","recordStatus":"Addition","latitude":52.487354,"longitude":-1.855842,"postcodeStart":"B8 1","postcode":["B8","1NQ"]}
{"price":36000,"dateOfTransfer":"1997-07-11T00:00:00","postcodeFull":"B8 1NY","propertyType":"Terraced","oldOrNew":"Established","duration":"Freehold","paon":"199","saon":"","street":"WRIGHT ROAD","locality":"BIRMINGHAM","townOrCity":"BIRMINGHAM","district":"BIRMINGHAM","county":"WEST MIDLANDS","ppdCategoryType":"Standard","recordStatus":"Addition","latitude":52.494361,"longitude":-1.851725,"postcodeStart":"B8 1","postcode":["B8","1NY"]}
{"price":48000,"dateOfTransfer":"1997-09-10T00:00:00","postcodeFull":"B8 1NE","propertyType":"Terraced","oldOrNew":"Established","duration":"Freehold","paon":"51","saon":"","street":"ELLESMERE ROAD","locality":"BIRMINGHAM","townOrCity":"BIRMINGHAM","district":"BIRMINGHAM","county":"WEST MIDLANDS","ppdCategoryType":"Standard","recordStatus":"Addition","latitude":52.488833,"longitude":-1.854964,"postcodeStart":"B8 1","postcode":["B8","1NE"]}
{"price":33600,"dateOfTransfer":"1997-05-30T00:00:00","postcodeFull":"B8 1QN","propertyType":"Semi-detached","oldOrNew":"Established","duration":"Freehold","paon":"1B","saon":"","street":"MEMBURY ROAD","locality":"BIRMINGHAM","townOrCity":"BIRMINGHAM","district":"BIRMINGHAM","county":"WEST MIDLANDS","ppdCategoryType":"Standard","recordStatus":"Addition","latitude":52.495355,"longitude":-1.855787,"postcodeStart":"B8 1","postcode":["B8","1QN"]}
{"price":23000,"dateOfTransfer":"1997-11-21T00:00:00","postcodeFull":"B8 1PT","propertyType":"Terraced","oldOrNew":"Established","duration":"Freehold","paon":"88","saon":"","street":"PHILLIMORE ROAD","locality":"SALTLEY","townOrCity":"BIRMINGHAM","district":"BIRMINGHAM","county":"WEST MIDLANDS","ppdCategoryType":"Standard","recordStatus":"Addition","latitude":52.492434,"longitude":-1.856415,"postcodeStart":"B8 1","postcode":["B8","1PT"]}
{"price":30600,"dateOfTransfer":"1997-03-14T00:00:00","postcodeFull":"B8 1PA","propertyType":"Terraced","oldOrNew":"Established","duration":"Freehold","paon":"18","saon":"","street":"NIGEL ROAD","locality":"BIRMINGHAM","townOrCity":"BIRMINGHAM","district":"BIRMINGHAM","county":"WEST MIDLANDS","ppdCategoryType":"Standard","recordStatus":"Addition","latitude":52.494783,"longitude":-1.851119,"postcodeStart":"B8 1","postcode":["B8","1PA"]}
{"price":25000,"dateOfTransfer":"1997-04-18T00:00:00","postcodeFull":"B8 1QH","propertyType":"Terraced","oldOrNew":"Established","duration":"Freehold","paon":"20","saon":"","street":"BENNETTS ROAD","locality":"BIRMINGHAM","townOrCity":"BIRMINGHAM","district":"BIRMINGHAM","county":"WEST MIDLANDS","ppdCategoryType":"Standard","recordStatus":"Addition","latitude":52.496181,"longitude":-1.855003,"postcodeStart":"B8 1","postcode":["B8","1QH"]}
{"price":28000,"dateOfTransfer":"1997-08-01T00:00:00","postcodeFull":"B8 1LW","propertyType":"Terraced","oldOrNew":"Established","duration":"Freehold","paon":"98","saon":"","street":"GEORGE ARTHUR ROAD","locality":"SALTLEY","townOrCity":"BIRMINGHAM","district":"BIRMINGHAM","county":"WEST MIDLANDS","ppdCategoryType":"Standard","recordStatus":"Addition","latitude":52.489696,"longitude":-1.859104,"postcodeStart":"B8 1","postcode":["B8","1LW"]}
{"price":30000,"dateOfTransfer":"1997-12-23T00:00:00","postcodeFull":"B8 1RW","propertyType":"Semi-detached","oldOrNew":"Established","duration":"Freehold","paon":"143","saon":"","street":"WASHWOOD HEATH ROAD","locality":"BIRMINGHAM","townOrCity":"BIRMINGHAM","district":"BIRMINGHAM","county":"WEST MIDLANDS","ppdCategoryType":"Standard","recordStatus":"Addition","latitude":52.49467,"longitude":-1.854139,"postcodeStart":"B8 1","postcode":["B8","1RW"]}
{"price":25920,"dateOfTransfer":"1997-11-21T00:00:00","postcodeFull":"B8 1HJ","propertyType":"Terraced","oldOrNew":"Established","duration":"Freehold","paon":"66","saon":"","street":"ST SAVIOURS ROAD","locality":"SALTLEY","townOrCity":"BIRMINGHAM","district":"BIRMINGHAM","county":"WEST MIDLANDS","ppdCategoryType":"Standard","recordStatus":"Addition","latitude":52.488339,"longitude":-1.859506,"postcodeStart":"B8 1","postcode":["B8","1HJ"]}
{"price":29500,"dateOfTransfer":"1997-04-11T00:00:00","postcodeFull":"B8 1QJ","propertyType":"Terraced","oldOrNew":"Established","duration":"Freehold","paon":"53","saon":"","street":"BENNETTS ROAD","locality":"BIRMINGHAM","townOrCity":"BIRMINGHAM","district":"BIRMINGHAM","county":"WEST MIDLANDS","ppdCategoryType":"Standard","recordStatus":"Addition","latitude":52.496352,"longitude":-1.85459,"postcodeStart":"B8 1","postcode":["B8","1QJ"]}
{"price":34000,"dateOfTransfer":"1997-10-17T00:00:00","postcodeFull":"B8 1DP","propertyType":"Terraced","oldOrNew":"Established","duration":"Freehold","paon":"93","saon":"","street":"ASH ROAD","locality":"BIRMINGHAM","townOrCity":"BIRMINGHAM","district":"BIRMINGHAM","county":"WEST MIDLANDS","ppdCategoryType":"Standard","recordStatus":"Addition","latitude":52.486181,"longitude":-1.8591,"postcodeStart":"B8 1","postcode":["B8","1DP"]}
{"price":26700,"dateOfTransfer":"1997-07-01T00:00:00","postcodeFull":"B8 1NS","propertyType":"Terraced","oldOrNew":"Established","duration":"Freehold","paon":"55","saon":"","street":"WRIGHT ROAD","locality":"BIRMINGHAM","townOrCity":"BIRMINGHAM","district":"BIRMINGHAM","county":"WEST MIDLANDS","ppdCategoryType":"Standard","recordStatus":"Addition","latitude":52.491487,"longitude":-1.853192,"postcodeStart":"B8 1","postcode":["B8","1NS"]}
{"price":36000,"dateOfTransfer":"1997-07-31T00:00:00","postcodeFull":"B8 1LN","propertyType":"Terraced","oldOrNew":"Established","duration":"Freehold","paon":"87","saon":"","street":"GEORGE ARTHUR ROAD","locality":"SALTLEY","townOrCity":"BIRMINGHAM","district":"BIRMINGHAM","county":"WEST MIDLANDS","ppdCategoryType":"Standard","recordStatus":"Addition","latitude":52.489984,"longitude":-1.859265,"postcodeStart":"B8 1","postcode":["B8","1LN"]}
{"price":21000,"dateOfTransfer":"1997-07-31T00:00:00","postcodeFull":"B8 1PS","propertyType":"Terraced","oldOrNew":"Established","duration":"Freehold","paon":"58","saon":"","street":"PHILLIMORE ROAD","locality":"SALTLEY","townOrCity":"BIRMINGHAM","district":"BIRMINGHAM","county":"WEST MIDLANDS","ppdCategoryType":"Standard","recordStatus":"Addition","latitude":52.492172,"longitude":-1.855281,"postcodeStart":"B8 1","postcode":["B8","1PS"]}
{"price":29500,"dateOfTransfer":"1997-03-27T00:00:00","postcodeFull":"B8 1DT","propertyType":"Terraced","oldOrNew":"Established","duration":"Freehold","paon":"58","saon":"","street":"HAMS ROAD","locality":"BIRMINGHAM","townOrCity":"BIRMINGHAM","district":"BIRMINGHAM","county":"WEST MIDLANDS","ppdCategoryType":"Standard","recordStatus":"Addition","latitude":52.485425,"longitude":-1.859,"postcodeStart":"B8 1","postcode":["B8","1DT"]}
{"price":31500,"dateOfTransfer":"1997-08-29T00:00:00","postcodeFull":"B8 1QB","propertyType":"Terraced","oldOrNew":"Established","duration":"Freehold","paon":"47","saon":"","street":"CHARTIST ROAD","locality":"BIRMINGHAM","townOrCity":"BIRMINGHAM","district":"BIRMINGHAM","county":"WEST MIDLANDS","ppdCategoryType":"Standard","recordStatus":"Addition","latitude":52.497107,"longitude":-1.854337,"postcodeStart":"B8 1","postcode":["B8","1QB"]}
{"price":51000,"dateOfTransfer":"1997-12-23T00:00:00","postcodeFull":"B8 1NB","propertyType":"Terraced","oldOrNew":"Established","duration":"Freehold","paon":"120","saon":"","street":"RALPH ROAD","locality":"BIRMINGHAM","townOrCity":"BIRMINGHAM","district":"BIRMINGHAM","county":"WEST MIDLANDS","ppdCategoryType":"Standard","recordStatus":"Addition","latitude":52.488621,"longitude":-1.856324,"postcodeStart":"B8 1","postcode":["B8","1NB"]}
{"price":35000,"dateOfTransfer":"1997-07-28T00:00:00","postcodeFull":"B8 1DF","propertyType":"Terraced","oldOrNew":"Established","duration":"Freehold","paon":"224","saon":"","street":"ARDEN ROAD","locality":"SALTLEY","townOrCity":"BIRMINGHAM","district":"BIRMINGHAM","county":"WEST MIDLANDS","ppdCategoryType":"Standard","recordStatus":"Addition","latitude":52.485188,"longitude":-1.855996,"postcodeStart":"B8 1","postcode":["B8","1DF"]}
{"price":29000,"dateOfTransfer":"1997-06-20T00:00:00","postcodeFull":"B8 1QD","propertyType":"Terraced","oldOrNew":"Established","duration":"Freehold","paon":"72","saon":"","street":"CHARTIST ROAD","locality":"BIRMINGHAM","townOrCity":"BIRMINGHAM","district":"BIRMINGHAM","county":"WEST MIDLANDS","ppdCategoryType":"Standard","recordStatus":"Addition","latitude":52.496819,"longitude":-1.854279,"postcodeStart":"B8 1","postcode":["B8","1QD"]}
{"price":28250,"dateOfTransfer":"1997-02-28T00:00:00","postcodeFull":"B8 1LS","propertyType":"Terraced","oldOrNew":"Established","duration":"Freehold","paon":"59","saon":"","street":"REGINALD ROAD","locality":"SALTLEY","townOrCity":"BIRMINGHAM","district":"BIRMINGHAM","county":"WEST MIDLANDS","ppdCategoryType":"Standard","recordStatus":"Addition","latitude":52.489479,"longitude":-1.857956,"postcodeStart":"B8 1","postcode":["B8","1LS"]}
{"price":16000,"dateOfTransfer":"1997-11-21T00:00:00","postcodeFull":"B8 1NS","propertyType":"Terraced","oldOrNew":"Established","duration":"Freehold","paon":"111 - 115","saon":"","street":"WRIGHT ROAD","locality":"","townOrCity":"BIRMINGHAM","district":"BIRMINGHAM","county":"WEST MIDLANDS","ppdCategoryType":"Standard","recordStatus":"Addition","latitude":52.491487,"longitude":-1.853192,"postcodeStart":"B8 1","postcode":["B8","1NS"]}
{"price":35500,"dateOfTransfer":"1997-12-22T00:00:00","postcodeFull":"B8 1TD","propertyType":"Terraced","oldOrNew":"Established","duration":"Freehold","paon":"15","saon":"","street":"BRIDGE ROAD","locality":"SALTLEY","townOrCity":"BIRMINGHAM","district":"BIRMINGHAM","county":"WEST MIDLANDS","ppdCategoryType":"Standard","recordStatus":"Addition","latitude":52.485822,"longitude":-1.852858,"postcodeStart":"B8 1","postcode":["B8","1TD"]}
{"price":29000,"dateOfTransfer":"1997-02-17T00:00:00","postcodeFull":"B8 1NT","propertyType":"Terraced","oldOrNew":"Established","duration":"Freehold","paon":"28","saon":"","street":"HERRICK ROAD","locality":"SALTLEY","townOrCity":"BIRMINGHAM","district":"BIRMINGHAM","county":"WEST MIDLANDS","ppdCategoryType":"Standard","recordStatus":"Addition","latitude":52.492249,"longitude":-1.851688,"postcodeStart":"B8 1","postcode":["B8","1NT"]}
{"price":29000,"dateOfTransfer":"1997-04-11T00:00:00","postcodeFull":"B8 1DY","propertyType":"Terraced","oldOrNew":"Established","duration":"Freehold","paon":"58","saon":"","street":"ARDEN ROAD","locality":"SALTLEY","townOrCity":"BIRMINGHAM","district":"BIRMINGHAM","county":"WEST MIDLANDS","ppdCategoryType":"Standard","recordStatus":"Addition","latitude":52.484015,"longitude":-1.860212,"postcodeStart":"B8 1","postcode":["B8","1DY"]}
{"price":19200,"dateOfTransfer":"1997-07-18T00:00:00","postcodeFull":"B8 1NT","propertyType":"Terraced","oldOrNew":"Established","duration":"Freehold","paon":"14","saon":"","street":"HERRICK ROAD","locality":"SALTLEY","townOrCity":"BIRMINGHAM","district":"BIRMINGHAM","county":"WEST MIDLANDS","ppdCategoryType":"Standard","recordStatus":"Addition","latitude":52.492249,"longitude":-1.851688,"postcodeStart":"B8 1","postcode":["B8","1NT"]}
{"price":32000,"dateOfTransfer":"1997-07-22T00:00:00","postcodeFull":"B8 1TD","propertyType":"Terraced","oldOrNew":"Established","duration":"Freehold","paon":"34","saon":"","street":"BRIDGE ROAD","locality":"SALTLEY","townOrCity":"BIRMINGHAM","district":"BIRMINGHAM","county":"WEST MIDLANDS","ppdCategoryType":"Standard","recordStatus":"Addition","latitude":52.485822,"longitude":-1.852858,"postcodeStart":"B8 1","postcode":["B8","1TD"]}
{"price":27000,"dateOfTransfer":"1997-12-03T00:00:00","postcodeFull":"B8 1RH","propertyType":"Terraced","oldOrNew":"Established","duration":"Freehold","paon":"236","saon":"","street":"WASHWOOD HEATH ROAD","locality":"BIRMINGHAM","townOrCity":"BIRMINGHAM","district":"BIRMINGHAM","county":"WEST MIDLANDS","ppdCategoryType":"Standard","recordStatus":"Addition","latitude":52.496043,"longitude":-1.852264,"postcodeStart":"B8 1","postcode":["B8","1RH"]}
