{"price":108000,"dateOfTransfer":"1995-08-28T00:00:00","postcodeFull":"BA11 5HD","propertyType":"Detached","oldOrNew":"Established","duration":"Freehold","paon":"58","saon":"","street":"QUARRY HILL","locality":"WITHAM FRIARY","townOrCity":"FROME","district":"MENDIP","county":"SOMERSET","ppdCategoryType":"Standard","recordStatus":"Addition","latitude":51.174354,"longitude":-2.367975,"postcodeStart":"BA11 5","postcode":["BA11","5HD"]}
{"price":27000,"dateOfTransfer":"1995-08-04T00:00:00","postcodeFull":"BA11 5AR","propertyType":"Semi-detached","oldOrNew":"Established","duration":"Freehold","paon":"49","saon":"","street":"MOUNTSFIELD","locality":"FROME","townOrCity":"FROME","district":"MENDIP","county":"SOMERSET","ppdCategoryType":"Standard","recordStatus":"Addition","latitude":51.220735,"longitude":-2.315423,"postcodeStart":"BA11 5","postcode":["BA11","5AR"]}
{"price":29000,"dateOfTransfer":"1995-07-28T00:00:00","postcodeFull":"BA11 5AH","propertyType":"Flat/Maisonette/Townhouse","oldOrNew":"Established","duration":"Leasehold","paon":"73","saon":"","street":"FELTHAM DRIVE","locality":"FROME","townOrCity":"FROME","district":"MENDIP","county":"SOMERSET","ppdCategoryType":"Standard","recordStatus":"Addition","latitude":51.221916,"longitude":-2.317793,"postcodeStart":"BA11 5","postcode":["BA11","5AH"]}
{"price":39950,"dateOfTransfer":"1995-07-31T00:00:00","postcodeFull":"BA11 5AN","propertyType":"Terraced","oldOrNew":"Established","duration":"Freehold","paon":"24","saon":"","street":"SOUTHFIELDS","locality":"FROME","townOrCity":"FROME","district":"MENDIP","county":"SOMERSET","ppdCategoryType":"Standard","recordStatus":"Addition","latitude":51.221591,"longitude":-2.314956,"postcodeStart":"BA11 5","postcode":["BA11","5AN"]}
{"price":40000,"dateOfTransfer":"1995-11-10T00:00:00","postcodeFull":"BA11 5JW","propertyType":"Semi-detached","oldOrNew":"Established","duration":"Freehold","paon":"18","saon":"","street":"EAST HILL","locality":"FROME","townOrCity":"FROME","district":"MENDIP","county":"SOMERSET","ppdCategoryType":"Standard","recordStatus":"Addition","latitude":51.228719,"longitude":-2.302201,"postcodeStart":"BA11 5","postcode":["BA11","5JW"]}
{"price":87500,"dateOfTransfer":"1995-04-21T00:00:00","postcodeFull":"BA11 5HN","propertyType":"Detached","oldOrNew":"Established","duration":"Freehold","paon":"3","saon":"","street":"MANOR GARDENS","locality":"WITHAM FRIARY","townOrCity":"FROME","district":"MENDIP","county":"SOMERSET","ppdCategoryType":"Standard","recordStatus":"Addition","latitude":51.169055,"longitude":-2.365959,"postcodeStart":"BA11 5","postcode":["BA11","5HN"]}
{"price":45000,"dateOfTransfer":"1995-06-16T00:00:00","postcodeFull":"BA11 5BE","propertyType":"Terraced","oldOrNew":"Established","duration":"Freehold","paon":"3","saon":"","street":"IVY COTTAGES","locality":"LITTLE KEYFORD","townOrCity":"FROME","district":"MENDIP","county":"SOMERSET","ppdCategoryType":"Standard","recordStatus":"Addition","latitude":51.213207,"longitude":-2.329101,"postcodeStart":"BA11 5","postcode":["BA11","5BE"]}
{"price":77000,"dateOfTransfer":"1995-01-13T00:00:00","postcodeFull":"BA11 5DA","propertyType":"Detached","oldOrNew":"Established","duration":"Freehold","paon":"RECTORY FARM","saon":"","street":"","locality":"MARSTON BIGOT","townOrCity":"FROME","district":"MENDIP","county":"SOMERSET","ppdCategoryType":"Standard","recordStatus":"Addition","latitude":51.198909,"longitude":-2.351097,"postcodeStart":"BA11 5","postcode":["BA11","5DA"]}
{"price":112000,"dateOfTransfer":"1995-08-17T00:00:00","postcodeFull":"BA11 5BP","propertyType":"Semi-detached","oldOrNew":"Established","duration":"Freehold","paon":"BAGGSBRIDGE COTTAGE","saon":"","street":"TUCKMARSH LANE","locality":"MARSTON BIGOT","townOrCity":"FROME","district":"MENDIP","county":"SOMERSET","ppdCategoryType":"Standard","recordStatus":"Addition","latitude":51.197444,"longitude":-2.332294,"postcodeStart":"BA11 5","postcode":["BA11","5BP"]}
{"price":58000,"dateOfTransfer":"1995-10-27T00:00:00","postcodeFull":"BA11 5JS","propertyType":"Semi-detached","oldOrNew":"Established","duration":"Freehold","paon":"4","saon":"","street":"STYLES CLOSE","locality":"FROME","townOrCity":"FROME","district":"MENDIP","county":"SOMERSET","ppdCategoryType":"Standard","recordStatus":"Addition","latitude":51.230434,"longitude":-2.303287,"postcodeStart":"BA11 5","postcode":["BA11","5JS"]}
{"price":30000,"dateOfTransfer":"1995-06-23T00:00:00","postcodeFull":"BA11 5HQ","propertyType":"Terraced","oldOrNew":"Established","duration":"Freehold","paon":"18","saon":"","street":"KERRY CROFT","locality":"WITHAM FRIARY","townOrCity":"FROME","district":"MENDIP","county":"SOMERSET","ppdCategoryType":"Standard","recordStatus":"Addition","latitude":51.164849,"longitude":-2.365225,"postcodeStart":"BA11 5","postcode":["BA11","5HQ"]}
{"price":73950,"dateOfTransfer":"1995-11-27T00:00:00","postcodeFull":"BA11 5JN","propertyType":"Detached","oldOrNew":"Established","duration":"Freehold","paon":"11","saon":"","street":"STYLES AVENUE","locality":"FROME","townOrCity":"FROME","district":"MENDIP","county":"SOMERSET","ppdCategoryType":"Standard","recordStatus":"Addition","latitude":51.229272,"longitude":-2.300572,"postcodeStart":"BA11 5","postcode":["BA11","5JN"]}
{"price":25000,"dateOfTransfer":"1995-06-02T00:00:00","postcodeFull":"BA11 5AQ","propertyType":"Terraced","oldOrNew":"Established","duration":"Freehold","paon":"78","saon":"","street":"FELTHAM DRIVE","locality":"FROME","townOrCity":"FROME","district":"MENDIP","county":"SOMERSET","ppdCategoryType":"Standard","recordStatus":"Addition","latitude":51.222012,"longitude":-2.315446,"postcodeStart":"BA11 5","postcode":["BA11","5AQ"]}
{"price":62500,"dateOfTransfer":"1995-10-16T00:00:00","postcodeFull":"BA11 5JG","propertyType":"Detached","oldOrNew":"Established","duration":"Freehold","paon":"35","saon":"","street":"STYLES HILL","locality":"FROME","townOrCity":"FROME","district":"MENDIP","county":"SOMERSET","ppdCategoryType":"Standard","recordStatus":"Addition","latitude":51.230999,"longitude":-2.30014,"postcodeStart":"BA11 5","postcode":["BA11","5JG"]}
{"price":37500,"dateOfTransfer":"1995-06-14T00:00:00","postcodeFull":"BA11 5AT","propertyType":"Terraced","oldOrNew":"Established","duration":"Freehold","paon":"5","saon":"","street":"HILLSIDE AVENUE","locality":"FROME","townOrCity":"FROME","district":"MENDIP","county":"SOMERSET","ppdCategoryType":"Standard","recordStatus":"Addition","latitude":51.221085,"longitude":-2.319134,"postcodeStart":"BA11 5","postcode":["BA11","5AT"]}
{"price":103000,"dateOfTransfer":"1995-03-31T00:00:00","postcodeFull":"BA11 5BN","propertyType":"Detached","oldOrNew":"Established","duration":"Freehold","paon":"THE COTTAGE","saon":"","street":"","locality":"TYTHERINGTON","townOrCity":"FROME","district":"MENDIP","county":"SOMERSET","ppdCategoryType":"Standard","recordStatus":"Addition","latitude":51.20555,"longitude":-2.330807,"postcodeStart":"BA11 5","postcode":["BA11","5BN"]}
{"price":115500,"dateOfTransfer":"1995-09-26T00:00:00","postcodeFull":"BA11 5JG","propertyType":"Detached","oldOrNew":"Established","duration":"Freehold","paon":"25","saon":"","street":"STYLES HILL","locality":"FROME","townOrCity":"FROME","district":"MENDIP","county":"SOMERSET","ppdCategoryType":"Standard","recordStatus":"Addition","latitude":51.230999,"longitude":-2.30014,"postcodeStart":"BA11 5","postcode":["BA11","5JG"]}
{"price":91743,"dateOfTransfer":"1995-05-05T00:00:00","postcodeFull":"BA11 5BN","propertyType":"Semi-detached","oldOrNew":"Established","duration":"Freehold","paon":"IVY COTTAGES","saon":"1","street":"","locality":"TYTHERINGTON","townOrCity":"FROME","district":"MENDIP","county":"SOMERSET","ppdCategoryType":"Standard","recordStatus":"Addition","latitude":51.20555,"longitude":-2.330807,"postcodeStart":"BA11 5","postcode":["BA11","5BN"]}
{"price":170000,"dateOfTransfer":"1995-07-04T00:00:00","postcodeFull":"BA11 5LH","propertyType":"Detached","oldOrNew":"Established","duration":"Freehold","paon":"2","saon":"","street":"FRIGGLE STREET","locality":"FROME","townOrCity":"FROME","district":"MENDIP","county":"SOMERSET","ppdCategoryType":"Standard","recordStatus":"Addition","latitude":51.216401,"longitude":-2.29111,"postcodeStart":"BA11 5","postcode":["BA11","5LH"]}
{"price":110000,"dateOfTransfer":"1996-03-27T00:00:00","postcodeFull":"BA11 5JU","propertyType":"Detached","oldOrNew":"Established","duration":"Freehold","paon":"28","saon":"","street":"THE RETREAT","locality":"FROME","townOrCity":"FROME","district":"MENDIP","county":"SOMERSET","ppdCategoryType":"Standard","recordStatus":"Addition","latitude":51.227866,"longitude":-2.308554,"postcodeStart":"BA11 5","postcode":["BA11","5JU"]}
{"price":76000,"dateOfTransfer":"1996-04-04T00:00:00","postcodeFull":"BA11 5DG","propertyType":"Semi-detached","oldOrNew":"Established","duration":"Freehold","paon":"PARK VIEW COTTAGE","saon":"","street":"FOGHAMSHIRE LANE","locality":"TRUDOXHILL","townOrCity":"FROME","district":"MENDIP","county":"SOMERSET","ppdCategoryType":"Standard","recordStatus":"Addition","latitude":51.192383,"longitude":-2.359332,"postcodeStart":"BA11 5","postcode":["BA11","5DG"]}
{"price":56500,"dateOfTransfer":"1996-07-26T00:00:00","postcodeFull":"BA11 5BA","propertyType":"Terraced","oldOrNew":"Established","duration":"Freehold","paon":"10 - 11","saon":"","street":"MOUNT PLEASANT","locality":"FROME","townOrCity":"FROME","district":"MENDIP","county":"SOMERSET","ppdCategoryType":"Standard","recordStatus":"Addition","latitude":51.220592,"longitude":-2.321593,"postcodeStart":"BA11 5","postcode":["BA11","5BA"]}
{"price":56000,"dateOfTransfer":"1996-04-19T00:00:00","postcodeFull":"BA11 5JN","propertyType":"Semi-detached","oldOrNew":"Established","duration":"Freehold","paon":"4","saon":"","street":"STYLES AVENUE","locality":"FROME","townOrCity":"FROME","district":"MENDIP","county":"SOMERSET","ppdCategoryType":"Standard","recordStatus":"Addition","latitude":51.229272,"longitude":-2.300572,"postcodeStart":"BA11 5","postcode":["BA11","5JN"]}
{"price":170000,"dateOfTransfer":"1996-10-25T00:00:00","postcodeFull":"BA11 5JD","propertyType":"Detached","oldOrNew":"Established","duration":"Freehold","paon":"BROOK COTTAGE","saon":"","street":"ROOKS LANE","locality":"BERKLEY","townOrCity":"FROME","district":"MENDIP","county":"SOMERSET","ppdCategoryType":"Standard","recordStatus":"Addition","latitude":51.239164,"longitude":-2.283619,"postcodeStart":"BA11 5","postcode":["BA11","5JD"]}
{"price":37000,"dateOfTransfer":"1996-07-01T00:00:00","postcodeFull":"BA11 5BA","propertyType":"Terraced","oldOrNew":"Established","duration":"Freehold","paon":"9","saon":"","street":"MOUNT PLEASANT","locality":"FROME","townOrCity":"FROME","district":"MENDIP","county":"SOMERSET","ppdCategoryType":"Standard","recordStatus":"Addition","latitude":51.220592,"longitude":-2.321593,"postcodeStart":"BA11 5","postcode":["BA11","5BA"]}
{"price":36000,"dateOfTransfer":"1996-08-09T00:00:00","postcodeFull":"BA11 5AX","propertyType":"Terraced","oldOrNew":"Established","duration":"Freehold","paon":"37","saon":"","street":"STONEWALL TERRACE","locality":"FROME","townOrCity":"FROME","district":"MENDIP","county":"SOMERSET","ppdCategoryType":"Standard","recordStatus":"Addition","latitude":51.221728,"longitude":-2.317334,"postcodeStart":"BA11 5","postcode":["BA11","5AX"]}
{"price":145000,"dateOfTransfer":"1996-04-04T00:00:00","postcodeFull":"BA11 5JB","propertyType":"Detached","oldOrNew":"Established","duration":"Freehold","paon":"PUDDLEDOCK COTTAGE","saon":"","street":"HILL CORNER","locality":"BERKLEY","townOrCity":"FROME","district":"MENDIP","county":"SOMERSET","ppdCategoryType":"Standard","recordStatus":"Addition","latitude":51.238218,"longitude":-2.286421,"postcodeStart":"BA11 5","postcode":["BA11","5JB"]}
{"price":89950,"dateOfTransfer":"1996-08-16T00:00:00","postcodeFull":"BA11 5NA","propertyType":"Detached","oldOrNew":"Established","duration":"Freehold","paon":"THE BEECHES","saon":"","street":"","locality":"FELTHAM","townOrCity":"FROME","district":"MENDIP","county":"SOMERSET","ppdCategoryType":"Standard","recordStatus":"Addition","latitude":51.213569,"longitude":-2.305223,"postcodeStart":"BA11 5","postcode":["BA11","5NA"]}
{"price":145000,"dateOfTransfer":"1996-10-07T00:00:00","postcodeFull":"BA11 5LW","propertyType":"Detached","oldOrNew":"Established","duration":"Freehold","paon":"LITTLE SKIPPET","saon":"","street":"COLE HILL","locality":"EAST WOODLANDS","townOrCity":"FROME","district":"MENDIP","county":"SOMERSET","ppdCategoryType":"Standard","recordStatus":"Addition","latitude":51.198274,"longitude":-2.294603,"postcodeStart":"BA11 5","postcode":["BA11","5LW"]}
{"price":57000,"dateOfTransfer":"1996-11-22T00:00:00","postcodeFull":"BA11 5HW","propertyType":"Semi-detached","oldOrNew":"New build","duration":"Freehold","paon":"7","saon":"","street":"NEW FRIARY COTTAGES","locality":"WITHAM FRIARY","townOrCity":"FROME","district":"MENDIP","county":"SOMERSET","ppdCategoryType":"Standard","recordStatus":"Addition","latitude":51.165665,"longitude":-2.365861,"postcodeStart":"BA11 5","postcode":["BA11","5HW"]}
{"price":36350,"dateOfTransfer":"1996-11-08T00:00:00","postcodeFull":"BA11 5AN","propertyType":"Terraced","oldOrNew":"Established","duration":"Freehold","paon":"6","saon":"","street":"SOUTHFIELDS","locality":"FROME","townOrCity":"FROME","district":"MENDIP","county":"SOMERSET","ppdCategoryType":"Standard","recordStatus":"Addition","latitude":51.221591,"longitude":-2.314956,"postcodeStart":"BA11 5","postcode":["BA11","5AN"]}
{"price":32000,"dateOfTransfer":"1996-10-25T00:00:00","postcodeFull":"BA11 5AW","propertyType":"Terraced","oldOrNew":"Established","duration":"Freehold","paon":"17","saon":"","street":"SOUTHFIELDS","locality":"FROME","townOrCity":"FROME","district":"MENDIP","county":"SOMERSET","ppdCategoryType":"Standard","recordStatus":"Addition","latitude":51.222139,"longitude":-2.314945,"postcodeStart":"BA11 5","postcode":["BA11","5AW"]}
{"price":35000,"dateOfTransfer":"1996-08-29T00:00:00","postcodeFull":"BA11 5AX","propertyType":"Terraced","oldOrNew":"Established","duration":"Freehold","paon":"25","saon":"","street":"STONEWALL TERRACE","locality":"FROME","townOrCity":"FROME","district":"MENDIP","county":"SOMERSET","ppdCategoryType":"Standard","recordStatus":"Addition","latitude":51.221728,"longitude":-2.317334,"postcodeStart":"BA11 5","postcode":["BA11","5AX"]}
{"price":115000,"dateOfTransfer":"1996-12-06T00:00:00","postcodeFull":"BA11 5DN","propertyType":"Semi-detached","oldOrNew":"Established","duration":"Freehold","paon":"POUND COTTAGE","saon":"","street":"","locality":"TRUDOXHILL","townOrCity":"FROME","district":"MENDIP","county":"SOMERSET","ppdCategoryType":"Standard","recordStatus":"Addition","latitude":51.192421,"longitude":-2.361351,"postcodeStart":"BA11 5","postcode":["BA11","5DN"]}
{"price":92500,"dateOfTransfer":"1996-09-30T00:00:00","postcodeFull":"BA11 5DP","propertyType":"Detached","oldOrNew":"Established","duration":"Freehold","paon":"EVERLEIGH COTTAGE","saon":"","street":"","locality":"TRUDOXHILL","townOrCity":"FROME","district":"MENDIP","county":"SOMERSET","ppdCategoryType":"Standard","recordStatus":"Addition","latitude":51.193566,"longitude":-2.363477,"postcodeStart":"BA11 5","postcode":["BA11","5DP"]}
{"price":320000,"dateOfTransfer":"1996-08-15T00:00:00","postcodeFull":"BA11 5JL","propertyType":"Detached","oldOrNew":"Established","duration":"Freehold","paon":"WALLMARSH HOUSE","saon":"","street":"","locality":"RODDEN","townOrCity":"FROME","district":"MENDIP","county":"SOMERSET","ppdCategoryType":"Standard","recordStatus":"Addition","latitude":51.233573,"longitude":-2.288598,"postcodeStart":"BA11 5","postcode":["BA11","5JL"]}
{"price":43000,"dateOfTransfer":"1996-11-29T00:00:00","postcodeFull":"BA11 5JS","propertyType":"Semi-detached","oldOrNew":"Established","duration":"Freehold","paon":"51","saon":"","street":"STYLES CLOSE","locality":"FROME","townOrCity":"FROME","district":"MENDIP","county":"SOMERSET","ppdCategoryType":"Standard","recordStatus":"Addition","latitude":51.230434,"longitude":-2.303287,"postcodeStart":"BA11 5","postcode":["BA11","5JS"]}
{"price":60000,"dateOfTransfer":"1996-09-27T00:00:00","postcodeFull":"BA11 5DP","propertyType":"Semi-detached","oldOrNew":"Established","duration":"Freehold","paon":"BRAMDENE","saon":"","street":"","locality":"TRUDOXHILL","townOrCity":"FROME","district":"MENDIP","county":"SOMERSET","ppdCategoryType":"Standard","recordStatus":"Addition","latitude":51.193566,"longitude":-2.363477,"postcodeStart":"BA11 5","postcode":["BA11","5DP"]}
{"price":27000,"dateOfTransfer":"1996-03-29T00:00:00","postcodeFull":"BA11 5AR","propertyType":"Terraced","oldOrNew":"Established","duration":"Freehold","paon":"29","saon":"","street":"MOUNTSFIELD","locality":"FROME","townOrCity":"FROME","district":"MENDIP","county":"SOMERSET","ppdCategoryType":"Standard","recordStatus":"Addition","latitude":51.220735,"longitude":-2.315423,"postcodeStart":"BA11 5","postcode":["BA11","5AR"]}
{"price":112000,"dateOfTransfer":"1996-10-03T00:00:00","postcodeFull":"BA11 5EY","propertyType":"Detached","oldOrNew":"Established","duration":"Freehold","paon":"OLD SCHOOL HOUSE","saon":"","street":"","locality":"GARE HILL","townOrCity":"FROME","district":"MENDIP","county":"SOMERSET","ppdCategoryType":"Standard","recordStatus":"Addition","latitude":51.160856,"longitude":-2.316115,"postcodeStart":"BA11 5","postcode":["BA11","5EY"]}
{"price":135000,"dateOfTransfer":"1996-08-28T00:00:00","postcodeFull":"BA11 5LD","propertyType":"Detached","oldOrNew":"Established","duration":"Freehold","paon":"WOODCOCK HOUSE","saon":"","street":"","locality":"RODDEN","townOrCity":"FROME","district":"MENDIP","county":"SOMERSET","ppdCategoryType":"Standard","recordStatus":"Addition","latitude":51.21641,"longitude":-2.280329,"postcodeStart":"BA11 5","postcode":["BA11","5LD"]}
{"price":22500,"dateOfTransfer":"1996-05-31T00:00:00","postcodeFull":"BA11 5EH","propertyType":"Semi-detached","oldOrNew":"Established","duration":"Freehold","paon":"31","saon":"","street":"VINNEY LANE","locality":"BLATCHBRIDGE","townOrCity":"FROME","district":"MENDIP","county":"SOMERSET","ppdCategoryType":"Standard","recordStatus":"Addition","latitude":51.210942,"longitude":-2.322428,"postcodeStart":"BA11 5","postcode":["BA11","5EH"]}
{"price":155000,"dateOfTransfer":"1996-03-22T00:00:00","postcodeFull":"BA11 5JE","propertyType":"Semi-detached","oldOrNew":"Established","duration":"Freehold","paon":"17","saon":"","street":"BERKLEY MARSH","locality":"BERKLEY","townOrCity":"FROME","district":"MENDIP","county":"SOMERSET","ppdCategoryType":"Standard","recordStatus":"Addition","latitude":51.242248,"longitude":-2.282134,"postcodeStart":"BA11 5","postcode":["BA11","5JE"]}
{"price":42500,"dateOfTransfer":"1996-01-12T00:00:00","postcodeFull":"BA11 5JU","propertyType":"Semi-detached","oldOrNew":"Established","duration":"Freehold","paon":"12","saon":"","street":"THE RETREAT","locality":"FROME","townOrCity":"FROME","district":"MENDIP","county":"SOMERSET","ppdCategoryType":"Standard","recordStatus":"Addition","latitude":51.227866,"longitude":-2.308554,"postcodeStart":"BA11 5","postcode":["BA11","5JU"]}
{"price":30000,"dateOfTransfer":"1996-05-31T00:00:00","postcodeFull":"BA11 5AX","propertyType":"Semi-detached","oldOrNew":"Established","duration":"Freehold","paon":"24","saon":"","street":"STONEWALL TERRACE","locality":"FROME","townOrCity":"FROME","district":"MENDIP","county":"SOMERSET","ppdCategoryType":"Standard","recordStatus":"Addition","latitude":51.221728,"longitude":-2.317334,"postcodeStart":"BA11 5","postcode":["BA11","5AX"]}
{"price":54500,"dateOfTransfer":"1996-01-31T00:00:00","postcodeFull":"BA11 5JS","propertyType":"Semi-detached","oldOrNew":"Established","duration":"Freehold","paon":"43","saon":"","street":"STYLES CLOSE","locality":"FROME","townOrCity":"FROME","district":"MENDIP","county":"SOMERSET","ppdCategoryType":"Standard","recordStatus":"Addition","latitude":51.230434,"longitude":-2.303287,"postcodeStart":"BA11 5","postcode":["BA11","5JS"]}
{"price":86000,"dateOfTransfer":"1996-12-13T00:00:00","postcodeFull":"BA11 5JQ","propertyType":"Detached","oldOrNew":"Established","duration":"Freehold","paon":"20","saon":"","street":"STYLES HILL","locality":"FROME","townOrCity":"FROME","district":"MENDIP","county":"SOMERSET","ppdCategoryType":"Standard","recordStatus":"Addition","latitude":51.229856,"longitude":-2.300662,"postcodeStart":"BA11 5","postcode":["BA11","5JQ"]}
{"price":161500,"dateOfTransfer":"1996-07-25T00:00:00","postcodeFull":"BA11 5JJ","propertyType":"Detached","oldOrNew":"Established","duration":"Freehold","paon":"FISHLAKE COTTAGE","saon":"","street":"","locality":"BERKLEY","townOrCity":"FROME","district":"MENDIP","county":"SOMERSET","ppdCategoryType":"Standard","recordStatus":"Addition","latitude":51.238546,"longitude":-2.277284,"postcodeStart":"BA11 5","postcode":["BA11","5JJ"]}
{"price":36000,"dateOfTransfer":"1996-12-04T00:00:00","postcodeFull":"BA11 5AP","propertyType":"Terraced","oldOrNew":"Established","duration":"Freehold","paon":"47","saon":"","street":"TOWER VIEW","locality":"FROME","townOrCity":"FROME","district":"MENDIP","county":"SOMERSET","ppdCategoryType":"Standard","recordStatus":"Addition","latitude":51.220362,"longitude":-2.317052,"postcodeStart":"BA11 5","postcode":["BA11","5AP"]}
{"price":34750,"dateOfTransfer":"1996-04-03T00:00:00","postcodeFull":"BA11 5AR","propertyType":"Terraced","oldOrNew":"Established","duration":"Freehold","paon":"2","saon":"","street":"MOUNTSFIELD","locality":"FROME","townOrCity":"FROME","district":"MENDIP","county":"SOMERSET","ppdCategoryType":"Standard","recordStatus":"Addition","latitude":51.220735,"longitude":-2.315423,"postcodeStart":"BA11 5","postcode":["BA11","5AR"]}
{"price":45000,"dateOfTransfer":"1996-10-25T00:00:00","postcodeFull":"BA11 5HW","propertyType":"Terraced","oldOrNew":"New build","duration":"Freehold","paon":"9","saon":"","street":"NEW FRIARY COTTAGES","locality":"WITHAM FRIARY","townOrCity":"FROME","district":"MENDIP","county":"SOMERSET","ppdCategoryType":"Standard","recordStatus":"Addition","latitude":51.165665,"longitude":-2.365861,"postcodeStart":"BA11 5","postcode":["BA11","5HW"]}
{"price":33000,"dateOfTransfer":"1996-10-31T00:00:00","postcodeFull":"BA11 5AW","propertyType":"Terraced","oldOrNew":"Established","duration":"Freehold","paon":"5","saon":"","street":"SOUTHFIELDS","locality":"FROME","townOrCity":"FROME","district":"MENDIP","county":"SOMERSET","ppdCategoryType":"Standard","recordStatus":"Addition","latitude":51.222139,"longitude":-2.314945,"postcodeStart":"BA11 5","postcode":["BA11","5AW"]}
{"price":150000,"dateOfTransfer":"1996-07-05T00:00:00","postcodeFull":"BA11 5EE","propertyType":"Detached","oldOrNew":"Established","duration":"Freehold","paon":"HOPE FARM HOUSE","saon":"","street":"","locality":"BLATCHBRIDGE","townOrCity":"FROME","district":"MENDIP","county":"SOMERSET","ppdCategoryType":"Standard","recordStatus":"Addition","latitude":51.214868,"longitude":-2.320236,"postcodeStart":"BA11 5","postcode":["BA11","5EE"]}
{"price":26500,"dateOfTransfer":"1996-10-18T00:00:00","postcodeFull":"BA11 5AQ","propertyType":"Terraced","oldOrNew":"Established","duration":"Freehold","paon":"78","saon":"","street":"FELTHAM DRIVE","locality":"FROME","townOrCity":"FROME","district":"MENDIP","county":"SOMERSET","ppdCategoryType":"Standard","recordStatus":"Addition","latitude":51.222012,"longitude":-2.315446,"postcodeStart":"BA11 5","postcode":["BA11","5AQ"]}
{"price":39500,"dateOfTransfer":"1996-07-31T00:00:00","postcodeFull":"BA11 5AP","propertyType":"Terraced","oldOrNew":"Established","duration":"Freehold","paon":"52","saon":"","street":"TOWER VIEW","locality":"FROME","townOrCity":"FROME","district":"MENDIP","county":"SOMERSET","ppdCategoryType":"Standard","recordStatus":"Addition","latitude":51.220362,"longitude":-2.317052,"postcodeStart":"BA11 5","postcode":["BA11","5AP"]}
{"price":78000,"dateOfTransfer":"1996-12-23T00:00:00","postcodeFull":"BA11 5HW","propertyType":"Semi-detached","oldOrNew":"New build","duration":"Freehold","paon":"6","saon":"","street":"NEW FRIARY COTTAGES","locality":"WITHAM FRIARY","townOrCity":"FROME","district":"MENDIP","county":"SOMERSET","ppdCategoryType":"Standard","recordStatus":"Addition","latitude":51.165665,"longitude":-2.365861,"postcodeStart":"BA11 5","postcode":["BA11","5HW"]}
{"price":54000,"dateOfTransfer":"1996-10-18T00:00:00","postcodeFull":"BA11 5EN","propertyType":"Flat/Maisonette/Townhouse","oldOrNew":"Established","duration":"Freehold","paon":"48","saon":"","street":"","locality":"WEST WOODLANDS","townOrCity":"FROME","district":"MENDIP","county":"SOMERSET","ppdCategoryType":"Standard","recordStatus":"Addition","latitude":51.194215,"longitude":-2.319721,"postcodeStart":"BA11 5","postcode":["BA11","5EN"]}
{"price":41000,"dateOfTransfer":"1996-02-21T00:00:00","postcodeFull":"BA11 5JS","propertyType":"Semi-detached","oldOrNew":"Established","duration":"Freehold","paon":"93","saon":"","street":"STYLES CLOSE","locality":"FROME","townOrCity":"FROME","district":"MENDIP","county":"SOMERSET","ppdCategoryType":"Standard","recordStatus":"Addition","latitude":51.230434,"longitude":-2.303287,"postcodeStart":"BA11 5","postcode":["BA11","5JS"]}
{"price":85000,"dateOfTransfer":"1996-09-20T00:00:00","postcodeFull":"BA11 5DW","propertyType":"Detached","oldOrNew":"Established","duration":"Freehold","paon":"SUNNYMEAD","saon":"","street":"MILLARDS HILL","locality":"TRUDOXHILL","townOrCity":"FROME","district":"MENDIP","county":"SOMERSET","ppdCategoryType":"Standard","recordStatus":"Addition","latitude":51.186588,"longitude":-2.360647,"postcodeStart":"BA11 5","postcode":["BA11","5DW"]}
{"price":110000,"dateOfTransfer":"1996-09-06T00:00:00","postcodeFull":"BA11 5LB","propertyType":"Detached","oldOrNew":"Established","duration":"Freehold","paon":"SOUTHFIELD FARM","saon":"","street":"","locality":"RODDEN","townOrCity":"FROME","district":"MENDIP","county":"SOMERSET","ppdCategoryType":"Standard","recordStatus":"Addition","latitude":51.222432,"longitude":-2.310963,"postcodeStart":"BA11 5","postcode":["BA11","5LB"]}
{"price":30000,"dateOfTransfer":"1996-10-25T00:00:00","postcodeFull":"BA11 5AR","propertyType":"Terraced","oldOrNew":"Established","duration":"Freehold","paon":"3","saon":"","street":"MOUNTSFIELD","locality":"FROME","townOrCity":"FROME","district":"MENDIP","county":"SOMERSET","ppdCategoryType":"Standard","recordStatus":"Addition","latitude":51.220735,"longitude":-2.315423,"postcodeStart":"BA11 5","postcode":["BA11","5AR"]}
{"price":33950,"dateOfTransfer":"1996-12-13T00:00:00","postcodeFull":"BA11 5AR","propertyType":"Flat/Maisonette/Townhouse","oldOrNew":"Established","duration":"Leasehold","paon":"70","saon":"","street":"MOUNTSFIELD","locality":"FROME","townOrCity":"FROME","district":"MENDIP","county":"SOMERSET","ppdCategoryType":"Standard","recordStatus":"Addition","latitude":51.220735,"longitude":-2.315423,"postcodeStart":"BA11 5","postcode":["BA11","5AR"]}
{"price":33500,"dateOfTransfer":"1996-03-15T00:00:00","postcodeFull":"BA11 5AP","propertyType":"Terraced","oldOrNew":"Established","duration":"Freehold","paon":"29","saon":"","street":"TOWER VIEW","locality":"FROME","townOrCity":"FROME","district":"MENDIP","county":"SOMERSET","ppdCategoryType":"Standard","recordStatus":"Addition","latitude":51.220362,"longitude":-2.317052,"postcodeStart":"BA11 5","postcode":["BA11","5AP"]}
{"price":79000,"dateOfTransfer":"1996-04-04T00:00:00","postcodeFull":"BA11 5EL","propertyType":"Semi-detached","oldOrNew":"Established","duration":"Freehold","paon":"43","saon":"","street":"","locality":"BLATCHBRIDGE","townOrCity":"FROME","district":"MENDIP","county":"SOMERSET","ppdCategoryType":"Standard","recordStatus":"Addition","latitude":51.209412,"longitude":-2.313026,"postcodeStart":"BA11 5","postcode":["BA11","5EL"]}
{"price":38000,"dateOfTransfer":"1996-02-09T00:00:00","postcodeFull":"BA11 5AD","propertyType":"Detached","oldOrNew":"Established","duration":"Freehold","paon":"8","saon":"THE FLAT","street":"CULVERHILL","locality":"FROME","townOrCity":"FROME","district":"MENDIP","county":"SOMERSET","ppdCategoryType":"Standard","recordStatus":"Addition","latitude":51.221259,"longitude":-2.32134,"postcodeStart":"BA11 5","postcode":["BA11","5AD"]}
{"price":79500,"dateOfTransfer":"1996-12-13T00:00:00","postcodeFull":"BA11 5HW","propertyType":"Semi-detached","oldOrNew":"New build","duration":"Freehold","paon":"5","saon":"","street":"NEW FRIARY COTTAGES","locality":"WITHAM FRIARY","townOrCity":"FROME","district":"MENDIP","county":"SOMERSET","ppdCategoryType":"Standard","recordStatus":"Addition","latitude":51.165665,"longitude":-2.365861,"postcodeStart":"BA11 5","postcode":["BA11","5HW"]}
{"price":28000,"dateOfTransfer":"1996-05-24T00:00:00","postcodeFull":"BA11 5JU","propertyType":"Terraced","oldOrNew":"Established","duration":"Freehold","paon":"6","saon":"","street":"THE RETREAT","locality":"FROME","townOrCity":"FROME","district":"MENDIP","county":"SOMERSET","ppdCategoryType":"Standard","recordStatus":"Addition","latitude":51.227866,"longitude":-2.308554,"postcodeStart":"BA11 5","postcode":["BA11","5JU"]}
{"price":60000,"dateOfTransfer":"1996-11-27T00:00:00","postcodeFull":"BA11 5BE","propertyType":"Terraced","oldOrNew":"Established","duration":"Freehold","paon":"2","saon":"","street":"IVY COTTAGES","locality":"LITTLE KEYFORD","townOrCity":"FROME","district":"MENDIP","county":"SOMERSET","ppdCategoryType":"Standard","recordStatus":"Addition","latitude":51.213207,"longitude":-2.329101,"postcodeStart":"BA11 5","postcode":["BA11","5BE"]}
{"price":45000,"dateOfTransfer":"1996-05-31T00:00:00","postcodeFull":"BA11 5AR","propertyType":"Terraced","oldOrNew":"Established","duration":"Freehold","paon":"35","saon":"","street":"MOUNTSFIELD","locality":"FROME","townOrCity":"FROME","district":"MENDIP","county":"SOMERSET","ppdCategoryType":"Standard","recordStatus":"Addition","latitude":51.220735,"longitude":-2.315423,"postcodeStart":"BA11 5","postcode":["BA11","5AR"]}
{"price":75000,"dateOfTransfer":"1996-06-07T00:00:00","postcodeFull":"BA11 5BB","propertyType":"Terraced","oldOrNew":"Established","duration":"Freehold","paon":"16","saon":"","street":"LITTLE KEYFORD LANE","locality":"FROME","townOrCity":"FROME","district":"MENDIP","county":"SOMERSET","ppdCategoryType":"Standard","recordStatus":"Addition","latitude":51.218999,"longitude":-2.322226,"postcodeStart":"BA11 5","postcode":["BA11","5BB"]}
{"price":53500,"dateOfTransfer":"1996-11-01T00:00:00","postcodeFull":"BA11 5LB","propertyType":"Terraced","oldOrNew":"Established","duration":"Freehold","paon":"HAZEL COURT","saon":"4","street":"","locality":"RODDEN","townOrCity":"FROME","district":"MENDIP","county":"SOMERSET","ppdCategoryType":"Standard","recordStatus":"Addition","latitude":51.222432,"longitude":-2.310963,"postcodeStart":"BA11 5","postcode":["BA11","5LB"]}
{"price":42500,"dateOfTransfer":"1996-11-15T00:00:00","postcodeFull":"BA11 5BN","propertyType":"Terraced","oldOrNew":"Established","duration":"Freehold","paon":"IVY COTTAGES","saon":"5","street":"","locality":"TYTHERINGTON","townOrCity":"FROME","district":"MENDIP","county":"SOMERSET","ppdCategoryType":"Standard","recordStatus":"Addition","latitude":51.20555,"longitude":-2.330807,"postcodeStart":"BA11 5","postcode":["BA11","5BN"]}
{"price":38000,"dateOfTransfer":"1996-10-04T00:00:00","postcodeFull":"BA11 5AR","propertyType":"Terraced","oldOrNew":"Established","duration":"Freehold","paon":"23","saon":"","street":"MOUNTSFIELD","locality":"FROME","townOrCity":"FROME","district":"MENDIP","county":"SOMERSET","ppdCategoryType":"Standard","recordStatus":"Addition","latitude":51.220735,"longitude":-2.315423,"postcodeStart":"BA11 5","postcode":["BA11","5AR"]}
{"price":49950,"dateOfTransfer":"1997-11-14T00:00:00","postcodeFull":"BA11 5BT","propertyType":"Terraced","oldOrNew":"New build","duration":"Freehold","paon":"KEYFORD FIELD COTTAGES","saon":"6","street":"LITTLE KEYFORD LANE","locality":"FROME","townOrCity":"FROME","district":"MENDIP","county":"SOMERSET","ppdCategoryType":"Standard","recordStatus":"Addition","latitude":51.218502,"longitude":-2.323082,"postcodeStart":"BA11 5","postcode":["BA11","5BT"]}
{"price":49950,"dateOfTransfer":"1997-12-22T00:00:00","postcodeFull":"BA11 5BT","propertyType":"Terraced","oldOrNew":"New build","duration":"Freehold","paon":"KEYFORD FIELD COTTAGES","saon":"14","street":"LITTLE KEYFORD LANE","locality":"FROME","townOrCity":"FROME","district":"MENDIP","county":"SOMERSET","ppdCategoryType":"Standard","recordStatus":"Addition","latitude":51.218502,"longitude":-2.323082,"postcodeStart":"BA11 5","postcode":["BA11","5BT"]}
{"price":77500,"dateOfTransfer":"1997-03-21T00:00:00","postcodeFull":"BA11 5LA","propertyType":"Semi-detached","oldOrNew":"Established","duration":"Freehold","paon":"GRASMERE","saon":"","street":"WARMINSTER ROAD","locality":"FROME","townOrCity":"FROME","district":"MENDIP","county":"SOMERSET","ppdCategoryType":"Standard","recordStatus":"Addition","latitude":51.227391,"longitude":-2.304484,"postcodeStart":"BA11 5","postcode":["BA11","5LA"]}
{"price":43000,"dateOfTransfer":"1997-07-31T00:00:00","postcodeFull":"BA11 5JS","propertyType":"Semi-detached","oldOrNew":"Established","duration":"Freehold","paon":"93","saon":"","street":"STYLES CLOSE","locality":"FROME","townOrCity":"FROME","district":"MENDIP","county":"SOMERSET","ppdCategoryType":"Standard","recordStatus":"Addition","latitude":51.230434,"longitude":-2.303287,"postcodeStart":"BA11 5","postcode":["BA11","5JS"]}
{"price":47000,"dateOfTransfer":"1997-09-19T00:00:00","postcodeFull":"BA11 5AF","propertyType":"Semi-detached","oldOrNew":"Established","duration":"Freehold","paon":"52A","saon":"","street":"FELTHAM DRIVE","locality":"","townOrCity":"FROME","district":"MENDIP","county":"SOMERSET","ppdCategoryType":"Standard","recordStatus":"Addition","latitude":51.220809,"longitude":-2.318101,"postcodeStart":"BA11 5","postcode":["BA11","5AF"]}
{"price":99000,"dateOfTransfer":"1997-06-05T00:00:00","postcodeFull":"BA11 5DG","propertyType":"Semi-detached","oldOrNew":"Established","duration":"Freehold","paon":"APRIL COTTAGE","saon":"","street":"FOGHAMSHIRE LANE","locality":"TRUDOXHILL","townOrCity":"FROME","district":"MENDIP","county":"SOMERSET","ppdCategoryType":"Standard","recordStatus":"Addition","latitude":51.192383,"longitude":-2.359332,"postcodeStart":"BA11 5","postcode":["BA11","5DG"]}
{"price":68000,"dateOfTransfer":"1997-10-29T00:00:00","postcodeFull":"BA11 5JS","propertyType":"Detached","oldOrNew":"Established","duration":"Freehold","paon":"37","saon":"","street":"STYLES CLOSE","locality":"FROME","townOrCity":"FROME","district":"TAUNTON DEANE","county":"SOMERSET","ppdCategoryType":"Standard","recordStatus":"Addition","latitude":51.230434,"longitude":-2.303287,"postcodeStart":"BA11 5","postcode":["BA11","5JS"]}
{"price":54950,"dateOfTransfer":"1997-09-01T00:00:00","postcodeFull":"BA11 5BT","propertyType":"Terraced","oldOrNew":"New build","duration":"Freehold","paon":"KEYFORD FIELD COTTAGES","saon":"15","street":"LITTLE KEYFORD LANE","locality":"FROME","townOrCity":"FROME","district":"MENDIP","county":"SOMERSET","ppdCategoryType":"Standard","recordStatus":"Addition","latitude":51.218502,"longitude":-2.323082,"postcodeStart":"BA11 5","postcode":["BA11","5BT"]}
{"price":55000,"dateOfTransfer":"1997-12-15T00:00:00","postcodeFull":"BA11 5EN","propertyType":"Terraced","oldOrNew":"Established","duration":"Freehold","paon":"49","saon":"","street":"","locality":"WEST WOODLANDS","townOrCity":"FROME","district":"MENDIP","county":"SOMERSET","ppdCategoryType":"Standard","recordStatus":"Addition","latitude":51.194215,"longitude":-2.319721,"postcodeStart":"BA11 5","postcode":["BA11","5EN"]}
{"price":72500,"dateOfTransfer":"1997-09-19T00:00:00","postcodeFull":"BA11 5BB","propertyType":"Semi-detached","oldOrNew":"Established","duration":"Freehold","paon":"11A","saon":"","street":"LITTLE KEYFORD LANE","locality":"FROME","townOrCity":"FROME","district":"MENDIP","county":"SOMERSET","ppdCategoryType":"Standard","recordStatus":"Addition","latitude":51.218999,"longitude":-2.322226,"postcodeStart":"BA11 5","postcode":["BA11","5BB"]}
{"price":49950,"dateOfTransfer":"1997-12-19T00:00:00","postcodeFull":"BA11 5BT","propertyType":"Terraced","oldOrNew":"New build","duration":"Freehold","paon":"KEYFORD FIELD COTTAGES","saon":"8","street":"LITTLE KEYFORD LANE","locality":"FROME","townOrCity":"FROME","district":"MENDIP","county":"SOMERSET","ppdCategoryType":"Standard","recordStatus":"Addition","latitude":51.218502,"longitude":-2.323082,"postcodeStart":"BA11 5","postcode":["BA11","5BT"]}
{"price":29500,"dateOfTransfer":"1997-09-12T00:00:00","postcodeFull":"BA11 5AQ","propertyType":"Terraced","oldOrNew":"Established","duration":"Freehold","paon":"78","saon":"","street":"FELTHAM DRIVE","locality":"FROME","townOrCity":"FROME","district":"MENDIP","county":"SOMERSET","ppdCategoryType":"Standard","recordStatus":"Addition","latitude":51.222012,"longitude":-2.315446,"postcodeStart":"BA11 5","postcode":["BA11","5AQ"]}
{"price":63000,"dateOfTransfer":"1997-05-23T00:00:00","postcodeFull":"BA11 5JS","propertyType":"Semi-detached","oldOrNew":"Established","duration":"Freehold","paon":"75","saon":"","street":"STYLES CLOSE","locality":"FROME","townOrCity":"FROME","district":"MENDIP","county":"SOMERSET","ppdCategoryType":"Standard","recordStatus":"Addition","latitude":51.230434,"longitude":-2.303287,"postcodeStart":"BA11 5","postcode":["BA11","5JS"]}
{"price":120000,"dateOfTransfer":"1997-06-27T00:00:00","postcodeFull":"BA11 5JX","propertyType":"Detached","oldOrNew":"Established","duration":"Freehold","paon":"WALLBRIDGE LODGE","saon":"","street":"WALLBRIDGE","locality":"FROME","townOrCity":"FROME","district":"MENDIP","county":"SOMERSET","ppdCategoryType":"Standard","recordStatus":"Addition","latitude":51.228398,"longitude":-2.30927,"postcodeStart":"BA11 5","postcode":["BA11","5JX"]}
{"price":89950,"dateOfTransfer":"1997-12-23T00:00:00","postcodeFull":"BA11 5DG","propertyType":"Semi-detached","oldOrNew":"Established","duration":"Freehold","paon":"PARK VIEW COTTAGE","saon":"","street":"FOGHAMSHIRE LANE","locality":"TRUDOXHILL","townOrCity":"FROME","district":"MENDIP","county":"SOMERSET","ppdCategoryType":"Standard","recordStatus":"Addition","latitude":51.192383,"longitude":-2.359332,"postcodeStart":"BA11 5","postcode":["BA11","5DG"]}
{"price":170000,"dateOfTransfer":"1997-05-30T00:00:00","postcodeFull":"BA11 5JT","propertyType":"Detached","oldOrNew":"Established","duration":"Freehold","paon":"2","saon":"","street":"STYLES MEADOW","locality":"FROME","townOrCity":"FROME","district":"MENDIP","county":"SOMERSET","ppdCategoryType":"Standard","recordStatus":"Addition","latitude":51.231343,"longitude":-2.299225,"postcodeStart":"BA11 5","postcode":["BA11","5JT"]}
{"price":45000,"dateOfTransfer":"1997-12-05T00:00:00","postcodeFull":"BA11 5AR","propertyType":"Terraced","oldOrNew":"Established","duration":"Freehold","paon":"48","saon":"","street":"MOUNTSFIELD","locality":"FROME","townOrCity":"FROME","district":"MENDIP","county":"SOMERSET","ppdCategoryType":"Standard","recordStatus":"Addition","latitude":51.220735,"longitude":-2.315423,"postcodeStart":"BA11 5","postcode":["BA11","5AR"]}
{"price":40000,"dateOfTransfer":"1997-10-17T00:00:00","postcodeFull":"BA11 5HQ","propertyType":"Semi-detached","oldOrNew":"Established","duration":"Freehold","paon":"1","saon":"","street":"KERRY CROFT","locality":"WITHAM FRIARY","townOrCity":"FROME","district":"MENDIP","county":"SOMERSET","ppdCategoryType":"Standard","recordStatus":"Addition","latitude":51.164849,"longitude":-2.365225,"postcodeStart":"BA11 5","postcode":["BA11","5HQ"]}
{"price":99000,"dateOfTransfer":"1997-10-10T00:00:00","postcodeFull":"BA11 5ND","propertyType":"Detached","oldOrNew":"Established","duration":"Freehold","paon":"SELWOOD","saon":"","street":"BIRCHILL LANE","locality":"FELTHAM","townOrCity":"FROME","district":"MENDIP","county":"SOMERSET","ppdCategoryType":"Standard","recordStatus":"Addition","latitude":51.214946,"longitude":-2.318003,"postcodeStart":"BA11 5","postcode":["BA11","5ND"]}
{"price":124950,"dateOfTransfer":"1997-11-14T00:00:00","postcodeFull":"BA11 5HW","propertyType":"Detached","oldOrNew":"New build","duration":"Freehold","paon":"1","saon":"","street":"NEW FRIARY COTTAGES","locality":"WITHAM FRIARY","townOrCity":"FROME","district":"MENDIP","county":"SOMERSET","ppdCategoryType":"Standard","recordStatus":"Addition","latitude":51.165665,"longitude":-2.365861,"postcodeStart":"BA11 5","postcode":["BA11","5HW"]}
{"price":140000,"dateOfTransfer":"1997-08-29T00:00:00","postcodeFull":"BA11 5LH","propertyType":"Detached","oldOrNew":"Established","duration":"Freehold","paon":"HILLSIDE","saon":"","street":"FRIGGLE STREET","locality":"FROME","townOrCity":"FROME","district":"MENDIP","county":"SOMERSET","ppdCategoryType":"Standard","recordStatus":"Addition","latitude":51.216401,"longitude":-2.29111,"postcodeStart":"BA11 5","postcode":["BA11","5LH"]}
{"price":50500,"dateOfTransfer":"1997-02-21T00:00:00","postcodeFull":"BA11 5EB","propertyType":"Terraced","oldOrNew":"Established","duration":"Freehold","paon":"5","saon":"","street":"THE MOUNT","locality":"FROME","townOrCity":"FROME","district":"MENDIP","county":"SOMERSET","ppdCategoryType":"Standard","recordStatus":"Addition","latitude":51.220261,"longitude":-2.320961,"postcodeStart":"BA11 5","postcode":["BA11","5EB"]}
{"price":132500,"dateOfTransfer":"1997-04-30T00:00:00","postcodeFull":"BA11 5LD","propertyType":"Detached","oldOrNew":"Established","duration":"Freehold","paon":"FLINTFORD HOUSE","saon":"","street":"","locality":"RODDEN","townOrCity":"FROME","district":"MENDIP","county":"SOMERSET","ppdCategoryType":"Standard","recordStatus":"Addition","latitude":51.21641,"longitude":-2.280329,"postcodeStart":"BA11 5","postcode":["BA11","5LD"]}
{"price":118000,"dateOfTransfer":"1997-07-21T00:00:00","postcodeFull":"BA11 5EX","propertyType":"Detached","oldOrNew":"Established","duration":"Freehold","paon":"THE HAVEN","saon":"","street":"GARE HILL ROAD","locality":"WITHAM FRIARY","townOrCity":"FROME","district":"MENDIP","county":"SOMERSET","ppdCategoryType":"Standard","recordStatus":"Addition","latitude":51.173062,"longitude":-2.337311,"postcodeStart":"BA11 5","postcode":["BA11","5EX"]}
{"price":177000,"dateOfTransfer":"1997-05-30T00:00:00","postcodeFull":"BA11 5LP","propertyType":"Detached","oldOrNew":"Established","duration":"Freehold","paon":"REDFORD HOUSE","saon":"","street":"FRIGGLE STREET","locality":"FROME","townOrCity":"FROME","district":"MENDIP","county":"SOMERSET","ppdCategoryType":"Standard","recordStatus":"Addition","latitude":51.210548,"longitude":-2.287323,"postcodeStart":"BA11 5","postcode":["BA11","5LP"]}
{"price":75000,"dateOfTransfer":"1997-02-21T00:00:00","postcodeFull":"BA11 5JQ","propertyType":"Semi-detached","oldOrNew":"Established","duration":"Freehold","paon":"24","saon":"","street":"STYLES HILL","locality":"FROME","townOrCity":"FROME","district":"MENDIP","county":"SOMERSET","ppdCategoryType":"Standard","recordStatus":"Addition","latitude":51.229856,"longitude":-2.300662,"postcodeStart":"BA11 5","postcode":["BA11","5JQ"]}
{"price":84950,"dateOfTransfer":"1997-09-25T00:00:00","postcodeFull":"BA11 5HW","propertyType":"Semi-detached","oldOrNew":"New build","duration":"Freehold","paon":"3","saon":"","street":"NEW FRIARY COTTAGES","locality":"WITHAM FRIARY","townOrCity":"FROME","district":"MENDIP","county":"SOMERSET","ppdCategoryType":"Standard","recordStatus":"Addition","latitude":51.165665,"longitude":-2.365861,"postcodeStart":"BA11 5","postcode":["BA11","5HW"]}
{"price":100000,"dateOfTransfer":"1997-05-29T00:00:00","postcodeFull":"BA11 5DP","propertyType":"Detached","oldOrNew":"Established","duration":"Freehold","paon":"LONGWAITE FARM","saon":"","street":"","locality":"TRUDOXHILL","townOrCity":"FROME","district":"MENDIP","county":"SOMERSET","ppdCategoryType":"Standard","recordStatus":"Addition","latitude":51.193566,"longitude":-2.363477,"postcodeStart":"BA11 5","postcode":["BA11","5DP"]}
{"price":88950,"dateOfTransfer":"1997-06-30T00:00:00","postcodeFull":"BA11 5DP","propertyType":"Semi-detached","oldOrNew":"Established","duration":"Freehold","paon":"BOX COTTAGE","saon":"","street":"","locality":"TRUDOXHILL","townOrCity":"FROME","district":"MENDIP","county":"SOMERSET","ppdCategoryType":"Standard","recordStatus":"Addition","latitude":51.193566,"longitude":-2.363477,"postcodeStart":"BA11 5","postcode":["BA11","5DP"]}
{"price":27000,"dateOfTransfer":"1997-10-10T00:00:00","postcodeFull":"BA11 5AH","propertyType":"Flat/Maisonette/Townhouse","oldOrNew":"Established","duration":"Leasehold","paon":"83","saon":"","street":"FELTHAM DRIVE","locality":"FROME","townOrCity":"FROME","district":"MENDIP","county":"SOMERSET","ppdCategoryType":"Standard","recordStatus":"Addition","latitude":51.221916,"longitude":-2.317793,"postcodeStart":"BA11 5","postcode":["BA11","5AH"]}
{"price":36500,"dateOfTransfer":"1997-04-18T00:00:00","postcodeFull":"BA11 5AW","propertyType":"Terraced","oldOrNew":"Established","duration":"Freehold","paon":"23","saon":"","street":"SOUTHFIELDS","locality":"FROME","townOrCity":"FROME","district":"MENDIP","county":"SOMERSET","ppdCategoryType":"Standard","recordStatus":"Addition","latitude":51.222139,"longitude":-2.314945,"postcodeStart":"BA11 5","postcode":["BA11","5AW"]}
{"price":49000,"dateOfTransfer":"1997-04-25T00:00:00","postcodeFull":"BA11 5ED","propertyType":"Terraced","oldOrNew":"Established","duration":"Freehold","paon":"29","saon":"","street":"THE MOUNT","locality":"BLATCHBRIDGE","townOrCity":"FROME","district":"MENDIP","county":"SOMERSET","ppdCategoryType":"Standard","recordStatus":"Addition","latitude":51.219023,"longitude":-2.320136,"postcodeStart":"BA11 5","postcode":["BA11","5ED"]}
{"price":51950,"dateOfTransfer":"1997-12-17T00:00:00","postcodeFull":"BA11 5BT","propertyType":"Terraced","oldOrNew":"New build","duration":"Freehold","paon":"KEYFORD FIELD COTTAGES","saon":"9","street":"LITTLE KEYFORD LANE","locality":"FROME","townOrCity":"FROME","district":"MENDIP","county":"SOMERSET","ppdCategoryType":"Standard","recordStatus":"Addition","latitude":51.218502,"longitude":-2.323082,"postcodeStart":"BA11 5","postcode":["BA11","5BT"]}
{"price":187000,"dateOfTransfer":"1997-02-28T00:00:00","postcodeFull":"BA11 5LB","propertyType":"Detached","oldOrNew":"New build","duration":"Freehold","paon":"SOUTHFIELD FARM","saon":"EYPE COTTAGE","street":"","locality":"RODDEN","townOrCity":"FROME","district":"MENDIP","county":"SOMERSET","ppdCategoryType":"Standard","recordStatus":"Addition","latitude":51.222432,"longitude":-2.310963,"postcodeStart":"BA11 5","postcode":["BA11","5LB"]}
{"price":59500,"dateOfTransfer":"1997-05-09T00:00:00","postcodeFull":"BA11 5JG","propertyType":"Detached","oldOrNew":"Established","duration":"Freehold","paon":"33","saon":"","street":"STYLES HILL","locality":"FROME","townOrCity":"FROME","district":"MENDIP","county":"SOMERSET","ppdCategoryType":"Standard","recordStatus":"Addition","latitude":51.230999,"longitude":-2.30014,"postcodeStart":"BA11 5","postcode":["BA11","5JG"]}
{"price":47500,"dateOfTransfer":"1997-06-20T00:00:00","postcodeFull":"BA11 5BT","propertyType":"Terraced","oldOrNew":"New build","duration":"Freehold","paon":"KEYFORD FIELD COTTAGES","saon":"13","street":"LITTLE KEYFORD LANE","locality":"FROME","townOrCity":"FROME","district":"MENDIP","county":"SOMERSET","ppdCategoryType":"Standard","recordStatus":"Addition","latitude":51.218502,"longitude":-2.323082,"postcodeStart":"BA11 5","postcode":["BA11","5BT"]}
{"price":43000,"dateOfTransfer":"1997-12-11T00:00:00","postcodeFull":"BA11 5AW","propertyType":"Terraced","oldOrNew":"Established","duration":"Freehold","paon":"27","saon":"","street":"SOUTHFIELDS","locality":"FROME","townOrCity":"FROME","district":"MENDIP","county":"SOMERSET","ppdCategoryType":"Standard","recordStatus":"Addition","latitude":51.222139,"longitude":-2.314945,"postcodeStart":"BA11 5","postcode":["BA11","5AW"]}
{"price":49950,"dateOfTransfer":"1997-11-14T00:00:00","postcodeFull":"BA11 5BT","propertyType":"Terraced","oldOrNew":"New build","duration":"Freehold","paon":"KEYFORD FIELD COTTAGES","saon":"5","street":"LITTLE KEYFORD LANE","locality":"FROME","townOrCity":"FROME","district":"MENDIP","county":"SOMERSET","ppdCategoryType":"Standard","recordStatus":"Addition","latitude":51.218502,"longitude":-2.323082,"postcodeStart":"BA11 5","postcode":["BA11","5BT"]}
{"price":47500,"dateOfTransfer":"1997-08-26T00:00:00","postcodeFull":"BA11 5BA","propertyType":"Semi-detached","oldOrNew":"Established","duration":"Freehold","paon":"4","saon":"","street":"MOUNT PLEASANT","locality":"FROME","townOrCity":"FROME","district":"MENDIP","county":"SOMERSET","ppdCategoryType":"Standard","recordStatus":"Addition","latitude":51.220592,"longitude":-2.321593,"postcodeStart":"BA11 5","postcode":["BA11","5BA"]}
{"price":68500,"dateOfTransfer":"1997-07-11T00:00:00","postcodeFull":"BA11 5JS","propertyType":"Semi-detached","oldOrNew":"Established","duration":"Freehold","paon":"6","saon":"","street":"STYLES CLOSE","locality":"FROME","townOrCity":"FROME","district":"MENDIP","county":"SOMERSET","ppdCategoryType":"Standard","recordStatus":"Addition","latitude":51.230434,"longitude":-2.303287,"postcodeStart":"BA11 5","postcode":["BA11","5JS"]}
{"price":34500,"dateOfTransfer":"1997-08-08T00:00:00","postcodeFull":"BA11 5AE","propertyType":"Terraced","oldOrNew":"Established","duration":"Freehold","paon":"12","saon":"","street":"FELTHAM DRIVE","locality":"FROME","townOrCity":"FROME","district":"MENDIP","county":"SOMERSET","ppdCategoryType":"Standard","recordStatus":"Addition","latitude":51.220858,"longitude":-2.319963,"postcodeStart":"BA11 5","postcode":["BA11","5AE"]}
{"price":40250,"dateOfTransfer":"1997-10-17T00:00:00","postcodeFull":"BA11 5AP","propertyType":"Terraced","oldOrNew":"Established","duration":"Freehold","paon":"6","saon":"","street":"TOWER VIEW","locality":"FROME","townOrCity":"FROME","district":"MENDIP","county":"SOMERSET","ppdCategoryType":"Standard","recordStatus":"Addition","latitude":51.220362,"longitude":-2.317052,"postcodeStart":"BA11 5","postcode":["BA11","5AP"]}
{"price":60000,"dateOfTransfer":"1997-11-21T00:00:00","postcodeFull":"BA11 5NA","propertyType":"Detached","oldOrNew":"Established","duration":"Freehold","paon":"THE HAY BARN","saon":"","street":"","locality":"FELTHAM","townOrCity":"FROME","district":"MENDIP","county":"SOMERSET","ppdCategoryType":"Standard","recordStatus":"Addition","latitude":51.213569,"longitude":-2.305223,"postcodeStart":"BA11 5","postcode":["BA11","5NA"]}
{"price":49950,"dateOfTransfer":"1997-10-31T00:00:00","postcodeFull":"BA11 5BT","propertyType":"Terraced","oldOrNew":"New build","duration":"Freehold","paon":"KEYFORD FIELD COTTAGES","saon":"7","street":"LITTLE KEYFORD LANE","locality":"FROME","townOrCity":"FROME","district":"MENDIP","county":"SOMERSET","ppdCategoryType":"Standard","recordStatus":"Addition","latitude":51.218502,"longitude":-2.323082,"postcodeStart":"BA11 5","postcode":["BA11","5BT"]}
{"price":76750,"dateOfTransfer":"1997-09-19T00:00:00","postcodeFull":"BA11 5HW","propertyType":"Semi-detached","oldOrNew":"New build","duration":"Freehold","paon":"4","saon":"","street":"NEW FRIARY COTTAGES","locality":"WITHAM FRIARY","townOrCity":"FROME","district":"MENDIP","county":"SOMERSET","ppdCategoryType":"Standard","recordStatus":"Addition","latitude":51.165665,"longitude":-2.365861,"postcodeStart":"BA11 5","postcode":["BA11","5HW"]}
{"price":82950,"dateOfTransfer":"1997-07-22T00:00:00","postcodeFull":"BA11 5JN","propertyType":"Detached","oldOrNew":"Established","duration":"Freehold","paon":"11","saon":"","street":"STYLES AVENUE","locality":"FROME","townOrCity":"FROME","district":"MENDIP","county":"SOMERSET","ppdCategoryType":"Standard","recordStatus":"Addition","latitude":51.229272,"longitude":-2.300572,"postcodeStart":"BA11 5","postcode":["BA11","5JN"]}
{"price":49950,"dateOfTransfer":"1997-07-18T00:00:00","postcodeFull":"BA11 5BT","propertyType":"Terraced","oldOrNew":"New build","duration":"Freehold","paon":"KEYFORD FIELD COTTAGES","saon":"12","street":"LITTLE KEYFORD LANE","locality":"FROME","townOrCity":"FROME","district":"MENDIP","county":"SOMERSET","ppdCategoryType":"Standard","recordStatus":"Addition","latitude":51.218502,"longitude":-2.323082,"postcodeStart":"BA11 5","postcode":["BA11","5BT"]}
{"price":52000,"dateOfTransfer":"1997-05-16T00:00:00","postcodeFull":"BA11 5HW","propertyType":"Terraced","oldOrNew":"New build","duration":"Freehold","paon":"8","saon":"","street":"NEW FRIARY COTTAGES","locality":"WITHAM FRIARY","townOrCity":"FROME","district":"MENDIP","county":"SOMERSET","ppdCategoryType":"Standard","recordStatus":"Addition","latitude":51.165665,"longitude":-2.365861,"postcodeStart":"BA11 5","postcode":["BA11","5HW"]}
{"price":61500,"dateOfTransfer":"1997-01-30T00:00:00","postcodeFull":"BA11 5JS","propertyType":"Semi-detached","oldOrNew":"Established","duration":"Freehold","paon":"12","saon":"","street":"STYLES CLOSE","locality":"FROME","townOrCity":"FROME","district":"MENDIP","county":"SOMERSET","ppdCategoryType":"Standard","recordStatus":"Addition","latitude":51.230434,"longitude":-2.303287,"postcodeStart":"BA11 5","postcode":["BA11","5JS"]}
{"price":41000,"dateOfTransfer":"1997-03-14T00:00:00","postcodeFull":"BA11 5JS","propertyType":"Semi-detached","oldOrNew":"Established","duration":"Freehold","paon":"95","saon":"","street":"STYLES CLOSE","locality":"FROME","townOrCity":"FROME","district":"MENDIP","county":"SOMERSET","ppdCategoryType":"Standard","recordStatus":"Addition","latitude":51.230434,"longitude":-2.303287,"postcodeStart":"BA11 5","postcode":["BA11","5JS"]}
{"price":39000,"dateOfTransfer":"1997-03-21T00:00:00","postcodeFull":"BA11 5AR","propertyType":"Terraced","oldOrNew":"Established","duration":"Freehold","paon":"18","saon":"","street":"MOUNTSFIELD","locality":"FROME","townOrCity":"FROME","district":"MENDIP","county":"SOMERSET","ppdCategoryType":"Standard","recordStatus":"Addition","latitude":51.220735,"longitude":-2.315423,"postcodeStart":"BA11 5","postcode":["BA11","5AR"]}
{"price":210000,"dateOfTransfer":"1997-03-24T00:00:00","postcodeFull":"BA11 5JT","propertyType":"Detached","oldOrNew":"Established","duration":"Freehold","paon":"3","saon":"","street":"STYLES MEADOW","locality":"FROME","townOrCity":"FROME","district":"MENDIP","county":"SOMERSET","ppdCategoryType":"Standard","recordStatus":"Addition","latitude":51.231343,"longitude":-2.299225,"postcodeStart":"BA11 5","postcode":["BA11","5JT"]}
{"price":49950,"dateOfTransfer":"1997-12-12T00:00:00","postcodeFull":"BA11 5BT","propertyType":"Terraced","oldOrNew":"New build","duration":"Freehold","paon":"KEYFORD FIELD COTTAGES","saon":"2","street":"LITTLE KEYFORD LANE","locality":"FROME","townOrCity":"FROME","district":"MENDIP","county":"SOMERSET","ppdCategoryType":"Standard","recordStatus":"Addition","latitude":51.218502,"longitude":-2.323082,"postcodeStart":"BA11 5","postcode":["BA11","5BT"]}
{"price":155050,"dateOfTransfer":"1997-07-02T00:00:00","postcodeFull":"BA11 5LN","propertyType":"Detached","oldOrNew":"Established","duration":"Freehold","paon":"8","saon":"","street":"TIMBERS HILL","locality":"EAST WOODLANDS","townOrCity":"FROME","district":"MENDIP","county":"SOMERSET","ppdCategoryType":"Standard","recordStatus":"Addition","latitude":51.201466,"longitude":-2.287438,"postcodeStart":"BA11 5","postcode":["BA11","5LN"]}
{"price":48000,"dateOfTransfer":"1997-05-30T00:00:00","postcodeFull":"BA11 5JS","propertyType":"Terraced","oldOrNew":"Established","duration":"Freehold","paon":"21","saon":"","street":"STYLES CLOSE","locality":"FROME","townOrCity":"FROME","district":"MENDIP","county":"SOMERSET","ppdCategoryType":"Standard","recordStatus":"Addition","latitude":51.230434,"longitude":-2.303287,"postcodeStart":"BA11 5","postcode":["BA11","5JS"]}
{"price":51950,"dateOfTransfer":"1997-11-03T00:00:00","postcodeFull":"BA11 5BT","propertyType":"Terraced","oldOrNew":"New build","duration":"Freehold","paon":"KEYFORD FIELD COTTAGES","saon":"10","street":"LITTLE KEYFORD LANE","locality":"FROME","townOrCity":"FROME","district":"MENDIP","county":"SOMERSET","ppdCategoryType":"Standard","recordStatus":"Addition","latitude":51.218502,"longitude":-2.323082,"postcodeStart":"BA11 5","postcode":["BA11","5BT"]}
{"price":136000,"dateOfTransfer":"1997-08-19T00:00:00","postcodeFull":"BA11 5DG","propertyType":"Semi-detached","oldOrNew":"Established","duration":"Freehold","paon":"CHAPEL HOUSE","saon":"","street":"FOGHAMSHIRE LANE","locality":"TRUDOXHILL","townOrCity":"FROME","district":"MENDIP","county":"SOMERSET","ppdCategoryType":"Standard","recordStatus":"Addition","latitude":51.192383,"longitude":-2.359332,"postcodeStart":"BA11 5","postcode":["BA11","5DG"]}
{"price":52447,"dateOfTransfer":"1997-12-16T00:00:00","postcodeFull":"BA11 5BT","propertyType":"Terraced","oldOrNew":"New build","duration":"Freehold","paon":"KEYFORD FIELD COTTAGES","saon":"11","street":"LITTLE KEYFORD LANE","locality":"FROME","townOrCity":"FROME","district":"MENDIP","county":"SOMERSET","ppdCategoryType":"Standard","recordStatus":"Addition","latitude":51.218502,"longitude":-2.323082,"postcodeStart":"BA11 5","postcode":["BA11","5BT"]}
{"price":43000,"dateOfTransfer":"1997-08-15T00:00:00","postcodeFull":"BA11 5AF","propertyType":"Semi-detached","oldOrNew":"Established","duration":"Freehold","paon":"38","saon":"","street":"FELTHAM DRIVE","locality":"FROME","townOrCity":"FROME","district":"MENDIP","county":"SOMERSET","ppdCategoryType":"Standard","recordStatus":"Addition","latitude":51.220809,"longitude":-2.318101,"postcodeStart":"BA11 5","postcode":["BA11","5AF"]}
{"price":119950,"dateOfTransfer":"1998-06-26T00:00:00","postcodeFull":"BA11 5JW","propertyType":"Detached","oldOrNew":"New build","duration":"Freehold","paon":"2","saon":"","street":"EAST HILL","locality":"FROME","townOrCity":"FROME","district":"MENDIP","county":"SOMERSET","ppdCategoryType":"Standard","recordStatus":"Addition","latitude":51.228719,"longitude":-2.302201,"postcodeStart":"BA11 5","postcode":["BA11","5JW"]}
{"price":63000,"dateOfTransfer":"1998-04-28T00:00:00","postcodeFull":"BA11 5DP","propertyType":"Terraced","oldOrNew":"Established","duration":"Freehold","paon":"ILEX","saon":"","street":"","locality":"TRUDOXHILL","townOrCity":"FROME","district":"MENDIP","county":"SOMERSET","ppdCategoryType":"Standard","recordStatus":"Addition","latitude":51.193566,"longitude":-2.363477,"postcodeStart":"BA11 5","postcode":["BA11","5DP"]}
{"price":165550,"dateOfTransfer":"1998-11-17T00:00:00","postcodeFull":"BA11 5EN","propertyType":"Detached","oldOrNew":"Established","duration":"Freehold","paon":"THE OLD FORGE","saon":"","street":"","locality":"WEST WOODLANDS","townOrCity":"FROME","district":"MENDIP","county":"SOMERSET","ppdCategoryType":"Standard","recordStatus":"Addition","latitude":51.194215,"longitude":-2.319721,"postcodeStart":"BA11 5","postcode":["BA11","5EN"]}
{"price":235000,"dateOfTransfer":"1998-09-01T00:00:00","postcodeFull":"BA11 5LL","propertyType":"Detached","oldOrNew":"Established","duration":"Freehold","paon":"ELM TREE COTTAGE","saon":"","street":"","locality":"FELTHAM","townOrCity":"FROME","district":"MENDIP","county":"SOMERSET","ppdCategoryType":"Standard","recordStatus":"Addition","latitude":51.211252,"longitude":-2.29699,"postcodeStart":"BA11 5","postcode":["BA11","5LL"]}
{"price":54500,"dateOfTransfer":"1998-01-30T00:00:00","postcodeFull":"BA11 5HF","propertyType":"Terraced","oldOrNew":"Established","duration":"Freehold","paon":"25","saon":"","street":"","locality":"WITHAM FRIARY","townOrCity":"FROME","district":"MENDIP","county":"SOMERSET","ppdCategoryType":"Standard","recordStatus":"Addition","latitude":51.168396,"longitude":-2.366755,"postcodeStart":"BA11 5","postcode":["BA11","5HF"]}
{"price":49950,"dateOfTransfer":"1998-06-08T00:00:00","postcodeFull":"BA11 5BT","propertyType":"Terraced","oldOrNew":"New build","duration":"Freehold","paon":"KEYFORD FIELD COTTAGES","saon":"3","street":"LITTLE KEYFORD LANE","locality":"FROME","townOrCity":"FROME","district":"MENDIP","county":"SOMERSET","ppdCategoryType":"Standard","recordStatus":"Addition","latitude":51.218502,"longitude":-2.323082,"postcodeStart":"BA11 5","postcode":["BA11","5BT"]}
{"price":30950,"dateOfTransfer":"1998-10-09T00:00:00","postcodeFull":"BA11 5AN","propertyType":"Terraced","oldOrNew":"Established","duration":"Freehold","paon":"6","saon":"","street":"SOUTHFIELDS","locality":"FROME","townOrCity":"FROME","district":"MENDIP","county":"SOMERSET","ppdCategoryType":"Standard","recordStatus":"Addition","latitude":51.221591,"longitude":-2.314956,"postcodeStart":"BA11 5","postcode":["BA11","5AN"]}
{"price":235000,"dateOfTransfer":"1998-12-21T00:00:00","postcodeFull":"BA11 5NA","propertyType":"Semi-detached","oldOrNew":"Established","duration":"Freehold","paon":"FELTHAM BARN, 4","saon":"","street":"","locality":"FELTHAM","townOrCity":"FROME","district":"MENDIP","county":"SOMERSET","ppdCategoryType":"Standard","recordStatus":"Addition","latitude":51.213569,"longitude":-2.305223,"postcodeStart":"BA11 5","postcode":["BA11","5NA"]}
{"price":32000,"dateOfTransfer":"1998-09-25T00:00:00","postcodeFull":"BA11 5AH","propertyType":"Flat/Maisonette/Townhouse","oldOrNew":"Established","duration":"Leasehold","paon":"73","saon":"","street":"FELTHAM DRIVE","locality":"FROME","townOrCity":"FROME","district":"MENDIP","county":"SOMERSET","ppdCategoryType":"Standard","recordStatus":"Addition","latitude":51.221916,"longitude":-2.317793,"postcodeStart":"BA11 5","postcode":["BA11","5AH"]}
{"price":157000,"dateOfTransfer":"1998-05-15T00:00:00","postcodeFull":"BA11 5EE","propertyType":"Detached","oldOrNew":"Established","duration":"Freehold","paon":"RATHLYN","saon":"","street":"","locality":"BLATCHBRIDGE","townOrCity":"FROME","district":"MENDIP","county":"SOMERSET","ppdCategoryType":"Standard","recordStatus":"Addition","latitude":51.214868,"longitude":-2.320236,"postcodeStart":"BA11 5","postcode":["BA11","5EE"]}
{"price":62500,"dateOfTransfer":"1998-04-03T00:00:00","postcodeFull":"BA11 5JW","propertyType":"Terraced","oldOrNew":"Established","duration":"Freehold","paon":"11","saon":"","street":"EAST HILL","locality":"FROME","townOrCity":"FROME","district":"MENDIP","county":"SOMERSET","ppdCategoryType":"Standard","recordStatus":"Addition","latitude":51.228719,"longitude":-2.302201,"postcodeStart":"BA11 5","postcode":["BA11","5JW"]}
{"price":130000,"dateOfTransfer":"1998-12-18T00:00:00","postcodeFull":"BA11 5AL","propertyType":"Detached","oldOrNew":"New build","duration":"Freehold","paon":"14","saon":"","street":"STYLES PARK","locality":"FROME","townOrCity":"FROME","district":"MENDIP","county":"SOMERSET","ppdCategoryType":"Standard","recordStatus":"Addition","latitude":51.228798,"longitude":-2.303061,"postcodeStart":"BA11 5","postcode":["BA11","5AL"]}
{"price":60000,"dateOfTransfer":"1998-01-23T00:00:00","postcodeFull":"BA11 5EA","propertyType":"Semi-detached","oldOrNew":"Established","duration":"Freehold","paon":"1","saon":"","street":"THE MOUNT","locality":"FROME","townOrCity":"FROME","district":"MENDIP","county":"SOMERSET","ppdCategoryType":"Standard","recordStatus":"Addition","latitude":51.2202,"longitude":-2.320373,"postcodeStart":"BA11 5","postcode":["BA11","5EA"]}
{"price":109950,"dateOfTransfer":"1998-09-03T00:00:00","postcodeFull":"BA11 5AL","propertyType":"Detached","oldOrNew":"New build","duration":"Freehold","paon":"4","saon":"","street":"STYLES PARK","locality":"FROME","townOrCity":"FROME","district":"MENDIP","county":"SOMERSET","ppdCategoryType":"Standard","recordStatus":"Addition","latitude":51.228798,"longitude":-2.303061,"postcodeStart":"BA11 5","postcode":["BA11","5AL"]}
{"price":95000,"dateOfTransfer":"1998-11-09T00:00:00","postcodeFull":"BA11 5JG","propertyType":"Detached","oldOrNew":"Established","duration":"Freehold","paon":"35","saon":"","street":"STYLES HILL","locality":"FROME","townOrCity":"FROME","district":"MENDIP","county":"SOMERSET","ppdCategoryType":"Standard","recordStatus":"Addition","latitude":51.230999,"longitude":-2.30014,"postcodeStart":"BA11 5","postcode":["BA11","5JG"]}
{"price":54950,"dateOfTransfer":"1998-04-02T00:00:00","postcodeFull":"BA11 5BA","propertyType":"Terraced","oldOrNew":"Established","duration":"Freehold","paon":"12","saon":"","street":"MOUNT PLEASANT","locality":"FROME","townOrCity":"FROME","district":"MENDIP","county":"SOMERSET","ppdCategoryType":"Standard","recordStatus":"Addition","latitude":51.220592,"longitude":-2.321593,"postcodeStart":"BA11 5","postcode":["BA11","5BA"]}
{"price":250000,"dateOfTransfer":"1998-07-03T00:00:00","postcodeFull":"BA11 5LH","propertyType":"Detached","oldOrNew":"Established","duration":"Freehold","paon":"1","saon":"","street":"FRIGGLE STREET","locality":"FROME","townOrCity":"FROME","district":"MENDIP","county":"SOMERSET","ppdCategoryType":"Standard","recordStatus":"Addition","latitude":51.216401,"longitude":-2.29111,"postcodeStart":"BA11 5","postcode":["BA11","5LH"]}
{"price":129950,"dateOfTransfer":"1998-06-25T00:00:00","postcodeFull":"BA11 5AL","propertyType":"Detached","oldOrNew":"New build","duration":"Freehold","paon":"5","saon":"","street":"STYLES PARK","locality":"FROME","townOrCity":"FROME","district":"MENDIP","county":"SOMERSET","ppdCategoryType":"Standard","recordStatus":"Addition","latitude":51.228798,"longitude":-2.303061,"postcodeStart":"BA11 5","postcode":["BA11","5AL"]}
{"price":135000,"dateOfTransfer":"1998-07-03T00:00:00","postcodeFull":"BA11 5HD","propertyType":"Detached","oldOrNew":"Established","duration":"Freehold","paon":"GREEN ACRES","saon":"","street":"","locality":"WITHAM FRIARY","townOrCity":"FROME","district":"MENDIP","county":"SOMERSET","ppdCategoryType":"Standard","recordStatus":"Addition","latitude":51.174354,"longitude":-2.367975,"postcodeStart":"BA11 5","postcode":["BA11","5HD"]}
{"price":147500,"dateOfTransfer":"1998-12-18T00:00:00","postcodeFull":"BA11 5JU","propertyType":"Detached","oldOrNew":"Established","duration":"Freehold","paon":"28","saon":"","street":"THE RETREAT","locality":"FROME","townOrCity":"FROME","district":"MENDIP","county":"SOMERSET","ppdCategoryType":"Standard","recordStatus":"Addition","latitude":51.227866,"longitude":-2.308554,"postcodeStart":"BA11 5","postcode":["BA11","5JU"]}
{"price":39500,"dateOfTransfer":"1998-04-09T00:00:00","postcodeFull":"BA11 5AR","propertyType":"Terraced","oldOrNew":"Established","duration":"Freehold","paon":"13","saon":"","street":"MOUNTSFIELD","locality":"FROME","townOrCity":"FROME","district":"MENDIP","county":"SOMERSET","ppdCategoryType":"Standard","recordStatus":"Addition","latitude":51.220735,"longitude":-2.315423,"postcodeStart":"BA11 5","postcode":["BA11","5AR"]}
{"price":109950,"dateOfTransfer":"1998-03-27T00:00:00","postcodeFull":"BA11 5AL","propertyType":"Detached","oldOrNew":"New build","duration":"Freehold","paon":"2","saon":"","street":"STYLES PARK","locality":"FROME","townOrCity":"FROME","district":"MENDIP","county":"SOMERSET","ppdCategoryType":"Standard","recordStatus":"Addition","latitude":51.228798,"longitude":-2.303061,"postcodeStart":"BA11 5","postcode":["BA11","5AL"]}
{"price":99950,"dateOfTransfer":"1998-04-24T00:00:00","postcodeFull":"BA11 5AL","propertyType":"Detached","oldOrNew":"New build","duration":"Freehold","paon":"3","saon":"","street":"STYLES PARK","locality":"FROME","townOrCity":"FROME","district":"MENDIP","county":"SOMERSET","ppdCategoryType":"Standard","recordStatus":"Addition","latitude":51.228798,"longitude":-2.303061,"postcodeStart":"BA11 5","postcode":["BA11","5AL"]}
{"price":44950,"dateOfTransfer":"1998-08-07T00:00:00","postcodeFull":"BA11 5AN","propertyType":"Semi-detached","oldOrNew":"Established","duration":"Freehold","paon":"12","saon":"","street":"SOUTHFIELDS","locality":"FROME","townOrCity":"FROME","district":"MENDIP","county":"SOMERSET","ppdCategoryType":"Standard","recordStatus":"Addition","latitude":51.221591,"longitude":-2.314956,"postcodeStart":"BA11 5","postcode":["BA11","5AN"]}
{"price":69700,"dateOfTransfer":"1998-03-30T00:00:00","postcodeFull":"BA11 5JQ","propertyType":"Terraced","oldOrNew":"Established","duration":"Freehold","paon":"28","saon":"","street":"STYLES HILL","locality":"FROME","townOrCity":"FROME","district":"MENDIP","county":"SOMERSET","ppdCategoryType":"Standard","recordStatus":"Addition","latitude":51.229856,"longitude":-2.300662,"postcodeStart":"BA11 5","postcode":["BA11","5JQ"]}
{"price":31500,"dateOfTransfer":"1998-10-01T00:00:00","postcodeFull":"BA11 5AR","propertyType":"Terraced","oldOrNew":"Established","duration":"Freehold","paon":"30","saon":"","street":"MOUNTSFIELD","locality":"FROME","townOrCity":"FROME","district":"MENDIP","county":"SOMERSET","ppdCategoryType":"Standard","recordStatus":"Addition","latitude":51.220735,"longitude":-2.315423,"postcodeStart":"BA11 5","postcode":["BA11","5AR"]}
{"price":99950,"dateOfTransfer":"1998-06-15T00:00:00","postcodeFull":"BA11 5JW","propertyType":"Detached","oldOrNew":"New build","duration":"Freehold","paon":"8","saon":"","street":"EAST HILL","locality":"FROME","townOrCity":"FROME","district":"MENDIP","county":"SOMERSET","ppdCategoryType":"Standard","recordStatus":"Addition","latitude":51.228719,"longitude":-2.302201,"postcodeStart":"BA11 5","postcode":["BA11","5JW"]}
{"price":120000,"dateOfTransfer":"1998-05-29T00:00:00","postcodeFull":"BA11 5AL","propertyType":"Detached","oldOrNew":"New build","duration":"Freehold","paon":"6","saon":"","street":"STYLES PARK","locality":"FROME","townOrCity":"FROME","district":"MENDIP","county":"SOMERSET","ppdCategoryType":"Standard","recordStatus":"Addition","latitude":51.228798,"longitude":-2.303061,"postcodeStart":"BA11 5","postcode":["BA11","5AL"]}
{"price":65000,"dateOfTransfer":"1998-04-30T00:00:00","postcodeFull":"BA11 5LU","propertyType":"Detached","oldOrNew":"Established","duration":"Freehold","paon":"21","saon":"","street":"","locality":"EAST WOODLANDS","townOrCity":"FROME","district":"MENDIP","county":"SOMERSET","ppdCategoryType":"Standard","recordStatus":"Addition","latitude":51.201087,"longitude":-2.300056,"postcodeStart":"BA11 5","postcode":["BA11","5LU"]}
{"price":71000,"dateOfTransfer":"1998-02-27T00:00:00","postcodeFull":"BA11 5BB","propertyType":"Detached","oldOrNew":"Established","duration":"Freehold","paon":"THE FIRS","saon":"","street":"LITTLE KEYFORD LANE","locality":"FROME","townOrCity":"FROME","district":"MENDIP","county":"SOMERSET","ppdCategoryType":"Standard","recordStatus":"Addition","latitude":51.218999,"longitude":-2.322226,"postcodeStart":"BA11 5","postcode":["BA11","5BB"]}
{"price":68000,"dateOfTransfer":"1998-09-29T00:00:00","postcodeFull":"BA11 5BA","propertyType":"Detached","oldOrNew":"Established","duration":"Freehold","paon":"8","saon":"","street":"MOUNT PLEASANT","locality":"FROME","townOrCity":"FROME","district":"MENDIP","county":"SOMERSET","ppdCategoryType":"Standard","recordStatus":"Addition","latitude":51.220592,"longitude":-2.321593,"postcodeStart":"BA11 5","postcode":["BA11","5BA"]}
{"price":56000,"dateOfTransfer":"1998-03-30T00:00:00","postcodeFull":"BA11 5AN","propertyType":"Terraced","oldOrNew":"Established","duration":"Freehold","paon":"20","saon":"","street":"SOUTHFIELDS","locality":"FROME","townOrCity":"FROME","district":"MENDIP","county":"SOMERSET","ppdCategoryType":"Standard","recordStatus":"Addition","latitude":51.221591,"longitude":-2.314956,"postcodeStart":"BA11 5","postcode":["BA11","5AN"]}
{"price":59000,"dateOfTransfer":"1998-03-16T00:00:00","postcodeFull":"BA11 5LB","propertyType":"Terraced","oldOrNew":"Established","duration":"Freehold","paon":"HAZEL COURT","saon":"2","street":"","locality":"RODDEN","townOrCity":"FROME","district":"MENDIP","county":"SOMERSET","ppdCategoryType":"Standard","recordStatus":"Addition","latitude":51.222432,"longitude":-2.310963,"postcodeStart":"BA11 5","postcode":["BA11","5LB"]}
{"price":64500,"dateOfTransfer":"1998-05-15T00:00:00","postcodeFull":"BA11 5JS","propertyType":"Semi-detached","oldOrNew":"Established","duration":"Freehold","paon":"28","saon":"","street":"STYLES CLOSE","locality":"FROME","townOrCity":"FROME","district":"MENDIP","county":"SOMERSET","ppdCategoryType":"Standard","recordStatus":"Addition","latitude":51.230434,"longitude":-2.303287,"postcodeStart":"BA11 5","postcode":["BA11","5JS"]}
{"price":131950,"dateOfTransfer":"1998-12-18T00:00:00","postcodeFull":"BA11 5AL","propertyType":"Detached","oldOrNew":"New build","duration":"Freehold","paon":"15","saon":"","street":"STYLES PARK","locality":"FROME","townOrCity":"FROME","district":"MENDIP","county":"SOMERSET","ppdCategoryType":"Standard","recordStatus":"Addition","latitude":51.228798,"longitude":-2.303061,"postcodeStart":"BA11 5","postcode":["BA11","5AL"]}
{"price":250000,"dateOfTransfer":"1998-08-26T00:00:00","postcodeFull":"BA11 5HH","propertyType":"Detached","oldOrNew":"New build","duration":"Freehold","paon":"STONEHAVEN","saon":"","street":"","locality":"WITHAM FRIARY","townOrCity":"FROME","district":"MENDIP","county":"SOMERSET","ppdCategoryType":"Standard","recordStatus":"Addition","latitude":51.159958,"longitude":-2.373552,"postcodeStart":"BA11 5","postcode":["BA11","5HH"]}
{"price":25000,"dateOfTransfer":"1998-06-26T00:00:00","postcodeFull":"BA11 5LD","propertyType":"Detached","oldOrNew":"Established","duration":"Freehold","paon":"WOODCOCK FARM WORKSHOP","saon":"","street":"","locality":"RODDEN","townOrCity":"FROME","district":"MENDIP","county":"SOMERSET","ppdCategoryType":"Standard","recordStatus":"Addition","latitude":51.21641,"longitude":-2.280329,"postcodeStart":"BA11 5","postcode":["BA11","5LD"]}
{"price":50000,"dateOfTransfer":"1998-09-25T00:00:00","postcodeFull":"BA11 5HE","propertyType":"Semi-detached","oldOrNew":"Established","duration":"Freehold","paon":"LITTLEWOODS","saon":"7","street":"","locality":"WITHAM FRIARY","townOrCity":"FROME","district":"MENDIP","county":"SOMERSET","ppdCategoryType":"Standard","recordStatus":"Addition","latitude":51.169924,"longitude":-2.364135,"postcodeStart":"BA11 5","postcode":["BA11","5HE"]}
{"price":95000,"dateOfTransfer":"1998-10-09T00:00:00","postcodeFull":"BA11 5JW","propertyType":"Detached","oldOrNew":"New build","duration":"Freehold","paon":"4","saon":"","street":"EAST HILL","locality":"FROME","townOrCity":"FROME","district":"MENDIP","county":"SOMERSET","ppdCategoryType":"Standard","recordStatus":"Addition","latitude":51.228719,"longitude":-2.302201,"postcodeStart":"BA11 5","postcode":["BA11","5JW"]}
{"price":177000,"dateOfTransfer":"1998-10-09T00:00:00","postcodeFull":"BA11 5LB","propertyType":"Detached","oldOrNew":"Established","duration":"Freehold","paon":"WALNUT COTTAGE","saon":"","street":"","locality":"RODDEN","townOrCity":"FROME","district":"MENDIP","county":"SOMERSET","ppdCategoryType":"Standard","recordStatus":"Addition","latitude":51.222432,"longitude":-2.310963,"postcodeStart":"BA11 5","postcode":["BA11","5LB"]}
{"price":49000,"dateOfTransfer":"1998-08-28T00:00:00","postcodeFull":"BA11 5JU","propertyType":"Terraced","oldOrNew":"Established","duration":"Freehold","paon":"9","saon":"","street":"THE RETREAT","locality":"FROME","townOrCity":"FROME","district":"MENDIP","county":"SOMERSET","ppdCategoryType":"Standard","recordStatus":"Addition","latitude":51.227866,"longitude":-2.308554,"postcodeStart":"BA11 5","postcode":["BA11","5JU"]}
{"price":51450,"dateOfTransfer":"1998-01-15T00:00:00","postcodeFull":"BA11 5BT","propertyType":"Terraced","oldOrNew":"New build","duration":"Freehold","paon":"KEYFORD FIELD COTTAGES","saon":"1","street":"LITTLE KEYFORD LANE","locality":"FROME","townOrCity":"FROME","district":"MENDIP","county":"SOMERSET","ppdCategoryType":"Standard","recordStatus":"Addition","latitude":51.218502,"longitude":-2.323082,"postcodeStart":"BA11 5","postcode":["BA11","5BT"]}
{"price":47995,"dateOfTransfer":"1998-07-31T00:00:00","postcodeFull":"BA11 5AP","propertyType":"Terraced","oldOrNew":"Established","duration":"Freehold","paon":"8","saon":"","street":"TOWER VIEW","locality":"FROME","townOrCity":"FROME","district":"MENDIP","county":"SOMERSET","ppdCategoryType":"Standard","recordStatus":"Addition","latitude":51.220362,"longitude":-2.317052,"postcodeStart":"BA11 5","postcode":["BA11","5AP"]}
{"price":154950,"dateOfTransfer":"1998-12-11T00:00:00","postcodeFull":"BA11 5AL","propertyType":"Detached","oldOrNew":"New build","duration":"Freehold","paon":"8","saon":"","street":"STYLES PARK","locality":"FROME","townOrCity":"FROME","district":"MENDIP","county":"SOMERSET","ppdCategoryType":"Standard","recordStatus":"Addition","latitude":51.228798,"longitude":-2.303061,"postcodeStart":"BA11 5","postcode":["BA11","5AL"]}
{"price":121000,"dateOfTransfer":"1998-02-27T00:00:00","postcodeFull":"BA11 5HW","propertyType":"Detached","oldOrNew":"New build","duration":"Freehold","paon":"2","saon":"","street":"NEW FRIARY COTTAGES","locality":"WITHAM FRIARY","townOrCity":"FROME","district":"MENDIP","county":"SOMERSET","ppdCategoryType":"Standard","recordStatus":"Addition","latitude":51.165665,"longitude":-2.365861,"postcodeStart":"BA11 5","postcode":["BA11","5HW"]}
{"price":50000,"dateOfTransfer":"1998-10-15T00:00:00","postcodeFull":"BA11 5JN","propertyType":"Detached","oldOrNew":"Established","duration":"Freehold","paon":"1","saon":"","street":"STYLES AVENUE","locality":"FROME","townOrCity":"FROME","district":"MENDIP","county":"SOMERSET","ppdCategoryType":"Standard","recordStatus":"Addition","latitude":51.229272,"longitude":-2.300572,"postcodeStart":"BA11 5","postcode":["BA11","5JN"]}
{"price":50000,"dateOfTransfer":"1998-05-07T00:00:00","postcodeFull":"BA11 5JW","propertyType":"Semi-detached","oldOrNew":"Established","duration":"Freehold","paon":"19","saon":"","street":"EAST HILL","locality":"FROME","townOrCity":"FROME","district":"MENDIP","county":"SOMERSET","ppdCategoryType":"Standard","recordStatus":"Addition","latitude":51.228719,"longitude":-2.302201,"postcodeStart":"BA11 5","postcode":["BA11","5JW"]}
{"price":54950,"dateOfTransfer":"1998-02-27T00:00:00","postcodeFull":"BA11 5AF","propertyType":"Semi-detached","oldOrNew":"Established","duration":"Freehold","paon":"48","saon":"","street":"FELTHAM DRIVE","locality":"FROME","townOrCity":"FROME","district":"MENDIP","county":"SOMERSET","ppdCategoryType":"Standard","recordStatus":"Addition","latitude":51.220809,"longitude":-2.318101,"postcodeStart":"BA11 5","postcode":["BA11","5AF"]}
{"price":100000,"dateOfTransfer":"1998-06-26T00:00:00","postcodeFull":"BA11 5JW","propertyType":"Detached","oldOrNew":"New build","duration":"Freehold","paon":"10","saon":"","street":"EAST HILL","locality":"FROME","townOrCity":"FROME","district":"MENDIP","county":"SOMERSET","ppdCategoryType":"Standard","recordStatus":"Addition","latitude":51.228719,"longitude":-2.302201,"postcodeStart":"BA11 5","postcode":["BA11","5JW"]}
{"price":42000,"dateOfTransfer":"1998-10-23T00:00:00","postcodeFull":"BA11 5AR","propertyType":"Terraced","oldOrNew":"Established","duration":"Freehold","paon":"23","saon":"","street":"MOUNTSFIELD","locality":"FROME","townOrCity":"FROME","district":"MENDIP","county":"SOMERSET","ppdCategoryType":"Standard","recordStatus":"Addition","latitude":51.220735,"longitude":-2.315423,"postcodeStart":"BA11 5","postcode":["BA11","5AR"]}
{"price":190000,"dateOfTransfer":"1998-06-26T00:00:00","postcodeFull":"BA11 5JE","propertyType":"Detached","oldOrNew":"Established","duration":"Freehold","paon":"MOSS MEADOW COTTAGE, 13","saon":"","street":"BERKLEY MARSH","locality":"BERKLEY","townOrCity":"FROME","district":"MENDIP","county":"SOMERSET","ppdCategoryType":"Standard","recordStatus":"Addition","latitude":51.242248,"longitude":-2.282134,"postcodeStart":"BA11 5","postcode":["BA11","5JE"]}
{"price":40000,"dateOfTransfer":"1998-02-13T00:00:00","postcodeFull":"BA11 5HQ","propertyType":"Semi-detached","oldOrNew":"Established","duration":"Freehold","paon":"2","saon":"","street":"KERRY CROFT","locality":"WITHAM FRIARY","townOrCity":"FROME","district":"MENDIP","county":"SOMERSET","ppdCategoryType":"Standard","recordStatus":"Addition","latitude":51.164849,"longitude":-2.365225,"postcodeStart":"BA11 5","postcode":["BA11","5HQ"]}
{"price":49950,"dateOfTransfer":"1998-04-14T00:00:00","postcodeFull":"BA11 5BT","propertyType":"Terraced","oldOrNew":"New build","duration":"Freehold","paon":"KEYFORD FIELD COTTAGES","saon":"4","street":"LITTLE KEYFORD LANE","locality":"FROME","townOrCity":"FROME","district":"MENDIP","county":"SOMERSET","ppdCategoryType":"Standard","recordStatus":"Addition","latitude":51.218502,"longitude":-2.323082,"postcodeStart":"BA11 5","postcode":["BA11","5BT"]}
{"price":70000,"dateOfTransfer":"1998-06-02T00:00:00","postcodeFull":"BA11 5JE","propertyType":"Semi-detached","oldOrNew":"Established","duration":"Freehold","paon":"10B","saon":"","street":"BERKLEY MARSH","locality":"BERKLEY","townOrCity":"FROME","district":"MENDIP","county":"SOMERSET","ppdCategoryType":"Standard","recordStatus":"Addition","latitude":51.242248,"longitude":-2.282134,"postcodeStart":"BA11 5","postcode":["BA11","5JE"]}
{"price":215000,"dateOfTransfer":"1998-08-20T00:00:00","postcodeFull":"BA11 5HH","propertyType":"Detached","oldOrNew":"Established","duration":"Freehold","paon":"WEST BARN COTTAGE","saon":"","street":"","locality":"WITHAM FRIARY","townOrCity":"FROME","district":"MENDIP","county":"SOMERSET","ppdCategoryType":"Standard","recordStatus":"Addition","latitude":51.159958,"longitude":-2.373552,"postcodeStart":"BA11 5","postcode":["BA11","5HH"]}
{"price":57000,"dateOfTransfer":"1998-04-24T00:00:00","postcodeFull":"BA11 5DT","propertyType":"Terraced","oldOrNew":"Established","duration":"Freehold","paon":"7","saon":"","street":"KNOLL HILL VIEW","locality":"TRUDOXHILL","townOrCity":"FROME","district":"MENDIP","county":"SOMERSET","ppdCategoryType":"Standard","recordStatus":"Addition","latitude":51.194486,"longitude":-2.365431,"postcodeStart":"BA11 5","postcode":["BA11","5DT"]}
{"price":88250,"dateOfTransfer":"1998-01-19T00:00:00","postcodeFull":"BA11 5HF","propertyType":"Semi-detached","oldOrNew":"Established","duration":"Freehold","paon":"35","saon":"","street":"","locality":"WITHAM FRIARY","townOrCity":"FROME","district":"MENDIP","county":"SOMERSET","ppdCategoryType":"Standard","recordStatus":"Addition","latitude":51.168396,"longitude":-2.366755,"postcodeStart":"BA11 5","postcode":["BA11","5HF"]}
{"price":105000,"dateOfTransfer":"1998-11-27T00:00:00","postcodeFull":"BA11 5JW","propertyType":"Detached","oldOrNew":"New build","duration":"Freehold","paon":"6","saon":"","street":"EAST HILL","locality":"FROME","townOrCity":"FROME","district":"MENDIP","county":"SOMERSET","ppdCategoryType":"Standard","recordStatus":"Addition","latitude":51.228719,"longitude":-2.302201,"postcodeStart":"BA11 5","postcode":["BA11","5JW"]}
{"price":215000,"dateOfTransfer":"1998-10-23T00:00:00","postcodeFull":"BA11 5NA","propertyType":"Semi-detached","oldOrNew":"Established","duration":"Freehold","paon":"BEECHES BARN, 3","saon":"","street":"","locality":"FELTHAM","townOrCity":"FROME","district":"MENDIP","county":"SOMERSET","ppdCategoryType":"Standard","recordStatus":"Addition","latitude":51.213569,"longitude":-2.305223,"postcodeStart":"BA11 5","postcode":["BA11","5NA"]}
{"price":125000,"dateOfTransfer":"1998-07-03T00:00:00","postcodeFull":"BA11 5DP","propertyType":"Detached","oldOrNew":"Established","duration":"Freehold","paon":"ST. LAURENCE CHURCH","saon":"","street":"","locality":"TRUDOXHILL","townOrCity":"FROME","district":"MENDIP","county":"SOMERSET","ppdCategoryType":"Standard","recordStatus":"Addition","latitude":51.193566,"longitude":-2.363477,"postcodeStart":"BA11 5","postcode":["BA11","5DP"]}
{"price":144000,"dateOfTransfer":"1998-11-19T00:00:00","postcodeFull":"BA11 5BW","propertyType":"Detached","oldOrNew":"Established","duration":"Freehold","paon":"5","saon":"","street":"","locality":"TYTHERINGTON","townOrCity":"FROME","district":"MENDIP","county":"SOMERSET","ppdCategoryType":"Standard","recordStatus":"Addition","latitude":51.205485,"longitude":-2.331522,"postcodeStart":"BA11 5","postcode":["BA11","5BW"]}
{"price":75000,"dateOfTransfer":"1998-10-15T00:00:00","postcodeFull":"BA11 5LB","propertyType":"Terraced","oldOrNew":"Established","duration":"Freehold","paon":"HAZEL COURT","saon":"1","street":"","locality":"RODDEN","townOrCity":"FROME","district":"MENDIP","county":"SOMERSET","ppdCategoryType":"Standard","recordStatus":"Addition","latitude":51.222432,"longitude":-2.310963,"postcodeStart":"BA11 5","postcode":["BA11","5LB"]}
{"price":39500,"dateOfTransfer":"1998-07-31T00:00:00","postcodeFull":"BA11 5AW","propertyType":"Terraced","oldOrNew":"Established","duration":"Freehold","paon":"13","saon":"","street":"SOUTHFIELDS","locality":"FROME","townOrCity":"FROME","district":"MENDIP","county":"SOMERSET","ppdCategoryType":"Standard","recordStatus":"Addition","latitude":51.222139,"longitude":-2.314945,"postcodeStart":"BA11 5","postcode":["BA11","5AW"]}
{"price":112000,"dateOfTransfer":"1998-09-04T00:00:00","postcodeFull":"BA11 5JS","propertyType":"Detached","oldOrNew":"Established","duration":"Freehold","paon":"15","saon":"","street":"STYLES CLOSE","locality":"FROME","townOrCity":"FROME","district":"MENDIP","county":"SOMERSET","ppdCategoryType":"Standard","recordStatus":"Addition","latitude":51.230434,"longitude":-2.303287,"postcodeStart":"BA11 5","postcode":["BA11","5JS"]}
{"price":105000,"dateOfTransfer":"1998-06-12T00:00:00","postcodeFull":"BA11 5DE","propertyType":"Detached","oldOrNew":"Established","duration":"Freehold","paon":"CHURCH LODGE","saon":"","street":"","locality":"MARSTON BIGOT","townOrCity":"FROME","district":"MENDIP","county":"SOMERSET","ppdCategoryType":"Standard","recordStatus":"Addition","latitude":51.205676,"longitude":-2.349344,"postcodeStart":"BA11 5","postcode":["BA11","5DE"]}
{"price":59950,"dateOfTransfer":"1998-05-19T00:00:00","postcodeFull":"BA11 5JW","propertyType":"Semi-detached","oldOrNew":"Established","duration":"Freehold","paon":"15","saon":"","street":"EAST HILL","locality":"FROME","townOrCity":"FROME","district":"MENDIP","county":"SOMERSET","ppdCategoryType":"Standard","recordStatus":"Addition","latitude":51.228719,"longitude":-2.302201,"postcodeStart":"BA11 5","postcode":["BA11","5JW"]}
{"price":51500,"dateOfTransfer":"1998-08-14T00:00:00","postcodeFull":"BA11 5BT","propertyType":"Terraced","oldOrNew":"Established","duration":"Freehold","paon":"KEYFORD FIELD COTTAGES","saon":"2","street":"LITTLE KEYFORD LANE","locality":"FROME","townOrCity":"FROME","district":"MENDIP","county":"SOMERSET","ppdCategoryType":"Standard","recordStatus":"Addition","latitude":51.218502,"longitude":-2.323082,"postcodeStart":"BA11 5","postcode":["BA11","5BT"]}
{"price":40000,"dateOfTransfer":"1998-09-28T00:00:00","postcodeFull":"BA11 5AE","propertyType":"Semi-detached","oldOrNew":"Established","duration":"Freehold","paon":"8","saon":"","street":"FELTHAM DRIVE","locality":"FROME","townOrCity":"FROME","district":"MENDIP","county":"SOMERSET","ppdCategoryType":"Standard","recordStatus":"Addition","latitude":51.220858,"longitude":-2.319963,"postcodeStart":"BA11 5","postcode":["BA11","5AE"]}
{"price":95000,"dateOfTransfer":"1998-12-18T00:00:00","postcodeFull":"BA11 5LE","propertyType":"Detached","oldOrNew":"Established","duration":"Freehold","paon":"RODDEN MANOR FARM COTTAGE","saon":"","street":"","locality":"RODDEN","townOrCity":"FROME","district":"MENDIP","county":"SOMERSET","ppdCategoryType":"Standard","recordStatus":"Addition","latitude":51.22568,"longitude":-2.298616,"postcodeStart":"BA11 5","postcode":["BA11","5LE"]}
{"price":157995,"dateOfTransfer":"1999-05-28T00:00:00","postcodeFull":"BA11 5AL","propertyType":"Detached","oldOrNew":"New build","duration":"Freehold","paon":"12","saon":"","street":"STYLES PARK","locality":"","townOrCity":"FROME","district":"MENDIP","county":"SOMERSET","ppdCategoryType":"Standard","recordStatus":"Addition","latitude":51.228798,"longitude":-2.303061,"postcodeStart":"BA11 5","postcode":["BA11","5AL"]}
{"price":140000,"dateOfTransfer":"1999-02-26T00:00:00","postcodeFull":"BA11 5HE","propertyType":"Terraced","oldOrNew":"Established","duration":"Freehold","paon":"THE OLD SMITHY","saon":"","street":"","locality":"WITHAM FRIARY","townOrCity":"FROME","district":"MENDIP","county":"SOMERSET","ppdCategoryType":"Standard","recordStatus":"Addition","latitude":51.169924,"longitude":-2.364135,"postcodeStart":"BA11 5","postcode":["BA11","5HE"]}
{"price":94500,"dateOfTransfer":"1999-10-15T00:00:00","postcodeFull":"BA11 5JN","propertyType":"Detached","oldOrNew":"Established","duration":"Freehold","paon":"1","saon":"","street":"STYLES AVENUE","locality":"","townOrCity":"FROME","district":"MENDIP","county":"SOMERSET","ppdCategoryType":"Standard","recordStatus":"Addition","latitude":51.229272,"longitude":-2.300572,"postcodeStart":"BA11 5","postcode":["BA11","5JN"]}
{"price":73500,"dateOfTransfer":"1999-03-01T00:00:00","postcodeFull":"BA11 5JS","propertyType":"Semi-detached","oldOrNew":"Established","duration":"Freehold","paon":"6","saon":"","street":"STYLES CLOSE","locality":"","townOrCity":"FROME","district":"MENDIP","county":"SOMERSET","ppdCategoryType":"Standard","recordStatus":"Addition","latitude":51.230434,"longitude":-2.303287,"postcodeStart":"BA11 5","postcode":["BA11","5JS"]}
{"price":39950,"dateOfTransfer":"1999-11-26T00:00:00","postcodeFull":"BA11 5AR","propertyType":"Flat/Maisonette/Townhouse","oldOrNew":"Established","duration":"Leasehold","paon":"6","saon":"","street":"MOUNTSFIELD","locality":"","townOrCity":"FROME","district":"MENDIP","county":"SOMERSET","ppdCategoryType":"Standard","recordStatus":"Addition","latitude":51.220735,"longitude":-2.315423,"postcodeStart":"BA11 5","postcode":["BA11","5AR"]}
{"price":67500,"dateOfTransfer":"1999-06-21T00:00:00","postcodeFull":"BA11 5JS","propertyType":"Detached","oldOrNew":"Established","duration":"Freehold","paon":"81","saon":"","street":"STYLES CLOSE","locality":"","townOrCity":"FROME","district":"MENDIP","county":"SOMERSET","ppdCategoryType":"Standard","recordStatus":"Addition","latitude":51.230434,"longitude":-2.303287,"postcodeStart":"BA11 5","postcode":["BA11","5JS"]}
{"price":89500,"dateOfTransfer":"1999-12-09T00:00:00","postcodeFull":"BA11 5HQ","propertyType":"Terraced","oldOrNew":"Established","duration":"Freehold","paon":"18","saon":"","street":"KERRY CROFT","locality":"WITHAM FRIARY","townOrCity":"FROME","district":"MENDIP","county":"SOMERSET","ppdCategoryType":"Standard","recordStatus":"Addition","latitude":51.164849,"longitude":-2.365225,"postcodeStart":"BA11 5","postcode":["BA11","5HQ"]}
{"price":165000,"dateOfTransfer":"1999-08-06T00:00:00","postcodeFull":"BA11 5AL","propertyType":"Detached","oldOrNew":"New build","duration":"Freehold","paon":"1","saon":"","street":"STYLES PARK","locality":"","townOrCity":"FROME","district":"MENDIP","county":"SOMERSET","ppdCategoryType":"Standard","recordStatus":"Addition","latitude":51.228798,"longitude":-2.303061,"postcodeStart":"BA11 5","postcode":["BA11","5AL"]}
{"price":120000,"dateOfTransfer":"1999-12-02T00:00:00","postcodeFull":"BA11 5LD","propertyType":"Semi-detached","oldOrNew":"Established","duration":"Freehold","paon":"WOODCOCK HOUSE","saon":"THE LONG BARN","street":"","locality":"RODDEN","townOrCity":"FROME","district":"MENDIP","county":"SOMERSET","ppdCategoryType":"Standard","recordStatus":"Addition","latitude":51.21641,"longitude":-2.280329,"postcodeStart":"BA11 5","postcode":["BA11","5LD"]}
{"price":132000,"dateOfTransfer":"1999-08-20T00:00:00","postcodeFull":"BA11 5BB","propertyType":"Detached","oldOrNew":"Established","duration":"Freehold","paon":"THE FIRS","saon":"","street":"LITTLE KEYFORD LANE","locality":"","townOrCity":"FROME","district":"MENDIP","county":"SOMERSET","ppdCategoryType":"Standard","recordStatus":"Addition","latitude":51.218999,"longitude":-2.322226,"postcodeStart":"BA11 5","postcode":["BA11","5BB"]}
{"price":131000,"dateOfTransfer":"1999-10-07T00:00:00","postcodeFull":"BA11 5BN","propertyType":"Semi-detached","oldOrNew":"Established","duration":"Freehold","paon":"IVY COTTAGES","saon":"1","street":"","locality":"TYTHERINGTON","townOrCity":"FROME","district":"MENDIP","county":"SOMERSET","ppdCategoryType":"Standard","recordStatus":"Addition","latitude":51.20555,"longitude":-2.330807,"postcodeStart":"BA11 5","postcode":["BA11","5BN"]}
{"price":54500,"dateOfTransfer":"1999-04-30T00:00:00","postcodeFull":"BA11 5BT","propertyType":"Terraced","oldOrNew":"Established","duration":"Freehold","paon":"KEYFORD FIELD COTTAGES","saon":"13","street":"LITTLE KEYFORD LANE","locality":"","townOrCity":"FROME","district":"MENDIP","county":"SOMERSET","ppdCategoryType":"Standard","recordStatus":"Addition","latitude":51.218502,"longitude":-2.323082,"postcodeStart":"BA11 5","postcode":["BA11","5BT"]}
{"price":170000,"dateOfTransfer":"1999-04-01T00:00:00","postcodeFull":"BA11 5AL","propertyType":"Detached","oldOrNew":"New build","duration":"Freehold","paon":"9","saon":"","street":"STYLES PARK","locality":"","townOrCity":"FROME","district":"MENDIP","county":"SOMERSET","ppdCategoryType":"Standard","recordStatus":"Addition","latitude":51.228798,"longitude":-2.303061,"postcodeStart":"BA11 5","postcode":["BA11","5AL"]}
{"price":119000,"dateOfTransfer":"1999-10-01T00:00:00","postcodeFull":"BA11 5BB","propertyType":"Detached","oldOrNew":"Established","duration":"Freehold","paon":"VALLEY VIEW","saon":"","street":"LITTLE KEYFORD LANE","locality":"","townOrCity":"FROME","district":"MENDIP","county":"SOMERSET","ppdCategoryType":"Standard","recordStatus":"Addition","latitude":51.218999,"longitude":-2.322226,"postcodeStart":"BA11 5","postcode":["BA11","5BB"]}
{"price":100000,"dateOfTransfer":"1999-03-24T00:00:00","postcodeFull":"BA11 5BA","propertyType":"Detached","oldOrNew":"Established","duration":"Freehold","paon":"FERN VILLA","saon":"","street":"MOUNT PLEASANT","locality":"","townOrCity":"FROME","district":"MENDIP","county":"SOMERSET","ppdCategoryType":"Standard","recordStatus":"Addition","latitude":51.220592,"longitude":-2.321593,"postcodeStart":"BA11 5","postcode":["BA11","5BA"]}
{"price":77000,"dateOfTransfer":"1999-11-26T00:00:00","postcodeFull":"BA11 5DP","propertyType":"Terraced","oldOrNew":"Established","duration":"Freehold","paon":"ILEX","saon":"","street":"","locality":"TRUDOXHILL","townOrCity":"FROME","district":"MENDIP","county":"SOMERSET","ppdCategoryType":"Standard","recordStatus":"Addition","latitude":51.193566,"longitude":-2.363477,"postcodeStart":"BA11 5","postcode":["BA11","5DP"]}
{"price":100000,"dateOfTransfer":"1999-11-26T00:00:00","postcodeFull":"BA11 5JU","propertyType":"Detached","oldOrNew":"Established","duration":"Freehold","paon":"WALLBRIDGE MILLS","saon":"","street":"THE RETREAT","locality":"","townOrCity":"FROME","district":"MENDIP","county":"SOMERSET","ppdCategoryType":"Standard","recordStatus":"Addition","latitude":51.227866,"longitude":-2.308554,"postcodeStart":"BA11 5","postcode":["BA11","5JU"]}
{"price":210000,"dateOfTransfer":"1999-06-18T00:00:00","postcodeFull":"BA11 5JT","propertyType":"Detached","oldOrNew":"Established","duration":"Freehold","paon":"3","saon":"","street":"STYLES MEADOW","locality":"","townOrCity":"FROME","district":"MENDIP","county":"SOMERSET","ppdCategoryType":"Standard","recordStatus":"Addition","latitude":51.231343,"longitude":-2.299225,"postcodeStart":"BA11 5","postcode":["BA11","5JT"]}
{"price":55000,"dateOfTransfer":"1999-07-07T00:00:00","postcodeFull":"BA11 5AR","propertyType":"Terraced","oldOrNew":"Established","duration":"Freehold","paon":"29","saon":"","street":"MOUNTSFIELD","locality":"","townOrCity":"FROME","district":"MENDIP","county":"SOMERSET","ppdCategoryType":"Standard","recordStatus":"Addition","latitude":51.220735,"longitude":-2.315423,"postcodeStart":"BA11 5","postcode":["BA11","5AR"]}
{"price":63500,"dateOfTransfer":"1999-09-10T00:00:00","postcodeFull":"BA11 5JU","propertyType":"Terraced","oldOrNew":"Established","duration":"Freehold","paon":"16","saon":"","street":"THE RETREAT","locality":"","townOrCity":"FROME","district":"MENDIP","county":"SOMERSET","ppdCategoryType":"Standard","recordStatus":"Addition","latitude":51.227866,"longitude":-2.308554,"postcodeStart":"BA11 5","postcode":["BA11","5JU"]}
{"price":210000,"dateOfTransfer":"1999-09-24T00:00:00","postcodeFull":"BA11 5EY","propertyType":"Detached","oldOrNew":"Established","duration":"Freehold","paon":"PROSPECT COTTAGE","saon":"","street":"","locality":"GARE HILL","townOrCity":"FROME","district":"MENDIP","county":"SOMERSET","ppdCategoryType":"Standard","recordStatus":"Addition","latitude":51.160856,"longitude":-2.316115,"postcodeStart":"BA11 5","postcode":["BA11","5EY"]}
{"price":69950,"dateOfTransfer":"1999-04-20T00:00:00","postcodeFull":"BA11 5BD","propertyType":"Semi-detached","oldOrNew":"Established","duration":"Freehold","paon":"1","saon":"","street":"GURNVILLE COTTAGES","locality":"LITTLE KEYFORD","townOrCity":"FROME","district":"MENDIP","county":"SOMERSET","ppdCategoryType":"Standard","recordStatus":"Addition","latitude":51.217997,"longitude":-2.323522,"postcodeStart":"BA11 5","postcode":["BA11","5BD"]}
{"price":55000,"dateOfTransfer":"1999-09-23T00:00:00","postcodeFull":"BA11 5JU","propertyType":"Terraced","oldOrNew":"Established","duration":"Freehold","paon":"4","saon":"","street":"THE RETREAT","locality":"","townOrCity":"FROME","district":"MENDIP","county":"SOMERSET","ppdCategoryType":"Standard","recordStatus":"Addition","latitude":51.227866,"longitude":-2.308554,"postcodeStart":"BA11 5","postcode":["BA11","5JU"]}
{"price":28750,"dateOfTransfer":"1999-02-03T00:00:00","postcodeFull":"BA11 5AP","propertyType":"Flat/Maisonette/Townhouse","oldOrNew":"Established","duration":"Leasehold","paon":"18","saon":"","street":"TOWER VIEW","locality":"","townOrCity":"FROME","district":"MENDIP","county":"SOMERSET","ppdCategoryType":"Standard","recordStatus":"Addition","latitude":51.220362,"longitude":-2.317052,"postcodeStart":"BA11 5","postcode":["BA11","5AP"]}
{"price":46950,"dateOfTransfer":"1999-11-19T00:00:00","postcodeFull":"BA11 5AT","propertyType":"Terraced","oldOrNew":"Established","duration":"Freehold","paon":"5","saon":"","street":"HILLSIDE AVENUE","locality":"","townOrCity":"FROME","district":"MENDIP","county":"SOMERSET","ppdCategoryType":"Standard","recordStatus":"Addition","latitude":51.221085,"longitude":-2.319134,"postcodeStart":"BA11 5","postcode":["BA11","5AT"]}
{"price":70000,"dateOfTransfer":"1999-06-25T00:00:00","postcodeFull":"BA11 5HF","propertyType":"Terraced","oldOrNew":"Established","duration":"Freehold","paon":"50","saon":"","street":"","locality":"WITHAM FRIARY","townOrCity":"FROME","district":"MENDIP","county":"SOMERSET","ppdCategoryType":"Standard","recordStatus":"Addition","latitude":51.168396,"longitude":-2.366755,"postcodeStart":"BA11 5","postcode":["BA11","5HF"]}
{"price":57500,"dateOfTransfer":"1999-12-10T00:00:00","postcodeFull":"BA11 5JU","propertyType":"Terraced","oldOrNew":"Established","duration":"Freehold","paon":"3","saon":"","street":"THE RETREAT","locality":"","townOrCity":"FROME","district":"MENDIP","county":"SOMERSET","ppdCategoryType":"Standard","recordStatus":"Addition","latitude":51.227866,"longitude":-2.308554,"postcodeStart":"BA11 5","postcode":["BA11","5JU"]}
{"price":140000,"dateOfTransfer":"1999-01-29T00:00:00","postcodeFull":"BA11 5HF","propertyType":"Semi-detached","oldOrNew":"Established","duration":"Freehold","paon":"31","saon":"","street":"","locality":"WITHAM FRIARY","townOrCity":"FROME","district":"MENDIP","county":"SOMERSET","ppdCategoryType":"Standard","recordStatus":"Addition","latitude":51.168396,"longitude":-2.366755,"postcodeStart":"BA11 5","postcode":["BA11","5HF"]}
