{"price":39000,"dateOfTransfer":"1995-08-25T00:00:00","postcodeFull":"BS13 0RQ","propertyType":"Terraced","oldOrNew":"Established","duration":"Freehold","paon":"275","saon":"","street":"BISHPORT AVENUE","locality":"BRISTOL","townOrCity":"BRISTOL","district":"BRISTOL","county":"AVON","ppdCategoryType":"Standard","recordStatus":"Addition","latitude":51.404141,"longitude":-2.591627,"postcodeStart":"BS13 0","postcode":["BS13","0RQ"]}
{"price":33500,"dateOfTransfer":"1995-03-31T00:00:00","postcodeFull":"BS13 0AE","propertyType":"Semi-detached","oldOrNew":"Established","duration":"Freehold","paon":"116","saon":"","street":"FULFORD ROAD","locality":"BRISTOL","townOrCity":"BRISTOL","district":"BRISTOL","county":"AVON","ppdCategoryType":"Standard","recordStatus":"Addition","latitude":51.409397,"longitude":-2.599502,"postcodeStart":"BS13 0","postcode":["BS13","0AE"]}
{"price":36000,"dateOfTransfer":"1995-09-22T00:00:00","postcodeFull":"BS13 0RF","propertyType":"Terraced","oldOrNew":"Established","duration":"Freehold","paon":"18","saon":"","street":"TEYFANT ROAD","locality":"BRISTOL","townOrCity":"BRISTOL","district":"BRISTOL","county":"AVON","ppdCategoryType":"Standard","recordStatus":"Addition","latitude":51.405356,"longitude":-2.589357,"postcodeStart":"BS13 0","postcode":["BS13","0RF"]}
{"price":34000,"dateOfTransfer":"1995-08-02T00:00:00","postcodeFull":"BS13 0JZ","propertyType":"Terraced","oldOrNew":"Established","duration":"Freehold","paon":"23","saon":"","street":"PAVEY CLOSE","locality":"BRISTOL","townOrCity":"BRISTOL","district":"BRISTOL","county":"AVON","ppdCategoryType":"Standard","recordStatus":"Addition","latitude":51.408874,"longitude":-2.60158,"postcodeStart":"BS13 0","postcode":["BS13","0JZ"]}
{"price":35000,"dateOfTransfer":"1995-08-31T00:00:00","postcodeFull":"BS13 0PX","propertyType":"Semi-detached","oldOrNew":"Established","duration":"Freehold","paon":"32","saon":"","street":"TYNTE AVENUE","locality":"BRISTOL","townOrCity":"BRISTOL","district":"BRISTOL","county":"AVON","ppdCategoryType":"Standard","recordStatus":"Addition","latitude":51.40329,"longitude":-2.590926,"postcodeStart":"BS13 0","postcode":["BS13","0PX"]}
{"price":12000,"dateOfTransfer":"1995-05-26T00:00:00","postcodeFull":"BS13 0NU","propertyType":"Terraced","oldOrNew":"Established","duration":"Freehold","paon":"68","saon":"","street":"ALDWICK AVENUE","locality":"BRISTOL","townOrCity":"BRISTOL","district":"BRISTOL","county":"AVON","ppdCategoryType":"Standard","recordStatus":"Addition","latitude":51.401209,"longitude":-2.600717,"postcodeStart":"BS13 0","postcode":["BS13","0NU"]}
{"price":20000,"dateOfTransfer":"1995-05-16T00:00:00","postcodeFull":"BS13 0QT","propertyType":"Terraced","oldOrNew":"Established","duration":"Freehold","paon":"5","saon":"","street":"TOTSHILL DRIVE","locality":"BRISTOL","townOrCity":"BRISTOL","district":"BRISTOL","county":"AVON","ppdCategoryType":"Standard","recordStatus":"Addition","latitude":51.404737,"longitude":-2.58932,"postcodeStart":"BS13 0","postcode":["BS13","0QT"]}
{"price":24500,"dateOfTransfer":"1995-10-31T00:00:00","postcodeFull":"BS13 0DL","propertyType":"Terraced","oldOrNew":"Established","duration":"Freehold","paon":"30","saon":"","street":"BLAGROVE CLOSE","locality":"BRISTOL","townOrCity":"BRISTOL","district":"BRISTOL","county":"AVON","ppdCategoryType":"Standard","recordStatus":"Addition","latitude":51.402102,"longitude":-2.60175,"postcodeStart":"BS13 0","postcode":["BS13","0DL"]}
{"price":23000,"dateOfTransfer":"1995-11-30T00:00:00","postcodeFull":"BS13 0DS","propertyType":"Terraced","oldOrNew":"Established","duration":"Freehold","paon":"99","saon":"","street":"PAWLETT ROAD","locality":"BRISTOL","townOrCity":"BRISTOL","district":"BRISTOL","county":"AVON","ppdCategoryType":"Standard","recordStatus":"Addition","latitude":51.403798,"longitude":-2.604202,"postcodeStart":"BS13 0","postcode":["BS13","0DS"]}
{"price":25000,"dateOfTransfer":"1995-12-21T00:00:00","postcodeFull":"BS13 0QT","propertyType":"Terraced","oldOrNew":"Established","duration":"Freehold","paon":"13","saon":"","street":"TOTSHILL DRIVE","locality":"BRISTOL","townOrCity":"BRISTOL","district":"CITY OF BRISTOL","county":"CITY OF BRISTOL","ppdCategoryType":"Standard","recordStatus":"Addition","latitude":51.404737,"longitude":-2.58932,"postcodeStart":"BS13 0","postcode":["BS13","0QT"]}
{"price":8500,"dateOfTransfer":"1995-02-10T00:00:00","postcodeFull":"BS13 0PX","propertyType":"Terraced","oldOrNew":"Established","duration":"Freehold","paon":"26","saon":"","street":"TYNTE AVENUE","locality":"BRISTOL","townOrCity":"BRISTOL","district":"BRISTOL","county":"AVON","ppdCategoryType":"Standard","recordStatus":"Addition","latitude":51.40329,"longitude":-2.590926,"postcodeStart":"BS13 0","postcode":["BS13","0PX"]}
{"price":39500,"dateOfTransfer":"1995-08-25T00:00:00","postcodeFull":"BS13 0QG","propertyType":"Semi-detached","oldOrNew":"Established","duration":"Freehold","paon":"57","saon":"","street":"WITCH HAZEL ROAD","locality":"BRISTOL","townOrCity":"BRISTOL","district":"BRISTOL","county":"AVON","ppdCategoryType":"Standard","recordStatus":"Addition","latitude":51.405044,"longitude":-2.585299,"postcodeStart":"BS13 0","postcode":["BS13","0QG"]}
{"price":33500,"dateOfTransfer":"1995-02-17T00:00:00","postcodeFull":"BS13 0QX","propertyType":"Semi-detached","oldOrNew":"Established","duration":"Freehold","paon":"94","saon":"","street":"TOTSHILL DRIVE","locality":"BRISTOL","townOrCity":"BRISTOL","district":"BRISTOL","county":"AVON","ppdCategoryType":"Standard","recordStatus":"Addition","latitude":51.405778,"longitude":-2.586171,"postcodeStart":"BS13 0","postcode":["BS13","0QX"]}
{"price":29950,"dateOfTransfer":"1995-06-30T00:00:00","postcodeFull":"BS13 0QR","propertyType":"Semi-detached","oldOrNew":"Established","duration":"Freehold","paon":"37","saon":"","street":"SHORTWOOD ROAD","locality":"BRISTOL","townOrCity":"BRISTOL","district":"BRISTOL","county":"AVON","ppdCategoryType":"Standard","recordStatus":"Addition","latitude":51.4044,"longitude":-2.588468,"postcodeStart":"BS13 0","postcode":["BS13","0QR"]}
{"price":31995,"dateOfTransfer":"1995-12-20T00:00:00","postcodeFull":"BS13 0NQ","propertyType":"Terraced","oldOrNew":"Established","duration":"Freehold","paon":"15","saon":"","street":"MACEYS ROAD","locality":"BRISTOL","townOrCity":"BRISTOL","district":"BRISTOL","county":"AVON","ppdCategoryType":"Standard","recordStatus":"Addition","latitude":51.401518,"longitude":-2.596524,"postcodeStart":"BS13 0","postcode":["BS13","0NQ"]}
{"price":28700,"dateOfTransfer":"1995-12-18T00:00:00","postcodeFull":"BS13 0QF","propertyType":"Semi-detached","oldOrNew":"Established","duration":"Freehold","paon":"80","saon":"","street":"WITCH HAZEL ROAD","locality":"BRISTOL","townOrCity":"BRISTOL","district":"BRISTOL","county":"AVON","ppdCategoryType":"Standard","recordStatus":"Addition","latitude":51.404768,"longitude":-2.585065,"postcodeStart":"BS13 0","postcode":["BS13","0QF"]}
{"price":49995,"dateOfTransfer":"1995-01-13T00:00:00","postcodeFull":"BS13 0NU","propertyType":"Semi-detached","oldOrNew":"Established","duration":"Freehold","paon":"54","saon":"","street":"ALDWICK AVENUE","locality":"BRISTOL","townOrCity":"BRISTOL","district":"BRISTOL","county":"AVON","ppdCategoryType":"Standard","recordStatus":"Addition","latitude":51.401209,"longitude":-2.600717,"postcodeStart":"BS13 0","postcode":["BS13","0NU"]}
{"price":32000,"dateOfTransfer":"1995-01-20T00:00:00","postcodeFull":"BS13 0EZ","propertyType":"Terraced","oldOrNew":"Established","duration":"Freehold","paon":"4","saon":"","street":"DOWLING ROAD","locality":"BRISTOL","townOrCity":"BRISTOL","district":"BRISTOL","county":"AVON","ppdCategoryType":"Standard","recordStatus":"Addition","latitude":51.404591,"longitude":-2.596966,"postcodeStart":"BS13 0","postcode":["BS13","0EZ"]}
{"price":35000,"dateOfTransfer":"1995-04-11T00:00:00","postcodeFull":"BS13 0QR","propertyType":"Semi-detached","oldOrNew":"Established","duration":"Freehold","paon":"17","saon":"","street":"SHORTWOOD ROAD","locality":"BRISTOL","townOrCity":"BRISTOL","district":"BRISTOL","county":"AVON","ppdCategoryType":"Standard","recordStatus":"Addition","latitude":51.4044,"longitude":-2.588468,"postcodeStart":"BS13 0","postcode":["BS13","0QR"]}
{"price":22950,"dateOfTransfer":"1995-06-16T00:00:00","postcodeFull":"BS13 0PS","propertyType":"Terraced","oldOrNew":"Established","duration":"Freehold","paon":"13","saon":"","street":"MAIDENHEAD ROAD","locality":"BRISTOL","townOrCity":"BRISTOL","district":"BRISTOL","county":"AVON","ppdCategoryType":"Standard","recordStatus":"Addition","latitude":51.403684,"longitude":-2.591377,"postcodeStart":"BS13 0","postcode":["BS13","0PS"]}
{"price":34500,"dateOfTransfer":"1995-03-31T00:00:00","postcodeFull":"BS13 0LP","propertyType":"Semi-detached","oldOrNew":"Established","duration":"Freehold","paon":"16","saon":"","street":"RUDGEWOOD CLOSE","locality":"BRISTOL","townOrCity":"BRISTOL","district":"BRISTOL","county":"AVON","ppdCategoryType":"Standard","recordStatus":"Addition","latitude":51.407375,"longitude":-2.597664,"postcodeStart":"BS13 0","postcode":["BS13","0LP"]}
{"price":30000,"dateOfTransfer":"1995-03-02T00:00:00","postcodeFull":"BS13 0PZ","propertyType":"Terraced","oldOrNew":"Established","duration":"Freehold","paon":"44","saon":"","street":"LAMPTON AVENUE","locality":"BRISTOL","townOrCity":"BRISTOL","district":"BRISTOL","county":"AVON","ppdCategoryType":"Standard","recordStatus":"Addition","latitude":51.403496,"longitude":-2.589333,"postcodeStart":"BS13 0","postcode":["BS13","0PZ"]}
{"price":12500,"dateOfTransfer":"1995-09-06T00:00:00","postcodeFull":"BS13 0PX","propertyType":"Terraced","oldOrNew":"Established","duration":"Freehold","paon":"26","saon":"","street":"TYNTE AVENUE","locality":"BRISTOL","townOrCity":"BRISTOL","district":"BRISTOL","county":"AVON","ppdCategoryType":"Standard","recordStatus":"Addition","latitude":51.40329,"longitude":-2.590926,"postcodeStart":"BS13 0","postcode":["BS13","0PX"]}
{"price":39995,"dateOfTransfer":"1996-12-18T00:00:00","postcodeFull":"BS13 0HB","propertyType":"Semi-detached","oldOrNew":"Established","duration":"Freehold","paon":"22","saon":"","street":"BRANCHE GROVE","locality":"BRISTOL","townOrCity":"BRISTOL","district":"CITY OF BRISTOL","county":"CITY OF BRISTOL","ppdCategoryType":"Standard","recordStatus":"Addition","latitude":51.404403,"longitude":-2.59498,"postcodeStart":"BS13 0","postcode":["BS13","0HB"]}
{"price":31995,"dateOfTransfer":"1996-08-22T00:00:00","postcodeFull":"BS13 0NL","propertyType":"Terraced","oldOrNew":"Established","duration":"Freehold","paon":"48","saon":"","street":"TEWTHER ROAD","locality":"BRISTOL","townOrCity":"BRISTOL","district":"CITY OF BRISTOL","county":"CITY OF BRISTOL","ppdCategoryType":"Standard","recordStatus":"Addition","latitude":51.402068,"longitude":-2.597925,"postcodeStart":"BS13 0","postcode":["BS13","0NL"]}
{"price":35000,"dateOfTransfer":"1996-06-21T00:00:00","postcodeFull":"BS13 0LW","propertyType":"Terraced","oldOrNew":"Established","duration":"Freehold","paon":"15","saon":"","street":"DYERS CLOSE","locality":"BRISTOL","townOrCity":"BRISTOL","district":"CITY OF BRISTOL","county":"CITY OF BRISTOL","ppdCategoryType":"Standard","recordStatus":"Addition","latitude":51.407258,"longitude":-2.595894,"postcodeStart":"BS13 0","postcode":["BS13","0LW"]}
{"price":30500,"dateOfTransfer":"1996-11-22T00:00:00","postcodeFull":"BS13 0DS","propertyType":"Terraced","oldOrNew":"Established","duration":"Freehold","paon":"61","saon":"","street":"PAWLETT ROAD","locality":"BRISTOL","townOrCity":"BRISTOL","district":"CITY OF BRISTOL","county":"CITY OF BRISTOL","ppdCategoryType":"Standard","recordStatus":"Addition","latitude":51.403798,"longitude":-2.604202,"postcodeStart":"BS13 0","postcode":["BS13","0DS"]}
{"price":33500,"dateOfTransfer":"1996-09-27T00:00:00","postcodeFull":"BS13 0AG","propertyType":"Semi-detached","oldOrNew":"Established","duration":"Freehold","paon":"52","saon":"","street":"MAYNARD ROAD","locality":"BRISTOL","townOrCity":"BRISTOL","district":"CITY OF BRISTOL","county":"CITY OF BRISTOL","ppdCategoryType":"Standard","recordStatus":"Addition","latitude":51.410409,"longitude":-2.598595,"postcodeStart":"BS13 0","postcode":["BS13","0AG"]}
{"price":36000,"dateOfTransfer":"1996-10-07T00:00:00","postcodeFull":"BS13 0QN","propertyType":"Semi-detached","oldOrNew":"Established","duration":"Freehold","paon":"88","saon":"","street":"SHORTWOOD ROAD","locality":"BRISTOL","townOrCity":"BRISTOL","district":"CITY OF BRISTOL","county":"CITY OF BRISTOL","ppdCategoryType":"Standard","recordStatus":"Addition","latitude":51.405249,"longitude":-2.585804,"postcodeStart":"BS13 0","postcode":["BS13","0QN"]}
{"price":38000,"dateOfTransfer":"1996-11-29T00:00:00","postcodeFull":"BS13 0RD","propertyType":"Terraced","oldOrNew":"Established","duration":"Freehold","paon":"75","saon":"","street":"TOTSHILL DRIVE","locality":"BRISTOL","townOrCity":"BRISTOL","district":"CITY OF BRISTOL","county":"CITY OF BRISTOL","ppdCategoryType":"Standard","recordStatus":"Addition","latitude":51.406056,"longitude":-2.586404,"postcodeStart":"BS13 0","postcode":["BS13","0RD"]}
{"price":44500,"dateOfTransfer":"1996-12-20T00:00:00","postcodeFull":"BS13 0DR","propertyType":"Semi-detached","oldOrNew":"Established","duration":"Freehold","paon":"13","saon":"","street":"PAWLETT WALK","locality":"BRISTOL","townOrCity":"BRISTOL","district":"CITY OF BRISTOL","county":"CITY OF BRISTOL","ppdCategoryType":"Standard","recordStatus":"Addition","latitude":51.403479,"longitude":-2.603005,"postcodeStart":"BS13 0","postcode":["BS13","0DR"]}
{"price":34995,"dateOfTransfer":"1996-10-18T00:00:00","postcodeFull":"BS13 0BB","propertyType":"Semi-detached","oldOrNew":"Established","duration":"Freehold","paon":"6","saon":"","street":"WYMBUSH CRESCENT","locality":"BRISTOL","townOrCity":"BRISTOL","district":"CITY OF BRISTOL","county":"CITY OF BRISTOL","ppdCategoryType":"Standard","recordStatus":"Addition","latitude":51.41019,"longitude":-2.600936,"postcodeStart":"BS13 0","postcode":["BS13","0BB"]}
{"price":34000,"dateOfTransfer":"1996-06-28T00:00:00","postcodeFull":"BS13 0EZ","propertyType":"Terraced","oldOrNew":"Established","duration":"Freehold","paon":"4","saon":"","street":"DOWLING ROAD","locality":"BRISTOL","townOrCity":"BRISTOL","district":"CITY OF BRISTOL","county":"CITY OF BRISTOL","ppdCategoryType":"Standard","recordStatus":"Addition","latitude":51.404591,"longitude":-2.596966,"postcodeStart":"BS13 0","postcode":["BS13","0EZ"]}
{"price":33000,"dateOfTransfer":"1996-06-07T00:00:00","postcodeFull":"BS13 0EZ","propertyType":"Terraced","oldOrNew":"Established","duration":"Freehold","paon":"16","saon":"","street":"DOWLING ROAD","locality":"BRISTOL","townOrCity":"BRISTOL","district":"CITY OF BRISTOL","county":"CITY OF BRISTOL","ppdCategoryType":"Standard","recordStatus":"Addition","latitude":51.404591,"longitude":-2.596966,"postcodeStart":"BS13 0","postcode":["BS13","0EZ"]}
{"price":30500,"dateOfTransfer":"1996-05-24T00:00:00","postcodeFull":"BS13 0QX","propertyType":"Semi-detached","oldOrNew":"Established","duration":"Freehold","paon":"96","saon":"","street":"TOTSHILL DRIVE","locality":"BRISTOL","townOrCity":"BRISTOL","district":"CITY OF BRISTOL","county":"CITY OF BRISTOL","ppdCategoryType":"Standard","recordStatus":"Addition","latitude":51.405778,"longitude":-2.586171,"postcodeStart":"BS13 0","postcode":["BS13","0QX"]}
{"price":38950,"dateOfTransfer":"1996-09-11T00:00:00","postcodeFull":"BS13 0EP","propertyType":"Semi-detached","oldOrNew":"Established","duration":"Freehold","paon":"18","saon":"","street":"OXLEAZE","locality":"BRISTOL","townOrCity":"BRISTOL","district":"CITY OF BRISTOL","county":"CITY OF BRISTOL","ppdCategoryType":"Standard","recordStatus":"Addition","latitude":51.405951,"longitude":-2.594598,"postcodeStart":"BS13 0","postcode":["BS13","0EP"]}
{"price":30500,"dateOfTransfer":"1996-09-27T00:00:00","postcodeFull":"BS13 0HB","propertyType":"Semi-detached","oldOrNew":"Established","duration":"Freehold","paon":"17","saon":"","street":"BRANCHE GROVE","locality":"BRISTOL","townOrCity":"BRISTOL","district":"CITY OF BRISTOL","county":"CITY OF BRISTOL","ppdCategoryType":"Standard","recordStatus":"Addition","latitude":51.404403,"longitude":-2.59498,"postcodeStart":"BS13 0","postcode":["BS13","0HB"]}
{"price":35000,"dateOfTransfer":"1996-05-31T00:00:00","postcodeFull":"BS13 0NS","propertyType":"Terraced","oldOrNew":"Established","duration":"Freehold","paon":"48","saon":"","street":"MELLENT AVENUE","locality":"BRISTOL","townOrCity":"BRISTOL","district":"CITY OF BRISTOL","county":"CITY OF BRISTOL","ppdCategoryType":"Standard","recordStatus":"Addition","latitude":51.400705,"longitude":-2.598642,"postcodeStart":"BS13 0","postcode":["BS13","0NS"]}
{"price":35000,"dateOfTransfer":"1996-07-31T00:00:00","postcodeFull":"BS13 0AZ","propertyType":"Terraced","oldOrNew":"Established","duration":"Freehold","paon":"6","saon":"","street":"WYMBUSH GARDENS","locality":"BRISTOL","townOrCity":"BRISTOL","district":"CITY OF BRISTOL","county":"CITY OF BRISTOL","ppdCategoryType":"Standard","recordStatus":"Addition","latitude":51.410275,"longitude":-2.600132,"postcodeStart":"BS13 0","postcode":["BS13","0AZ"]}
{"price":40000,"dateOfTransfer":"1996-07-05T00:00:00","postcodeFull":"BS13 0EN","propertyType":"Semi-detached","oldOrNew":"Established","duration":"Freehold","paon":"4","saon":"","street":"SAMPSONS ROAD","locality":"BRISTOL","townOrCity":"BRISTOL","district":"CITY OF BRISTOL","county":"CITY OF BRISTOL","ppdCategoryType":"Standard","recordStatus":"Addition","latitude":51.405878,"longitude":-2.596595,"postcodeStart":"BS13 0","postcode":["BS13","0EN"]}
{"price":32000,"dateOfTransfer":"1996-11-15T00:00:00","postcodeFull":"BS13 0QE","propertyType":"Terraced","oldOrNew":"Established","duration":"Freehold","paon":"32","saon":"","street":"WITCH HAZEL ROAD","locality":"BRISTOL","townOrCity":"BRISTOL","district":"CITY OF BRISTOL","county":"CITY OF BRISTOL","ppdCategoryType":"Standard","recordStatus":"Addition","latitude":51.403965,"longitude":-2.587312,"postcodeStart":"BS13 0","postcode":["BS13","0QE"]}
{"price":21000,"dateOfTransfer":"1996-05-03T00:00:00","postcodeFull":"BS13 0LP","propertyType":"Terraced","oldOrNew":"Established","duration":"Freehold","paon":"3","saon":"","street":"RUDGEWOOD CLOSE","locality":"BRISTOL","townOrCity":"BRISTOL","district":"CITY OF BRISTOL","county":"CITY OF BRISTOL","ppdCategoryType":"Standard","recordStatus":"Addition","latitude":51.407375,"longitude":-2.597664,"postcodeStart":"BS13 0","postcode":["BS13","0LP"]}
{"price":33000,"dateOfTransfer":"1996-05-24T00:00:00","postcodeFull":"BS13 0RF","propertyType":"Semi-detached","oldOrNew":"Established","duration":"Freehold","paon":"12","saon":"","street":"TEYFANT ROAD","locality":"BRISTOL","townOrCity":"BRISTOL","district":"CITY OF BRISTOL","county":"CITY OF BRISTOL","ppdCategoryType":"Standard","recordStatus":"Addition","latitude":51.405356,"longitude":-2.589357,"postcodeStart":"BS13 0","postcode":["BS13","0RF"]}
{"price":43000,"dateOfTransfer":"1996-09-19T00:00:00","postcodeFull":"BS13 0QX","propertyType":"Terraced","oldOrNew":"Established","duration":"Freehold","paon":"98","saon":"","street":"TOTSHILL DRIVE","locality":"BRISTOL","townOrCity":"BRISTOL","district":"CITY OF BRISTOL","county":"CITY OF BRISTOL","ppdCategoryType":"Standard","recordStatus":"Addition","latitude":51.405778,"longitude":-2.586171,"postcodeStart":"BS13 0","postcode":["BS13","0QX"]}
{"price":27000,"dateOfTransfer":"1996-09-27T00:00:00","postcodeFull":"BS13 0NU","propertyType":"Terraced","oldOrNew":"Established","duration":"Freehold","paon":"68","saon":"","street":"ALDWICK AVENUE","locality":"BRISTOL","townOrCity":"BRISTOL","district":"CITY OF BRISTOL","county":"CITY OF BRISTOL","ppdCategoryType":"Standard","recordStatus":"Addition","latitude":51.401209,"longitude":-2.600717,"postcodeStart":"BS13 0","postcode":["BS13","0NU"]}
{"price":42000,"dateOfTransfer":"1996-07-26T00:00:00","postcodeFull":"BS13 0QX","propertyType":"Terraced","oldOrNew":"Established","duration":"Freehold","paon":"102","saon":"","street":"TOTSHILL DRIVE","locality":"BRISTOL","townOrCity":"BRISTOL","district":"CITY OF BRISTOL","county":"CITY OF BRISTOL","ppdCategoryType":"Standard","recordStatus":"Addition","latitude":51.405778,"longitude":-2.586171,"postcodeStart":"BS13 0","postcode":["BS13","0QX"]}
{"price":24000,"dateOfTransfer":"1997-03-21T00:00:00","postcodeFull":"BS13 0NP","propertyType":"Terraced","oldOrNew":"Established","duration":"Freehold","paon":"8","saon":"","street":"ENGLISHCOMBE ROAD","locality":"BRISTOL","townOrCity":"BRISTOL","district":"CITY OF BRISTOL","county":"CITY OF BRISTOL","ppdCategoryType":"Standard","recordStatus":"Addition","latitude":51.401497,"longitude":-2.598795,"postcodeStart":"BS13 0","postcode":["BS13","0NP"]}
{"price":30000,"dateOfTransfer":"1997-03-10T00:00:00","postcodeFull":"BS13 0LW","propertyType":"Terraced","oldOrNew":"Established","duration":"Freehold","paon":"4","saon":"","street":"DYERS CLOSE","locality":"BRISTOL","townOrCity":"BRISTOL","district":"CITY OF BRISTOL","county":"CITY OF BRISTOL","ppdCategoryType":"Standard","recordStatus":"Addition","latitude":51.407258,"longitude":-2.595894,"postcodeStart":"BS13 0","postcode":["BS13","0LW"]}
{"price":43500,"dateOfTransfer":"1997-06-12T00:00:00","postcodeFull":"BS13 0AP","propertyType":"Semi-detached","oldOrNew":"Established","duration":"Freehold","paon":"12","saon":"","street":"MAYNARD ROAD","locality":"BRISTOL","townOrCity":"BRISTOL","district":"CITY OF BRISTOL","county":"CITY OF BRISTOL","ppdCategoryType":"Standard","recordStatus":"Addition","latitude":51.412245,"longitude":-2.598346,"postcodeStart":"BS13 0","postcode":["BS13","0AP"]}
{"price":36000,"dateOfTransfer":"1997-12-05T00:00:00","postcodeFull":"BS13 0QX","propertyType":"Terraced","oldOrNew":"Established","duration":"Freehold","paon":"58","saon":"","street":"TOTSHILL DRIVE","locality":"BRISTOL","townOrCity":"BRISTOL","district":"CITY OF BRISTOL","county":"CITY OF BRISTOL","ppdCategoryType":"Standard","recordStatus":"Addition","latitude":51.405778,"longitude":-2.586171,"postcodeStart":"BS13 0","postcode":["BS13","0QX"]}
{"price":41000,"dateOfTransfer":"1997-03-06T00:00:00","postcodeFull":"BS13 0AX","propertyType":"Terraced","oldOrNew":"Established","duration":"Freehold","paon":"30","saon":"","street":"MAYNARD ROAD","locality":"BRISTOL","townOrCity":"BRISTOL","district":"CITY OF BRISTOL","county":"CITY OF BRISTOL","ppdCategoryType":"Standard","recordStatus":"Addition","latitude":51.411207,"longitude":-2.599008,"postcodeStart":"BS13 0","postcode":["BS13","0AX"]}
{"price":21000,"dateOfTransfer":"1997-08-08T00:00:00","postcodeFull":"BS13 0LP","propertyType":"Semi-detached","oldOrNew":"Established","duration":"Freehold","paon":"16","saon":"","street":"RUDGEWOOD CLOSE","locality":"BRISTOL","townOrCity":"BRISTOL","district":"CITY OF BRISTOL","county":"CITY OF BRISTOL","ppdCategoryType":"Standard","recordStatus":"Addition","latitude":51.407375,"longitude":-2.597664,"postcodeStart":"BS13 0","postcode":["BS13","0LP"]}
{"price":35000,"dateOfTransfer":"1997-01-23T00:00:00","postcodeFull":"BS13 0AY","propertyType":"Semi-detached","oldOrNew":"Established","duration":"Freehold","paon":"9","saon":"","street":"MILLIMAN CLOSE","locality":"BRISTOL","townOrCity":"BRISTOL","district":"CITY OF BRISTOL","county":"CITY OF BRISTOL","ppdCategoryType":"Standard","recordStatus":"Addition","latitude":51.411006,"longitude":-2.597898,"postcodeStart":"BS13 0","postcode":["BS13","0AY"]}
{"price":39450,"dateOfTransfer":"1997-07-31T00:00:00","postcodeFull":"BS13 0AH","propertyType":"Terraced","oldOrNew":"Established","duration":"Leasehold","paon":"155","saon":"","street":"FULFORD ROAD","locality":"BRISTOL","townOrCity":"BRISTOL","district":"CITY OF BRISTOL","county":"CITY OF BRISTOL","ppdCategoryType":"Standard","recordStatus":"Addition","latitude":51.4101,"longitude":-2.597426,"postcodeStart":"BS13 0","postcode":["BS13","0AH"]}
{"price":35500,"dateOfTransfer":"1997-05-07T00:00:00","postcodeFull":"BS13 0LF","propertyType":"Terraced","oldOrNew":"Established","duration":"Freehold","paon":"45","saon":"","street":"BRISCOES AVENUE","locality":"BRISTOL","townOrCity":"BRISTOL","district":"CITY OF BRISTOL","county":"CITY OF BRISTOL","ppdCategoryType":"Standard","recordStatus":"Addition","latitude":51.409591,"longitude":-2.596758,"postcodeStart":"BS13 0","postcode":["BS13","0LF"]}
{"price":25000,"dateOfTransfer":"1997-04-11T00:00:00","postcodeFull":"BS13 0QQ","propertyType":"Semi-detached","oldOrNew":"Established","duration":"Freehold","paon":"25","saon":"","street":"WITCH HAZEL ROAD","locality":"BRISTOL","townOrCity":"BRISTOL","district":"CITY OF BRISTOL","county":"CITY OF BRISTOL","ppdCategoryType":"Standard","recordStatus":"Addition","latitude":51.404152,"longitude":-2.587659,"postcodeStart":"BS13 0","postcode":["BS13","0QQ"]}
{"price":43300,"dateOfTransfer":"1997-12-16T00:00:00","postcodeFull":"BS13 0PH","propertyType":"Semi-detached","oldOrNew":"Established","duration":"Freehold","paon":"325","saon":"","street":"BISHPORT AVENUE","locality":"BRISTOL","townOrCity":"BRISTOL","district":"CITY OF BRISTOL","county":"CITY OF BRISTOL","ppdCategoryType":"Standard","recordStatus":"Addition","latitude":51.40349,"longitude":-2.597743,"postcodeStart":"BS13 0","postcode":["BS13","0PH"]}
{"price":39000,"dateOfTransfer":"1997-10-17T00:00:00","postcodeFull":"BS13 0PS","propertyType":"Terraced","oldOrNew":"Established","duration":"Freehold","paon":"11","saon":"","street":"MAIDENHEAD ROAD","locality":"BRISTOL","townOrCity":"BRISTOL","district":"CITY OF BRISTOL","county":"CITY OF BRISTOL","ppdCategoryType":"Standard","recordStatus":"Addition","latitude":51.403684,"longitude":-2.591377,"postcodeStart":"BS13 0","postcode":["BS13","0PS"]}
{"price":37000,"dateOfTransfer":"1997-10-17T00:00:00","postcodeFull":"BS13 0PS","propertyType":"Terraced","oldOrNew":"Established","duration":"Freehold","paon":"13","saon":"","street":"MAIDENHEAD ROAD","locality":"BRISTOL","townOrCity":"BRISTOL","district":"CITY OF BRISTOL","county":"CITY OF BRISTOL","ppdCategoryType":"Standard","recordStatus":"Addition","latitude":51.403684,"longitude":-2.591377,"postcodeStart":"BS13 0","postcode":["BS13","0PS"]}
{"price":29995,"dateOfTransfer":"1997-10-10T00:00:00","postcodeFull":"BS13 0NT","propertyType":"Terraced","oldOrNew":"Established","duration":"Freehold","paon":"6","saon":"","street":"MELLENT AVENUE","locality":"BRISTOL","townOrCity":"BRISTOL","district":"CITY OF BRISTOL","county":"CITY OF BRISTOL","ppdCategoryType":"Standard","recordStatus":"Addition","latitude":51.401006,"longitude":-2.599838,"postcodeStart":"BS13 0","postcode":["BS13","0NT"]}
{"price":28000,"dateOfTransfer":"1997-12-09T00:00:00","postcodeFull":"BS13 0LX","propertyType":"Terraced","oldOrNew":"Established","duration":"Freehold","paon":"532","saon":"","street":"HARECLIVE ROAD","locality":"BRISTOL","townOrCity":"BRISTOL","district":"CITY OF BRISTOL","county":"CITY OF BRISTOL","ppdCategoryType":"Standard","recordStatus":"Addition","latitude":51.406389,"longitude":-2.59666,"postcodeStart":"BS13 0","postcode":["BS13","0LX"]}
{"price":36000,"dateOfTransfer":"1997-12-19T00:00:00","postcodeFull":"BS13 0RQ","propertyType":"Terraced","oldOrNew":"Established","duration":"Freehold","paon":"269","saon":"","street":"BISHPORT AVENUE","locality":"BRISTOL","townOrCity":"BRISTOL","district":"CITY OF BRISTOL","county":"CITY OF BRISTOL","ppdCategoryType":"Standard","recordStatus":"Addition","latitude":51.404141,"longitude":-2.591627,"postcodeStart":"BS13 0","postcode":["BS13","0RQ"]}
{"price":39000,"dateOfTransfer":"1997-05-30T00:00:00","postcodeFull":"BS13 0QG","propertyType":"Semi-detached","oldOrNew":"Established","duration":"Freehold","paon":"57","saon":"","street":"WITCH HAZEL ROAD","locality":"BRISTOL","townOrCity":"BRISTOL","district":"CITY OF BRISTOL","county":"CITY OF BRISTOL","ppdCategoryType":"Standard","recordStatus":"Addition","latitude":51.405044,"longitude":-2.585299,"postcodeStart":"BS13 0","postcode":["BS13","0QG"]}
{"price":33000,"dateOfTransfer":"1997-06-27T00:00:00","postcodeFull":"BS13 0NF","propertyType":"Terraced","oldOrNew":"Established","duration":"Freehold","paon":"18","saon":"","street":"UPJOHN CRESCENT","locality":"BRISTOL","townOrCity":"BRISTOL","district":"CITY OF BRISTOL","county":"CITY OF BRISTOL","ppdCategoryType":"Standard","recordStatus":"Addition","latitude":51.402885,"longitude":-2.597806,"postcodeStart":"BS13 0","postcode":["BS13","0NF"]}
{"price":37500,"dateOfTransfer":"1997-11-07T00:00:00","postcodeFull":"BS13 0PJ","propertyType":"Semi-detached","oldOrNew":"Established","duration":"Freehold","paon":"3","saon":"","street":"CHELVY CLOSE","locality":"BRISTOL","townOrCity":"BRISTOL","district":"CITY OF BRISTOL","county":"CITY OF BRISTOL","ppdCategoryType":"Standard","recordStatus":"Addition","latitude":51.402941,"longitude":-2.596111,"postcodeStart":"BS13 0","postcode":["BS13","0PJ"]}
{"price":54000,"dateOfTransfer":"1997-07-11T00:00:00","postcodeFull":"BS13 0RB","propertyType":"Terraced","oldOrNew":"Established","duration":"Freehold","paon":"7","saon":"","street":"LOCKEMOR ROAD","locality":"BRISTOL","townOrCity":"BRISTOL","district":"CITY OF BRISTOL","county":"CITY OF BRISTOL","ppdCategoryType":"Standard","recordStatus":"Addition","latitude":51.406155,"longitude":-2.582797,"postcodeStart":"BS13 0","postcode":["BS13","0RB"]}
{"price":58000,"dateOfTransfer":"1997-10-31T00:00:00","postcodeFull":"BS13 0BH","propertyType":"Detached","oldOrNew":"Established","duration":"Freehold","paon":"81","saon":"","street":"HAWKFIELD ROAD","locality":"BRISTOL","townOrCity":"BRISTOL","district":"CITY OF BRISTOL","county":"CITY OF BRISTOL","ppdCategoryType":"Standard","recordStatus":"Addition","latitude":51.411793,"longitude":-2.595205,"postcodeStart":"BS13 0","postcode":["BS13","0BH"]}
{"price":40500,"dateOfTransfer":"1997-12-09T00:00:00","postcodeFull":"BS13 0QN","propertyType":"Semi-detached","oldOrNew":"Established","duration":"Freehold","paon":"54","saon":"","street":"SHORTWOOD ROAD","locality":"BRISTOL","townOrCity":"BRISTOL","district":"CITY OF BRISTOL","county":"CITY OF BRISTOL","ppdCategoryType":"Standard","recordStatus":"Addition","latitude":51.405249,"longitude":-2.585804,"postcodeStart":"BS13 0","postcode":["BS13","0QN"]}
{"price":32000,"dateOfTransfer":"1998-11-20T00:00:00","postcodeFull":"BS13 0LE","propertyType":"Terraced","oldOrNew":"Established","duration":"Freehold","paon":"8","saon":"","street":"MOWCROFT ROAD","locality":"BRISTOL","townOrCity":"BRISTOL","district":"CITY OF BRISTOL","county":"CITY OF BRISTOL","ppdCategoryType":"Standard","recordStatus":"Addition","latitude":51.409395,"longitude":-2.598136,"postcodeStart":"BS13 0","postcode":["BS13","0LE"]}
{"price":43995,"dateOfTransfer":"1998-06-30T00:00:00","postcodeFull":"BS13 0AH","propertyType":"Terraced","oldOrNew":"Established","duration":"Leasehold","paon":"145","saon":"","street":"FULFORD ROAD","locality":"BRISTOL","townOrCity":"BRISTOL","district":"CITY OF BRISTOL","county":"CITY OF BRISTOL","ppdCategoryType":"Standard","recordStatus":"Addition","latitude":51.4101,"longitude":-2.597426,"postcodeStart":"BS13 0","postcode":["BS13","0AH"]}
{"price":21000,"dateOfTransfer":"1998-04-27T00:00:00","postcodeFull":"BS13 0RF","propertyType":"Terraced","oldOrNew":"Established","duration":"Freehold","paon":"28","saon":"","street":"TEYFANT ROAD","locality":"BRISTOL","townOrCity":"BRISTOL","district":"CITY OF BRISTOL","county":"CITY OF BRISTOL","ppdCategoryType":"Standard","recordStatus":"Addition","latitude":51.405356,"longitude":-2.589357,"postcodeStart":"BS13 0","postcode":["BS13","0RF"]}
{"price":38500,"dateOfTransfer":"1998-01-30T00:00:00","postcodeFull":"BS13 0AG","propertyType":"Terraced","oldOrNew":"Established","duration":"Leasehold","paon":"65","saon":"","street":"MAYNARD ROAD","locality":"BRISTOL","townOrCity":"BRISTOL","district":"CITY OF BRISTOL","county":"CITY OF BRISTOL","ppdCategoryType":"Standard","recordStatus":"Addition","latitude":51.410409,"longitude":-2.598595,"postcodeStart":"BS13 0","postcode":["BS13","0AG"]}
{"price":44000,"dateOfTransfer":"1998-10-30T00:00:00","postcodeFull":"BS13 0QR","propertyType":"Terraced","oldOrNew":"Established","duration":"Freehold","paon":"11","saon":"","street":"SHORTWOOD ROAD","locality":"BRISTOL","townOrCity":"BRISTOL","district":"CITY OF BRISTOL","county":"CITY OF BRISTOL","ppdCategoryType":"Standard","recordStatus":"Addition","latitude":51.4044,"longitude":-2.588468,"postcodeStart":"BS13 0","postcode":["BS13","0QR"]}
{"price":31000,"dateOfTransfer":"1998-03-27T00:00:00","postcodeFull":"BS13 0AR","propertyType":"Terraced","oldOrNew":"Established","duration":"Freehold","paon":"9","saon":"","street":"MAYNARD CLOSE","locality":"BRISTOL","townOrCity":"BRISTOL","district":"CITY OF BRISTOL","county":"CITY OF BRISTOL","ppdCategoryType":"Standard","recordStatus":"Addition","latitude":51.411985,"longitude":-2.599895,"postcodeStart":"BS13 0","postcode":["BS13","0AR"]}
{"price":43500,"dateOfTransfer":"1998-06-19T00:00:00","postcodeFull":"BS13 0QB","propertyType":"Terraced","oldOrNew":"Established","duration":"Freehold","paon":"37","saon":"","street":"LAMPTON GROVE","locality":"BRISTOL","townOrCity":"BRISTOL","district":"CITY OF BRISTOL","county":"CITY OF BRISTOL","ppdCategoryType":"Standard","recordStatus":"Addition","latitude":51.402867,"longitude":-2.589267,"postcodeStart":"BS13 0","postcode":["BS13","0QB"]}
{"price":33500,"dateOfTransfer":"1998-09-01T00:00:00","postcodeFull":"BS13 0QX","propertyType":"Semi-detached","oldOrNew":"Established","duration":"Freehold","paon":"90","saon":"","street":"TOTSHILL DRIVE","locality":"BRISTOL","townOrCity":"BRISTOL","district":"CITY OF BRISTOL","county":"CITY OF BRISTOL","ppdCategoryType":"Standard","recordStatus":"Addition","latitude":51.405778,"longitude":-2.586171,"postcodeStart":"BS13 0","postcode":["BS13","0QX"]}
{"price":40000,"dateOfTransfer":"1998-10-29T00:00:00","postcodeFull":"BS13 0QQ","propertyType":"Terraced","oldOrNew":"Established","duration":"Freehold","paon":"23","saon":"","street":"WITCH HAZEL ROAD","locality":"BRISTOL","townOrCity":"BRISTOL","district":"CITY OF BRISTOL","county":"CITY OF BRISTOL","ppdCategoryType":"Standard","recordStatus":"Addition","latitude":51.404152,"longitude":-2.587659,"postcodeStart":"BS13 0","postcode":["BS13","0QQ"]}
{"price":59950,"dateOfTransfer":"1998-08-20T00:00:00","postcodeFull":"BS13 0QG","propertyType":"Terraced","oldOrNew":"Established","duration":"Freehold","paon":"67","saon":"","street":"WITCH HAZEL ROAD","locality":"BRISTOL","townOrCity":"BRISTOL","district":"CITY OF BRISTOL","county":"CITY OF BRISTOL","ppdCategoryType":"Standard","recordStatus":"Addition","latitude":51.405044,"longitude":-2.585299,"postcodeStart":"BS13 0","postcode":["BS13","0QG"]}
{"price":44000,"dateOfTransfer":"1998-07-17T00:00:00","postcodeFull":"BS13 0AL","propertyType":"Semi-detached","oldOrNew":"Established","duration":"Freehold","paon":"44","saon":"","street":"BLACKTHORN ROAD","locality":"BRISTOL","townOrCity":"BRISTOL","district":"CITY OF BRISTOL","county":"CITY OF BRISTOL","ppdCategoryType":"Standard","recordStatus":"Addition","latitude":51.411019,"longitude":-2.597036,"postcodeStart":"BS13 0","postcode":["BS13","0AL"]}
{"price":21000,"dateOfTransfer":"1998-09-16T00:00:00","postcodeFull":"BS13 0LT","propertyType":"Terraced","oldOrNew":"Established","duration":"Freehold","paon":"30","saon":"","street":"MOWCROFT ROAD","locality":"BRISTOL","townOrCity":"BRISTOL","district":"CITY OF BRISTOL","county":"CITY OF BRISTOL","ppdCategoryType":"Standard","recordStatus":"Addition","latitude":51.40767,"longitude":-2.597984,"postcodeStart":"BS13 0","postcode":["BS13","0LT"]}
{"price":35000,"dateOfTransfer":"1998-02-27T00:00:00","postcodeFull":"BS13 0QU","propertyType":"Terraced","oldOrNew":"Established","duration":"Freehold","paon":"12","saon":"","street":"TOTSHILL DRIVE","locality":"BRISTOL","townOrCity":"BRISTOL","district":"CITY OF BRISTOL","county":"CITY OF BRISTOL","ppdCategoryType":"Standard","recordStatus":"Addition","latitude":51.404686,"longitude":-2.588859,"postcodeStart":"BS13 0","postcode":["BS13","0QU"]}
{"price":34000,"dateOfTransfer":"1998-08-28T00:00:00","postcodeFull":"BS13 0DP","propertyType":"Terraced","oldOrNew":"Established","duration":"Freehold","paon":"1","saon":"","street":"PAWLETT ROAD","locality":"BRISTOL","townOrCity":"BRISTOL","district":"CITY OF BRISTOL","county":"CITY OF BRISTOL","ppdCategoryType":"Standard","recordStatus":"Addition","latitude":51.403141,"longitude":-2.600485,"postcodeStart":"BS13 0","postcode":["BS13","0DP"]}
{"price":29950,"dateOfTransfer":"1998-10-30T00:00:00","postcodeFull":"BS13 0DQ","propertyType":"Terraced","oldOrNew":"Established","duration":"Freehold","paon":"35","saon":"","street":"BOWRING CLOSE","locality":"BRISTOL","townOrCity":"BRISTOL","district":"CITY OF BRISTOL","county":"CITY OF BRISTOL","ppdCategoryType":"Standard","recordStatus":"Addition","latitude":51.401584,"longitude":-2.602951,"postcodeStart":"BS13 0","postcode":["BS13","0DQ"]}
{"price":36000,"dateOfTransfer":"1998-03-05T00:00:00","postcodeFull":"BS13 0AZ","propertyType":"Semi-detached","oldOrNew":"Established","duration":"Freehold","paon":"10","saon":"","street":"WYMBUSH GARDENS","locality":"BRISTOL","townOrCity":"BRISTOL","district":"CITY OF BRISTOL","county":"CITY OF BRISTOL","ppdCategoryType":"Standard","recordStatus":"Addition","latitude":51.410275,"longitude":-2.600132,"postcodeStart":"BS13 0","postcode":["BS13","0AZ"]}
{"price":41000,"dateOfTransfer":"1998-03-31T00:00:00","postcodeFull":"BS13 0RD","propertyType":"Semi-detached","oldOrNew":"Established","duration":"Freehold","paon":"99","saon":"","street":"TOTSHILL DRIVE","locality":"BRISTOL","townOrCity":"BRISTOL","district":"CITY OF BRISTOL","county":"CITY OF BRISTOL","ppdCategoryType":"Standard","recordStatus":"Addition","latitude":51.406056,"longitude":-2.586404,"postcodeStart":"BS13 0","postcode":["BS13","0RD"]}
{"price":17950,"dateOfTransfer":"1998-11-27T00:00:00","postcodeFull":"BS13 0LF","propertyType":"Terraced","oldOrNew":"Established","duration":"Freehold","paon":"65","saon":"","street":"BRISCOES AVENUE","locality":"BRISTOL","townOrCity":"BRISTOL","district":"CITY OF BRISTOL","county":"CITY OF BRISTOL","ppdCategoryType":"Standard","recordStatus":"Addition","latitude":51.409591,"longitude":-2.596758,"postcodeStart":"BS13 0","postcode":["BS13","0LF"]}
{"price":43500,"dateOfTransfer":"1998-07-27T00:00:00","postcodeFull":"BS13 0DE","propertyType":"Semi-detached","oldOrNew":"Established","duration":"Freehold","paon":"67","saon":"","street":"CROSSCOMBE DRIVE","locality":"BRISTOL","townOrCity":"BRISTOL","district":"CITY OF BRISTOL","county":"CITY OF BRISTOL","ppdCategoryType":"Standard","recordStatus":"Addition","latitude":51.403065,"longitude":-2.603416,"postcodeStart":"BS13 0","postcode":["BS13","0DE"]}
{"price":40000,"dateOfTransfer":"1998-03-13T00:00:00","postcodeFull":"BS13 0QX","propertyType":"Terraced","oldOrNew":"Established","duration":"Freehold","paon":"54","saon":"","street":"TOTSHILL DRIVE","locality":"BRISTOL","townOrCity":"BRISTOL","district":"CITY OF BRISTOL","county":"CITY OF BRISTOL","ppdCategoryType":"Standard","recordStatus":"Addition","latitude":51.405778,"longitude":-2.586171,"postcodeStart":"BS13 0","postcode":["BS13","0QX"]}
{"price":41000,"dateOfTransfer":"1998-12-21T00:00:00","postcodeFull":"BS13 0QR","propertyType":"Semi-detached","oldOrNew":"Established","duration":"Freehold","paon":"21","saon":"","street":"SHORTWOOD ROAD","locality":"BRISTOL","townOrCity":"BRISTOL","district":"CITY OF BRISTOL","county":"CITY OF BRISTOL","ppdCategoryType":"Standard","recordStatus":"Addition","latitude":51.4044,"longitude":-2.588468,"postcodeStart":"BS13 0","postcode":["BS13","0QR"]}
{"price":28000,"dateOfTransfer":"1998-11-24T00:00:00","postcodeFull":"BS13 0NP","propertyType":"Terraced","oldOrNew":"Established","duration":"Freehold","paon":"38","saon":"","street":"ENGLISHCOMBE ROAD","locality":"BRISTOL","townOrCity":"BRISTOL","district":"CITY OF BRISTOL","county":"CITY OF BRISTOL","ppdCategoryType":"Standard","recordStatus":"Addition","latitude":51.401497,"longitude":-2.598795,"postcodeStart":"BS13 0","postcode":["BS13","0NP"]}
{"price":53000,"dateOfTransfer":"1998-05-29T00:00:00","postcodeFull":"BS13 0RA","propertyType":"Terraced","oldOrNew":"Established","duration":"Freehold","paon":"12","saon":"","street":"BITTLE MEAD","locality":"BRISTOL","townOrCity":"BRISTOL","district":"CITY OF BRISTOL","county":"CITY OF BRISTOL","ppdCategoryType":"Standard","recordStatus":"Addition","latitude":51.405657,"longitude":-2.583409,"postcodeStart":"BS13 0","postcode":["BS13","0RA"]}
{"price":44500,"dateOfTransfer":"1998-04-29T00:00:00","postcodeFull":"BS13 0JX","propertyType":"Terraced","oldOrNew":"Established","duration":"Freehold","paon":"14","saon":"","street":"PAVEY ROAD","locality":"BRISTOL","townOrCity":"BRISTOL","district":"CITY OF BRISTOL","county":"CITY OF BRISTOL","ppdCategoryType":"Standard","recordStatus":"Addition","latitude":51.408518,"longitude":-2.600957,"postcodeStart":"BS13 0","postcode":["BS13","0JX"]}
{"price":39500,"dateOfTransfer":"1998-12-11T00:00:00","postcodeFull":"BS13 0QX","propertyType":"Terraced","oldOrNew":"Established","duration":"Freehold","paon":"76","saon":"","street":"TOTSHILL DRIVE","locality":"BRISTOL","townOrCity":"BRISTOL","district":"CITY OF BRISTOL","county":"CITY OF BRISTOL","ppdCategoryType":"Standard","recordStatus":"Addition","latitude":51.405778,"longitude":-2.586171,"postcodeStart":"BS13 0","postcode":["BS13","0QX"]}
{"price":42000,"dateOfTransfer":"1998-07-23T00:00:00","postcodeFull":"BS13 0AG","propertyType":"Terraced","oldOrNew":"Established","duration":"Leasehold","paon":"67","saon":"","street":"MAYNARD ROAD","locality":"BRISTOL","townOrCity":"BRISTOL","district":"CITY OF BRISTOL","county":"CITY OF BRISTOL","ppdCategoryType":"Standard","recordStatus":"Addition","latitude":51.410409,"longitude":-2.598595,"postcodeStart":"BS13 0","postcode":["BS13","0AG"]}
{"price":28500,"dateOfTransfer":"1998-09-11T00:00:00","postcodeFull":"BS13 0NZ","propertyType":"Semi-detached","oldOrNew":"Established","duration":"Freehold","paon":"2","saon":"","street":"ALDWICK AVENUE","locality":"BRISTOL","townOrCity":"BRISTOL","district":"CITY OF BRISTOL","county":"CITY OF BRISTOL","ppdCategoryType":"Standard","recordStatus":"Addition","latitude":51.403384,"longitude":-2.599093,"postcodeStart":"BS13 0","postcode":["BS13","0NZ"]}
{"price":21500,"dateOfTransfer":"1998-06-22T00:00:00","postcodeFull":"BS13 0LB","propertyType":"Terraced","oldOrNew":"Established","duration":"Leasehold","paon":"3","saon":"","street":"BRISCOES AVENUE","locality":"BRISTOL","townOrCity":"BRISTOL","district":"CITY OF BRISTOL","county":"CITY OF BRISTOL","ppdCategoryType":"Standard","recordStatus":"Addition","latitude":51.409019,"longitude":-2.599526,"postcodeStart":"BS13 0","postcode":["BS13","0LB"]}
{"price":34000,"dateOfTransfer":"1998-07-24T00:00:00","postcodeFull":"BS13 0AY","propertyType":"Terraced","oldOrNew":"Established","duration":"Freehold","paon":"11","saon":"","street":"MILLIMAN CLOSE","locality":"BRISTOL","townOrCity":"BRISTOL","district":"CITY OF BRISTOL","county":"CITY OF BRISTOL","ppdCategoryType":"Standard","recordStatus":"Addition","latitude":51.411006,"longitude":-2.597898,"postcodeStart":"BS13 0","postcode":["BS13","0AY"]}
{"price":27025,"dateOfTransfer":"1998-07-10T00:00:00","postcodeFull":"BS13 0QX","propertyType":"Terraced","oldOrNew":"Established","duration":"Freehold","paon":"76","saon":"","street":"TOTSHILL DRIVE","locality":"BRISTOL","townOrCity":"BRISTOL","district":"CITY OF BRISTOL","county":"CITY OF BRISTOL","ppdCategoryType":"Standard","recordStatus":"Addition","latitude":51.405778,"longitude":-2.586171,"postcodeStart":"BS13 0","postcode":["BS13","0QX"]}
{"price":32000,"dateOfTransfer":"1999-03-31T00:00:00","postcodeFull":"BS13 0HA","propertyType":"Terraced","oldOrNew":"Established","duration":"Freehold","paon":"15","saon":"","street":"DOWLING ROAD","locality":"","townOrCity":"BRISTOL","district":"CITY OF BRISTOL","county":"CITY OF BRISTOL","ppdCategoryType":"Standard","recordStatus":"Addition","latitude":51.404248,"longitude":-2.597091,"postcodeStart":"BS13 0","postcode":["BS13","0HA"]}
{"price":30500,"dateOfTransfer":"1999-04-09T00:00:00","postcodeFull":"BS13 0LA","propertyType":"Semi-detached","oldOrNew":"Established","duration":"Freehold","paon":"11","saon":"","street":"PAVEY ROAD","locality":"","townOrCity":"BRISTOL","district":"CITY OF BRISTOL","county":"CITY OF BRISTOL","ppdCategoryType":"Standard","recordStatus":"Addition","latitude":51.409141,"longitude":-2.600419,"postcodeStart":"BS13 0","postcode":["BS13","0LA"]}
{"price":43500,"dateOfTransfer":"1999-04-30T00:00:00","postcodeFull":"BS13 0QW","propertyType":"Semi-detached","oldOrNew":"Established","duration":"Freehold","paon":"77","saon":"","street":"SHORTWOOD ROAD","locality":"","townOrCity":"BRISTOL","district":"CITY OF BRISTOL","county":"CITY OF BRISTOL","ppdCategoryType":"Standard","recordStatus":"Addition","latitude":51.405473,"longitude":-2.586095,"postcodeStart":"BS13 0","postcode":["BS13","0QW"]}
{"price":34000,"dateOfTransfer":"1999-04-07T00:00:00","postcodeFull":"BS13 0DL","propertyType":"Terraced","oldOrNew":"Established","duration":"Freehold","paon":"33","saon":"","street":"BLAGROVE CLOSE","locality":"","townOrCity":"BRISTOL","district":"CITY OF BRISTOL","county":"CITY OF BRISTOL","ppdCategoryType":"Standard","recordStatus":"Addition","latitude":51.402102,"longitude":-2.60175,"postcodeStart":"BS13 0","postcode":["BS13","0DL"]}
{"price":37000,"dateOfTransfer":"1999-04-30T00:00:00","postcodeFull":"BS13 0EZ","propertyType":"Terraced","oldOrNew":"Established","duration":"Freehold","paon":"2","saon":"","street":"DOWLING ROAD","locality":"","townOrCity":"BRISTOL","district":"CITY OF BRISTOL","county":"CITY OF BRISTOL","ppdCategoryType":"Standard","recordStatus":"Addition","latitude":51.404591,"longitude":-2.596966,"postcodeStart":"BS13 0","postcode":["BS13","0EZ"]}
{"price":49000,"dateOfTransfer":"1999-01-15T00:00:00","postcodeFull":"BS13 0RA","propertyType":"Semi-detached","oldOrNew":"Established","duration":"Freehold","paon":"10","saon":"","street":"BITTLE MEAD","locality":"","townOrCity":"BRISTOL","district":"CITY OF BRISTOL","county":"CITY OF BRISTOL","ppdCategoryType":"Standard","recordStatus":"Addition","latitude":51.405657,"longitude":-2.583409,"postcodeStart":"BS13 0","postcode":["BS13","0RA"]}
{"price":44950,"dateOfTransfer":"1999-10-19T00:00:00","postcodeFull":"BS13 0RF","propertyType":"Terraced","oldOrNew":"Established","duration":"Freehold","paon":"8","saon":"","street":"TEYFANT ROAD","locality":"","townOrCity":"BRISTOL","district":"CITY OF BRISTOL","county":"CITY OF BRISTOL","ppdCategoryType":"Standard","recordStatus":"Addition","latitude":51.405356,"longitude":-2.589357,"postcodeStart":"BS13 0","postcode":["BS13","0RF"]}
{"price":49000,"dateOfTransfer":"1999-11-12T00:00:00","postcodeFull":"BS13 0EY","propertyType":"Semi-detached","oldOrNew":"Established","duration":"Freehold","paon":"18","saon":"","street":"HOLLISTERS DRIVE","locality":"","townOrCity":"BRISTOL","district":"CITY OF BRISTOL","county":"CITY OF BRISTOL","ppdCategoryType":"Standard","recordStatus":"Addition","latitude":51.4044,"longitude":-2.595627,"postcodeStart":"BS13 0","postcode":["BS13","0EY"]}
{"price":31500,"dateOfTransfer":"1999-02-22T00:00:00","postcodeFull":"BS13 0BN","propertyType":"Terraced","oldOrNew":"Established","duration":"Freehold","paon":"383","saon":"","street":"BISHPORT AVENUE","locality":"","townOrCity":"BRISTOL","district":"CITY OF BRISTOL","county":"CITY OF BRISTOL","ppdCategoryType":"Standard","recordStatus":"Addition","latitude":51.403791,"longitude":-2.600406,"postcodeStart":"BS13 0","postcode":["BS13","0BN"]}
{"price":29000,"dateOfTransfer":"1999-03-05T00:00:00","postcodeFull":"BS13 0RF","propertyType":"Terraced","oldOrNew":"Established","duration":"Freehold","paon":"22","saon":"","street":"TEYFANT ROAD","locality":"","townOrCity":"BRISTOL","district":"CITY OF BRISTOL","county":"CITY OF BRISTOL","ppdCategoryType":"Standard","recordStatus":"Addition","latitude":51.405356,"longitude":-2.589357,"postcodeStart":"BS13 0","postcode":["BS13","0RF"]}
{"price":35000,"dateOfTransfer":"1999-01-28T00:00:00","postcodeFull":"BS13 0PJ","propertyType":"Terraced","oldOrNew":"Established","duration":"Freehold","paon":"23","saon":"","street":"CHELVY CLOSE","locality":"","townOrCity":"BRISTOL","district":"CITY OF BRISTOL","county":"CITY OF BRISTOL","ppdCategoryType":"Standard","recordStatus":"Addition","latitude":51.402941,"longitude":-2.596111,"postcodeStart":"BS13 0","postcode":["BS13","0PJ"]}
{"price":30000,"dateOfTransfer":"1999-04-23T00:00:00","postcodeFull":"BS13 0PH","propertyType":"Terraced","oldOrNew":"Established","duration":"Freehold","paon":"341","saon":"","street":"BISHPORT AVENUE","locality":"","townOrCity":"BRISTOL","district":"CITY OF BRISTOL","county":"CITY OF BRISTOL","ppdCategoryType":"Standard","recordStatus":"Addition","latitude":51.40349,"longitude":-2.597743,"postcodeStart":"BS13 0","postcode":["BS13","0PH"]}
{"price":37950,"dateOfTransfer":"1999-11-05T00:00:00","postcodeFull":"BS13 0AE","propertyType":"Semi-detached","oldOrNew":"Established","duration":"Freehold","paon":"122","saon":"","street":"FULFORD ROAD","locality":"","townOrCity":"BRISTOL","district":"CITY OF BRISTOL","county":"CITY OF BRISTOL","ppdCategoryType":"Standard","recordStatus":"Addition","latitude":51.409397,"longitude":-2.599502,"postcodeStart":"BS13 0","postcode":["BS13","0AE"]}
{"price":63500,"dateOfTransfer":"1999-10-22T00:00:00","postcodeFull":"BS13 0QE","propertyType":"Semi-detached","oldOrNew":"Established","duration":"Freehold","paon":"8","saon":"","street":"WITCH HAZEL ROAD","locality":"","townOrCity":"BRISTOL","district":"CITY OF BRISTOL","county":"CITY OF BRISTOL","ppdCategoryType":"Standard","recordStatus":"Addition","latitude":51.403965,"longitude":-2.587312,"postcodeStart":"BS13 0","postcode":["BS13","0QE"]}
{"price":45500,"dateOfTransfer":"1999-11-12T00:00:00","postcodeFull":"BS13 0JX","propertyType":"Terraced","oldOrNew":"Established","duration":"Freehold","paon":"14","saon":"","street":"PAVEY ROAD","locality":"","townOrCity":"BRISTOL","district":"CITY OF BRISTOL","county":"CITY OF BRISTOL","ppdCategoryType":"Standard","recordStatus":"Addition","latitude":51.408518,"longitude":-2.600957,"postcodeStart":"BS13 0","postcode":["BS13","0JX"]}
{"price":36500,"dateOfTransfer":"1999-01-29T00:00:00","postcodeFull":"BS13 0LN","propertyType":"Semi-detached","oldOrNew":"Established","duration":"Freehold","paon":"34","saon":"","street":"WROUGHTON DRIVE","locality":"","townOrCity":"BRISTOL","district":"CITY OF BRISTOL","county":"CITY OF BRISTOL","ppdCategoryType":"Standard","recordStatus":"Addition","latitude":51.407924,"longitude":-2.595773,"postcodeStart":"BS13 0","postcode":["BS13","0LN"]}
{"price":46650,"dateOfTransfer":"1999-04-09T00:00:00","postcodeFull":"BS13 0DR","propertyType":"Semi-detached","oldOrNew":"Established","duration":"Freehold","paon":"13","saon":"","street":"PAWLETT WALK","locality":"","townOrCity":"BRISTOL","district":"CITY OF BRISTOL","county":"CITY OF BRISTOL","ppdCategoryType":"Standard","recordStatus":"Addition","latitude":51.403479,"longitude":-2.603005,"postcodeStart":"BS13 0","postcode":["BS13","0DR"]}
{"price":34000,"dateOfTransfer":"1999-11-23T00:00:00","postcodeFull":"BS13 0BY","propertyType":"Terraced","oldOrNew":"Established","duration":"Freehold","paon":"6","saon":"","street":"BOURCHIER GARDENS","locality":"","townOrCity":"BRISTOL","district":"CITY OF BRISTOL","county":"CITY OF BRISTOL","ppdCategoryType":"Standard","recordStatus":"Addition","latitude":51.403477,"longitude":-2.607259,"postcodeStart":"BS13 0","postcode":["BS13","0BY"]}
{"price":43000,"dateOfTransfer":"1999-05-28T00:00:00","postcodeFull":"BS13 0QW","propertyType":"Semi-detached","oldOrNew":"Established","duration":"Freehold","paon":"61","saon":"","street":"SHORTWOOD ROAD","locality":"","townOrCity":"BRISTOL","district":"CITY OF BRISTOL","county":"CITY OF BRISTOL","ppdCategoryType":"Standard","recordStatus":"Addition","latitude":51.405473,"longitude":-2.586095,"postcodeStart":"BS13 0","postcode":["BS13","0QW"]}
{"price":50995,"dateOfTransfer":"1999-11-25T00:00:00","postcodeFull":"BS13 0LW","propertyType":"Terraced","oldOrNew":"Established","duration":"Freehold","paon":"3","saon":"","street":"DYERS CLOSE","locality":"","townOrCity":"BRISTOL","district":"CITY OF BRISTOL","county":"CITY OF BRISTOL","ppdCategoryType":"Standard","recordStatus":"Addition","latitude":51.407258,"longitude":-2.595894,"postcodeStart":"BS13 0","postcode":["BS13","0LW"]}
{"price":57000,"dateOfTransfer":"1999-12-13T00:00:00","postcodeFull":"BS13 0RD","propertyType":"Terraced","oldOrNew":"Established","duration":"Freehold","paon":"97","saon":"","street":"TOTSHILL DRIVE","locality":"","townOrCity":"BRISTOL","district":"CITY OF BRISTOL","county":"CITY OF BRISTOL","ppdCategoryType":"Standard","recordStatus":"Addition","latitude":51.406056,"longitude":-2.586404,"postcodeStart":"BS13 0","postcode":["BS13","0RD"]}
{"price":43500,"dateOfTransfer":"1999-10-08T00:00:00","postcodeFull":"BS13 0QU","propertyType":"Terraced","oldOrNew":"Established","duration":"Freehold","paon":"14","saon":"","street":"TOTSHILL DRIVE","locality":"","townOrCity":"BRISTOL","district":"CITY OF BRISTOL","county":"CITY OF BRISTOL","ppdCategoryType":"Standard","recordStatus":"Addition","latitude":51.404686,"longitude":-2.588859,"postcodeStart":"BS13 0","postcode":["BS13","0QU"]}
{"price":40000,"dateOfTransfer":"1999-04-09T00:00:00","postcodeFull":"BS13 0RD","propertyType":"Semi-detached","oldOrNew":"Established","duration":"Freehold","paon":"101","saon":"","street":"TOTSHILL DRIVE","locality":"","townOrCity":"BRISTOL","district":"CITY OF BRISTOL","county":"CITY OF BRISTOL","ppdCategoryType":"Standard","recordStatus":"Addition","latitude":51.406056,"longitude":-2.586404,"postcodeStart":"BS13 0","postcode":["BS13","0RD"]}
{"price":26500,"dateOfTransfer":"1999-01-08T00:00:00","postcodeFull":"BS13 0NL","propertyType":"Semi-detached","oldOrNew":"Established","duration":"Freehold","paon":"26","saon":"","street":"TEWTHER ROAD","locality":"","townOrCity":"BRISTOL","district":"CITY OF BRISTOL","county":"CITY OF BRISTOL","ppdCategoryType":"Standard","recordStatus":"Addition","latitude":51.402068,"longitude":-2.597925,"postcodeStart":"BS13 0","postcode":["BS13","0NL"]}
{"price":35000,"dateOfTransfer":"1999-11-11T00:00:00","postcodeFull":"BS13 0QR","propertyType":"Terraced","oldOrNew":"Established","duration":"Freehold","paon":"3","saon":"","street":"SHORTWOOD ROAD","locality":"","townOrCity":"BRISTOL","district":"CITY OF BRISTOL","county":"CITY OF BRISTOL","ppdCategoryType":"Standard","recordStatus":"Addition","latitude":51.4044,"longitude":-2.588468,"postcodeStart":"BS13 0","postcode":["BS13","0QR"]}
{"price":44000,"dateOfTransfer":"1999-05-18T00:00:00","postcodeFull":"BS13 0JU","propertyType":"Semi-detached","oldOrNew":"Established","duration":"Freehold","paon":"44","saon":"","street":"GRINFIELD AVENUE","locality":"","townOrCity":"BRISTOL","district":"CITY OF BRISTOL","county":"CITY OF BRISTOL","ppdCategoryType":"Standard","recordStatus":"Addition","latitude":51.408037,"longitude":-2.601756,"postcodeStart":"BS13 0","postcode":["BS13","0JU"]}
{"price":25000,"dateOfTransfer":"1999-06-30T00:00:00","postcodeFull":"BS13 0NL","propertyType":"Semi-detached","oldOrNew":"Established","duration":"Freehold","paon":"22","saon":"","street":"TEWTHER ROAD","locality":"","townOrCity":"BRISTOL","district":"CITY OF BRISTOL","county":"CITY OF BRISTOL","ppdCategoryType":"Standard","recordStatus":"Addition","latitude":51.402068,"longitude":-2.597925,"postcodeStart":"BS13 0","postcode":["BS13","0NL"]}
{"price":46000,"dateOfTransfer":"1999-05-28T00:00:00","postcodeFull":"BS13 0QX","propertyType":"Semi-detached","oldOrNew":"Established","duration":"Freehold","paon":"58","saon":"","street":"TOTSHILL DRIVE","locality":"","townOrCity":"BRISTOL","district":"CITY OF BRISTOL","county":"CITY OF BRISTOL","ppdCategoryType":"Standard","recordStatus":"Addition","latitude":51.405778,"longitude":-2.586171,"postcodeStart":"BS13 0","postcode":["BS13","0QX"]}
{"price":24000,"dateOfTransfer":"1999-12-17T00:00:00","postcodeFull":"BS13 0PH","propertyType":"Terraced","oldOrNew":"Established","duration":"Freehold","paon":"333","saon":"","street":"BISHPORT AVENUE","locality":"","townOrCity":"BRISTOL","district":"CITY OF BRISTOL","county":"CITY OF BRISTOL","ppdCategoryType":"Standard","recordStatus":"Addition","latitude":51.40349,"longitude":-2.597743,"postcodeStart":"BS13 0","postcode":["BS13","0PH"]}
{"price":28000,"dateOfTransfer":"1999-11-26T00:00:00","postcodeFull":"BS13 0DH","propertyType":"Terraced","oldOrNew":"Established","duration":"Freehold","paon":"1","saon":"","street":"BOWRING CLOSE","locality":"","townOrCity":"BRISTOL","district":"CITY OF BRISTOL","county":"CITY OF BRISTOL","ppdCategoryType":"Standard","recordStatus":"Addition","latitude":51.401649,"longitude":-2.602506,"postcodeStart":"BS13 0","postcode":["BS13","0DH"]}
{"price":38000,"dateOfTransfer":"1999-11-12T00:00:00","postcodeFull":"BS13 0EY","propertyType":"Semi-detached","oldOrNew":"Established","duration":"Freehold","paon":"6","saon":"","street":"HOLLISTERS DRIVE","locality":"","townOrCity":"BRISTOL","district":"CITY OF BRISTOL","county":"CITY OF BRISTOL","ppdCategoryType":"Standard","recordStatus":"Addition","latitude":51.4044,"longitude":-2.595627,"postcodeStart":"BS13 0","postcode":["BS13","0EY"]}
{"price":50000,"dateOfTransfer":"1999-10-08T00:00:00","postcodeFull":"BS13 0BY","propertyType":"Semi-detached","oldOrNew":"Established","duration":"Freehold","paon":"9","saon":"","street":"BOURCHIER GARDENS","locality":"","townOrCity":"BRISTOL","district":"CITY OF BRISTOL","county":"CITY OF BRISTOL","ppdCategoryType":"Standard","recordStatus":"Addition","latitude":51.403477,"longitude":-2.607259,"postcodeStart":"BS13 0","postcode":["BS13","0BY"]}
{"price":23000,"dateOfTransfer":"1999-03-05T00:00:00","postcodeFull":"BS13 0NX","propertyType":"Terraced","oldOrNew":"Established","duration":"Freehold","paon":"43","saon":"","street":"ALDWICK AVENUE","locality":"","townOrCity":"BRISTOL","district":"CITY OF BRISTOL","county":"CITY OF BRISTOL","ppdCategoryType":"Standard","recordStatus":"Addition","latitude":51.401984,"longitude":-2.600239,"postcodeStart":"BS13 0","postcode":["BS13","0NX"]}
{"price":54000,"dateOfTransfer":"1999-05-28T00:00:00","postcodeFull":"BS13 0QE","propertyType":"Semi-detached","oldOrNew":"Established","duration":"Freehold","paon":"8","saon":"","street":"WITCH HAZEL ROAD","locality":"","townOrCity":"BRISTOL","district":"CITY OF BRISTOL","county":"CITY OF BRISTOL","ppdCategoryType":"Standard","recordStatus":"Addition","latitude":51.403965,"longitude":-2.587312,"postcodeStart":"BS13 0","postcode":["BS13","0QE"]}
{"price":46500,"dateOfTransfer":"1999-03-25T00:00:00","postcodeFull":"BS13 0PX","propertyType":"Terraced","oldOrNew":"Established","duration":"Freehold","paon":"29","saon":"","street":"TYNTE AVENUE","locality":"","townOrCity":"BRISTOL","district":"CITY OF BRISTOL","county":"CITY OF BRISTOL","ppdCategoryType":"Standard","recordStatus":"Addition","latitude":51.40329,"longitude":-2.590926,"postcodeStart":"BS13 0","postcode":["BS13","0PX"]}
{"price":28500,"dateOfTransfer":"1999-02-15T00:00:00","postcodeFull":"BS13 0BX","propertyType":"Terraced","oldOrNew":"Established","duration":"Freehold","paon":"39","saon":"","street":"BOURCHIER GARDENS","locality":"","townOrCity":"BRISTOL","district":"CITY OF BRISTOL","county":"CITY OF BRISTOL","ppdCategoryType":"Standard","recordStatus":"Addition","latitude":51.403826,"longitude":-2.607437,"postcodeStart":"BS13 0","postcode":["BS13","0BX"]}
{"price":47500,"dateOfTransfer":"1999-11-26T00:00:00","postcodeFull":"BS13 0AG","propertyType":"Terraced","oldOrNew":"Established","duration":"Leasehold","paon":"57","saon":"","street":"","locality":"PROSPECT ROAD","townOrCity":"BRISTOL","district":"CITY OF BRISTOL","county":"CITY OF BRISTOL","ppdCategoryType":"Standard","recordStatus":"Addition","latitude":51.410409,"longitude":-2.598595,"postcodeStart":"BS13 0","postcode":["BS13","0AG"]}
{"price":39000,"dateOfTransfer":"1999-06-11T00:00:00","postcodeFull":"BS13 0AD","propertyType":"Terraced","oldOrNew":"Established","duration":"Leasehold","paon":"111","saon":"","street":"FULFORD ROAD","locality":"","townOrCity":"BRISTOL","district":"CITY OF BRISTOL","county":"CITY OF BRISTOL","ppdCategoryType":"Standard","recordStatus":"Addition","latitude":51.409682,"longitude":-2.600124,"postcodeStart":"BS13 0","postcode":["BS13","0AD"]}
{"price":48500,"dateOfTransfer":"2000-01-10T00:00:00","postcodeFull":"BS13 0AG","propertyType":"Flat/Maisonette/Townhouse","oldOrNew":"Established","duration":"Leasehold","paon":"58","saon":"","street":"MAYNARD ROAD","locality":"","townOrCity":"BRISTOL","district":"CITY OF BRISTOL","county":"CITY OF BRISTOL","ppdCategoryType":"Standard","recordStatus":"Addition","latitude":51.410409,"longitude":-2.598595,"postcodeStart":"BS13 0","postcode":["BS13","0AG"]}
{"price":51000,"dateOfTransfer":"2000-04-18T00:00:00","postcodeFull":"BS13 0AG","propertyType":"Terraced","oldOrNew":"Established","duration":"Freehold","paon":"59","saon":"","street":"MAYNARD ROAD","locality":"","townOrCity":"BRISTOL","district":"CITY OF BRISTOL","county":"CITY OF BRISTOL","ppdCategoryType":"Standard","recordStatus":"Addition","latitude":51.410409,"longitude":-2.598595,"postcodeStart":"BS13 0","postcode":["BS13","0AG"]}
{"price":57995,"dateOfTransfer":"2000-01-14T00:00:00","postcodeFull":"BS13 0RD","propertyType":"Terraced","oldOrNew":"Established","duration":"Freehold","paon":"103","saon":"","street":"TOTSHILL DRIVE","locality":"","townOrCity":"BRISTOL","district":"CITY OF BRISTOL","county":"CITY OF BRISTOL","ppdCategoryType":"Standard","recordStatus":"Addition","latitude":51.406056,"longitude":-2.586404,"postcodeStart":"BS13 0","postcode":["BS13","0RD"]}
{"price":47995,"dateOfTransfer":"2000-02-11T00:00:00","postcodeFull":"BS13 0PX","propertyType":"Semi-detached","oldOrNew":"Established","duration":"Freehold","paon":"32","saon":"","street":"TYNTE AVENUE","locality":"","townOrCity":"BRISTOL","district":"CITY OF BRISTOL","county":"CITY OF BRISTOL","ppdCategoryType":"Standard","recordStatus":"Addition","latitude":51.40329,"longitude":-2.590926,"postcodeStart":"BS13 0","postcode":["BS13","0PX"]}
{"price":43000,"dateOfTransfer":"2000-12-01T00:00:00","postcodeFull":"BS13 0HD","propertyType":"Semi-detached","oldOrNew":"Established","duration":"Freehold","paon":"322","saon":"","street":"BISHPORT AVENUE","locality":"","townOrCity":"BRISTOL","district":"CITY OF BRISTOL","county":"CITY OF BRISTOL","ppdCategoryType":"Standard","recordStatus":"Addition","latitude":51.403781,"longitude":-2.595188,"postcodeStart":"BS13 0","postcode":["BS13","0HD"]}
{"price":44000,"dateOfTransfer":"2000-10-13T00:00:00","postcodeFull":"BS13 0AL","propertyType":"Terraced","oldOrNew":"Established","duration":"Freehold","paon":"46","saon":"","street":"BLACKTHORN ROAD","locality":"","townOrCity":"BRISTOL","district":"CITY OF BRISTOL","county":"CITY OF BRISTOL","ppdCategoryType":"Standard","recordStatus":"Addition","latitude":51.411019,"longitude":-2.597036,"postcodeStart":"BS13 0","postcode":["BS13","0AL"]}
{"price":59950,"dateOfTransfer":"2000-08-04T00:00:00","postcodeFull":"BS13 0QW","propertyType":"Terraced","oldOrNew":"Established","duration":"Freehold","paon":"39","saon":"","street":"SHORTWOOD ROAD","locality":"","townOrCity":"BRISTOL","district":"CITY OF BRISTOL","county":"CITY OF BRISTOL","ppdCategoryType":"Standard","recordStatus":"Addition","latitude":51.405473,"longitude":-2.586095,"postcodeStart":"BS13 0","postcode":["BS13","0QW"]}
{"price":57950,"dateOfTransfer":"2000-10-06T00:00:00","postcodeFull":"BS13 0RA","propertyType":"Terraced","oldOrNew":"Established","duration":"Freehold","paon":"11","saon":"","street":"BITTLE MEAD","locality":"","townOrCity":"BRISTOL","district":"CITY OF BRISTOL","county":"CITY OF BRISTOL","ppdCategoryType":"Standard","recordStatus":"Addition","latitude":51.405657,"longitude":-2.583409,"postcodeStart":"BS13 0","postcode":["BS13","0RA"]}
{"price":58000,"dateOfTransfer":"2000-08-04T00:00:00","postcodeFull":"BS13 0PH","propertyType":"Terraced","oldOrNew":"Established","duration":"Freehold","paon":"329","saon":"","street":"BISHPORT AVENUE","locality":"","townOrCity":"BRISTOL","district":"CITY OF BRISTOL","county":"CITY OF BRISTOL","ppdCategoryType":"Standard","recordStatus":"Addition","latitude":51.40349,"longitude":-2.597743,"postcodeStart":"BS13 0","postcode":["BS13","0PH"]}
{"price":43950,"dateOfTransfer":"2000-06-09T00:00:00","postcodeFull":"BS13 0NQ","propertyType":"Terraced","oldOrNew":"Established","duration":"Freehold","paon":"20","saon":"","street":"MACEYS ROAD","locality":"","townOrCity":"BRISTOL","district":"CITY OF BRISTOL","county":"CITY OF BRISTOL","ppdCategoryType":"Standard","recordStatus":"Addition","latitude":51.401518,"longitude":-2.596524,"postcodeStart":"BS13 0","postcode":["BS13","0NQ"]}
{"price":52000,"dateOfTransfer":"2000-06-02T00:00:00","postcodeFull":"BS13 0RF","propertyType":"Semi-detached","oldOrNew":"Established","duration":"Freehold","paon":"12","saon":"","street":"TEYFANT ROAD","locality":"","townOrCity":"BRISTOL","district":"CITY OF BRISTOL","county":"CITY OF BRISTOL","ppdCategoryType":"Standard","recordStatus":"Addition","latitude":51.405356,"longitude":-2.589357,"postcodeStart":"BS13 0","postcode":["BS13","0RF"]}
{"price":35000,"dateOfTransfer":"2000-01-28T00:00:00","postcodeFull":"BS13 0RD","propertyType":"Terraced","oldOrNew":"Established","duration":"Freehold","paon":"69","saon":"","street":"TOTSHILL DRIVE","locality":"","townOrCity":"BRISTOL","district":"CITY OF BRISTOL","county":"CITY OF BRISTOL","ppdCategoryType":"Standard","recordStatus":"Addition","latitude":51.406056,"longitude":-2.586404,"postcodeStart":"BS13 0","postcode":["BS13","0RD"]}
{"price":44000,"dateOfTransfer":"2000-04-20T00:00:00","postcodeFull":"BS13 0NY","propertyType":"Terraced","oldOrNew":"Established","duration":"Freehold","paon":"26","saon":"","street":"ALDWICK AVENUE","locality":"","townOrCity":"BRISTOL","district":"CITY OF BRISTOL","county":"CITY OF BRISTOL","ppdCategoryType":"Standard","recordStatus":"Addition","latitude":51.402806,"longitude":-2.599531,"postcodeStart":"BS13 0","postcode":["BS13","0NY"]}
{"price":18000,"dateOfTransfer":"2000-03-28T00:00:00","postcodeFull":"BS13 0QE","propertyType":"Detached","oldOrNew":"Established","duration":"Freehold","paon":"36","saon":"","street":"WITCH HAZEL ROAD","locality":"","townOrCity":"BRISTOL","district":"CITY OF BRISTOL","county":"CITY OF BRISTOL","ppdCategoryType":"Standard","recordStatus":"Addition","latitude":51.403965,"longitude":-2.587312,"postcodeStart":"BS13 0","postcode":["BS13","0QE"]}
{"price":47500,"dateOfTransfer":"2000-03-24T00:00:00","postcodeFull":"BS13 0AG","propertyType":"Semi-detached","oldOrNew":"Established","duration":"Freehold","paon":"75","saon":"","street":"MAYNARD ROAD","locality":"","townOrCity":"BRISTOL","district":"CITY OF BRISTOL","county":"CITY OF BRISTOL","ppdCategoryType":"Standard","recordStatus":"Addition","latitude":51.410409,"longitude":-2.598595,"postcodeStart":"BS13 0","postcode":["BS13","0AG"]}
{"price":50000,"dateOfTransfer":"2000-01-28T00:00:00","postcodeFull":"BS13 0PJ","propertyType":"Semi-detached","oldOrNew":"Established","duration":"Freehold","paon":"2","saon":"","street":"CHELVY CLOSE","locality":"","townOrCity":"BRISTOL","district":"CITY OF BRISTOL","county":"CITY OF BRISTOL","ppdCategoryType":"Standard","recordStatus":"Addition","latitude":51.402941,"longitude":-2.596111,"postcodeStart":"BS13 0","postcode":["BS13","0PJ"]}
{"price":18000,"dateOfTransfer":"2000-06-30T00:00:00","postcodeFull":"BS13 0QE","propertyType":"Detached","oldOrNew":"Established","duration":"Freehold","paon":"36","saon":"","street":"WITCH HAZEL ROAD","locality":"","townOrCity":"BRISTOL","district":"CITY OF BRISTOL","county":"CITY OF BRISTOL","ppdCategoryType":"Standard","recordStatus":"Addition","latitude":51.403965,"longitude":-2.587312,"postcodeStart":"BS13 0","postcode":["BS13","0QE"]}
{"price":60000,"dateOfTransfer":"2000-02-25T00:00:00","postcodeFull":"BS13 0QG","propertyType":"Terraced","oldOrNew":"Established","duration":"Freehold","paon":"59","saon":"","street":"WITCH HAZEL ROAD","locality":"","townOrCity":"BRISTOL","district":"CITY OF BRISTOL","county":"CITY OF BRISTOL","ppdCategoryType":"Standard","recordStatus":"Addition","latitude":51.405044,"longitude":-2.585299,"postcodeStart":"BS13 0","postcode":["BS13","0QG"]}
{"price":54950,"dateOfTransfer":"2000-11-03T00:00:00","postcodeFull":"BS13 0LP","propertyType":"Terraced","oldOrNew":"Established","duration":"Freehold","paon":"20","saon":"","street":"RUDGEWOOD CLOSE","locality":"","townOrCity":"BRISTOL","district":"CITY OF BRISTOL","county":"CITY OF BRISTOL","ppdCategoryType":"Standard","recordStatus":"Addition","latitude":51.407375,"longitude":-2.597664,"postcodeStart":"BS13 0","postcode":["BS13","0LP"]}
{"price":46000,"dateOfTransfer":"2000-07-21T00:00:00","postcodeFull":"BS13 0PW","propertyType":"Terraced","oldOrNew":"Established","duration":"Freehold","paon":"3","saon":"","street":"BARBOUR ROAD","locality":"","townOrCity":"BRISTOL","district":"CITY OF BRISTOL","county":"CITY OF BRISTOL","ppdCategoryType":"Standard","recordStatus":"Addition","latitude":51.403408,"longitude":-2.592725,"postcodeStart":"BS13 0","postcode":["BS13","0PW"]}
{"price":23500,"dateOfTransfer":"2000-06-08T00:00:00","postcodeFull":"BS13 0LJ","propertyType":"Terraced","oldOrNew":"Established","duration":"Freehold","paon":"16","saon":"","street":"WROUGHTON GARDENS","locality":"","townOrCity":"BRISTOL","district":"CITY OF BRISTOL","county":"CITY OF BRISTOL","ppdCategoryType":"Standard","recordStatus":"Addition","latitude":51.408693,"longitude":-2.596502,"postcodeStart":"BS13 0","postcode":["BS13","0LJ"]}
{"price":30000,"dateOfTransfer":"2000-03-29T00:00:00","postcodeFull":"BS13 0AE","propertyType":"Semi-detached","oldOrNew":"Established","duration":"Freehold","paon":"116","saon":"","street":"FULFORD ROAD","locality":"","townOrCity":"BRISTOL","district":"CITY OF BRISTOL","county":"CITY OF BRISTOL","ppdCategoryType":"Standard","recordStatus":"Addition","latitude":51.409397,"longitude":-2.599502,"postcodeStart":"BS13 0","postcode":["BS13","0AE"]}
{"price":58995,"dateOfTransfer":"2000-10-27T00:00:00","postcodeFull":"BS13 0QT","propertyType":"Terraced","oldOrNew":"Established","duration":"Freehold","paon":"9","saon":"","street":"TOTSHILL DRIVE","locality":"","townOrCity":"BRISTOL","district":"CITY OF BRISTOL","county":"CITY OF BRISTOL","ppdCategoryType":"Standard","recordStatus":"Addition","latitude":51.404737,"longitude":-2.58932,"postcodeStart":"BS13 0","postcode":["BS13","0QT"]}
{"price":32000,"dateOfTransfer":"2000-10-06T00:00:00","postcodeFull":"BS13 0NF","propertyType":"Terraced","oldOrNew":"Established","duration":"Freehold","paon":"26","saon":"","street":"UPJOHN CRESCENT","locality":"","townOrCity":"BRISTOL","district":"CITY OF BRISTOL","county":"CITY OF BRISTOL","ppdCategoryType":"Standard","recordStatus":"Addition","latitude":51.402885,"longitude":-2.597806,"postcodeStart":"BS13 0","postcode":["BS13","0NF"]}
{"price":47000,"dateOfTransfer":"2000-08-18T00:00:00","postcodeFull":"BS13 0LP","propertyType":"Semi-detached","oldOrNew":"Established","duration":"Freehold","paon":"16","saon":"","street":"RUDGEWOOD CLOSE","locality":"","townOrCity":"BRISTOL","district":"CITY OF BRISTOL","county":"CITY OF BRISTOL","ppdCategoryType":"Standard","recordStatus":"Addition","latitude":51.407375,"longitude":-2.597664,"postcodeStart":"BS13 0","postcode":["BS13","0LP"]}
{"price":44000,"dateOfTransfer":"2000-01-28T00:00:00","postcodeFull":"BS13 0QJ","propertyType":"Terraced","oldOrNew":"Established","duration":"Freehold","paon":"10","saon":"","street":"SHORTWOOD ROAD","locality":"","townOrCity":"BRISTOL","district":"CITY OF BRISTOL","county":"CITY OF BRISTOL","ppdCategoryType":"Standard","recordStatus":"Addition","latitude":51.404321,"longitude":-2.587992,"postcodeStart":"BS13 0","postcode":["BS13","0QJ"]}
{"price":58000,"dateOfTransfer":"2000-06-08T00:00:00","postcodeFull":"BS13 0BH","propertyType":"Detached","oldOrNew":"Established","duration":"Freehold","paon":"81","saon":"","street":"HAWKFIELD ROAD","locality":"","townOrCity":"BRISTOL","district":"CITY OF BRISTOL","county":"CITY OF BRISTOL","ppdCategoryType":"Standard","recordStatus":"Addition","latitude":51.411793,"longitude":-2.595205,"postcodeStart":"BS13 0","postcode":["BS13","0BH"]}
{"price":37500,"dateOfTransfer":"2000-12-08T00:00:00","postcodeFull":"BS13 0DH","propertyType":"Terraced","oldOrNew":"Established","duration":"Freehold","paon":"1","saon":"","street":"BOWRING CLOSE","locality":"","townOrCity":"BRISTOL","district":"CITY OF BRISTOL","county":"CITY OF BRISTOL","ppdCategoryType":"Standard","recordStatus":"Addition","latitude":51.401649,"longitude":-2.602506,"postcodeStart":"BS13 0","postcode":["BS13","0DH"]}
{"price":48950,"dateOfTransfer":"2000-08-04T00:00:00","postcodeFull":"BS13 0AG","propertyType":"Semi-detached","oldOrNew":"Established","duration":"Leasehold","paon":"64","saon":"","street":"MAYNARD ROAD","locality":"","townOrCity":"BRISTOL","district":"CITY OF BRISTOL","county":"CITY OF BRISTOL","ppdCategoryType":"Standard","recordStatus":"Addition","latitude":51.410409,"longitude":-2.598595,"postcodeStart":"BS13 0","postcode":["BS13","0AG"]}
{"price":50000,"dateOfTransfer":"2000-02-17T00:00:00","postcodeFull":"BS13 0QG","propertyType":"Semi-detached","oldOrNew":"Established","duration":"Freehold","paon":"57","saon":"","street":"WITCH HAZEL ROAD","locality":"","townOrCity":"BRISTOL","district":"CITY OF BRISTOL","county":"CITY OF BRISTOL","ppdCategoryType":"Standard","recordStatus":"Addition","latitude":51.405044,"longitude":-2.585299,"postcodeStart":"BS13 0","postcode":["BS13","0QG"]}
{"price":46950,"dateOfTransfer":"2000-08-22T00:00:00","postcodeFull":"BS13 0PX","propertyType":"Terraced","oldOrNew":"Established","duration":"Freehold","paon":"25","saon":"","street":"TYNTE AVENUE","locality":"","townOrCity":"BRISTOL","district":"CITY OF BRISTOL","county":"CITY OF BRISTOL","ppdCategoryType":"Standard","recordStatus":"Addition","latitude":51.40329,"longitude":-2.590926,"postcodeStart":"BS13 0","postcode":["BS13","0PX"]}
{"price":59995,"dateOfTransfer":"2000-11-03T00:00:00","postcodeFull":"BS13 0QW","propertyType":"Terraced","oldOrNew":"Established","duration":"Freehold","paon":"59","saon":"","street":"SHORTWOOD ROAD","locality":"","townOrCity":"BRISTOL","district":"CITY OF BRISTOL","county":"CITY OF BRISTOL","ppdCategoryType":"Standard","recordStatus":"Addition","latitude":51.405473,"longitude":-2.586095,"postcodeStart":"BS13 0","postcode":["BS13","0QW"]}
{"price":37500,"dateOfTransfer":"2000-04-19T00:00:00","postcodeFull":"BS13 0JZ","propertyType":"Terraced","oldOrNew":"Established","duration":"Freehold","paon":"23","saon":"","street":"PAVEY CLOSE","locality":"","townOrCity":"BRISTOL","district":"CITY OF BRISTOL","county":"CITY OF BRISTOL","ppdCategoryType":"Standard","recordStatus":"Addition","latitude":51.408874,"longitude":-2.60158,"postcodeStart":"BS13 0","postcode":["BS13","0JZ"]}
{"price":54000,"dateOfTransfer":"2000-07-28T00:00:00","postcodeFull":"BS13 0QX","propertyType":"Semi-detached","oldOrNew":"Established","duration":"Freehold","paon":"58","saon":"","street":"TOTSHILL DRIVE","locality":"","townOrCity":"BRISTOL","district":"CITY OF BRISTOL","county":"CITY OF BRISTOL","ppdCategoryType":"Standard","recordStatus":"Addition","latitude":51.405778,"longitude":-2.586171,"postcodeStart":"BS13 0","postcode":["BS13","0QX"]}
{"price":51000,"dateOfTransfer":"2000-01-14T00:00:00","postcodeFull":"BS13 0RE","propertyType":"Terraced","oldOrNew":"Established","duration":"Freehold","paon":"2","saon":"","street":"TEYFANT WALK","locality":"","townOrCity":"BRISTOL","district":"CITY OF BRISTOL","county":"CITY OF BRISTOL","ppdCategoryType":"Standard","recordStatus":"Addition","latitude":51.405514,"longitude":-2.588697,"postcodeStart":"BS13 0","postcode":["BS13","0RE"]}
{"price":49000,"dateOfTransfer":"2000-10-20T00:00:00","postcodeFull":"BS13 0NX","propertyType":"Terraced","oldOrNew":"Established","duration":"Freehold","paon":"41","saon":"","street":"ALDWICK AVENUE","locality":"","townOrCity":"BRISTOL","district":"CITY OF BRISTOL","county":"CITY OF BRISTOL","ppdCategoryType":"Standard","recordStatus":"Addition","latitude":51.401984,"longitude":-2.600239,"postcodeStart":"BS13 0","postcode":["BS13","0NX"]}
{"price":47000,"dateOfTransfer":"2000-01-14T00:00:00","postcodeFull":"BS13 0RE","propertyType":"Semi-detached","oldOrNew":"Established","duration":"Freehold","paon":"3","saon":"","street":"TEYFANT WALK","locality":"","townOrCity":"BRISTOL","district":"CITY OF BRISTOL","county":"CITY OF BRISTOL","ppdCategoryType":"Standard","recordStatus":"Addition","latitude":51.405514,"longitude":-2.588697,"postcodeStart":"BS13 0","postcode":["BS13","0RE"]}
{"price":57000,"dateOfTransfer":"2001-02-01T00:00:00","postcodeFull":"BS13 0AL","propertyType":"Semi-detached","oldOrNew":"Established","duration":"Freehold","paon":"44","saon":"","street":"BLACKTHORN ROAD","locality":"BRISTOL","townOrCity":"BRISTOL","district":"CITY OF BRISTOL","county":"CITY OF BRISTOL","ppdCategoryType":"Standard","recordStatus":"Addition","latitude":51.411019,"longitude":-2.597036,"postcodeStart":"BS13 0","postcode":["BS13","0AL"]}
{"price":89995,"dateOfTransfer":"2001-06-22T00:00:00","postcodeFull":"BS13 0BH","propertyType":"Detached","oldOrNew":"Established","duration":"Freehold","paon":"83","saon":"","street":"HAWKFIELD ROAD","locality":"BRISTOL","townOrCity":"BRISTOL","district":"CITY OF BRISTOL","county":"CITY OF BRISTOL","ppdCategoryType":"Standard","recordStatus":"Addition","latitude":51.411793,"longitude":-2.595205,"postcodeStart":"BS13 0","postcode":["BS13","0BH"]}
{"price":58995,"dateOfTransfer":"2001-07-11T00:00:00","postcodeFull":"BS13 0RE","propertyType":"Terraced","oldOrNew":"Established","duration":"Freehold","paon":"2","saon":"","street":"TEYFANT WALK","locality":"BRISTOL","townOrCity":"BRISTOL","district":"CITY OF BRISTOL","county":"CITY OF BRISTOL","ppdCategoryType":"Standard","recordStatus":"Addition","latitude":51.405514,"longitude":-2.588697,"postcodeStart":"BS13 0","postcode":["BS13","0RE"]}
{"price":66500,"dateOfTransfer":"2001-07-27T00:00:00","postcodeFull":"BS13 0QX","propertyType":"Terraced","oldOrNew":"Established","duration":"Freehold","paon":"60","saon":"","street":"TOTSHILL DRIVE","locality":"BRISTOL","townOrCity":"BRISTOL","district":"CITY OF BRISTOL","county":"CITY OF BRISTOL","ppdCategoryType":"Standard","recordStatus":"Addition","latitude":51.405778,"longitude":-2.586171,"postcodeStart":"BS13 0","postcode":["BS13","0QX"]}
{"price":55000,"dateOfTransfer":"2001-10-30T00:00:00","postcodeFull":"BS13 0QB","propertyType":"Terraced","oldOrNew":"Established","duration":"Freehold","paon":"35","saon":"","street":"LAMPTON GROVE","locality":"BRISTOL","townOrCity":"BRISTOL","district":"CITY OF BRISTOL","county":"CITY OF BRISTOL","ppdCategoryType":"Standard","recordStatus":"Addition","latitude":51.402867,"longitude":-2.589267,"postcodeStart":"BS13 0","postcode":["BS13","0QB"]}
{"price":45000,"dateOfTransfer":"2001-04-20T00:00:00","postcodeFull":"BS13 0NF","propertyType":"Terraced","oldOrNew":"Established","duration":"Freehold","paon":"14","saon":"","street":"UPJOHN CRESCENT","locality":"BRISTOL","townOrCity":"BRISTOL","district":"CITY OF BRISTOL","county":"CITY OF BRISTOL","ppdCategoryType":"Standard","recordStatus":"Addition","latitude":51.402885,"longitude":-2.597806,"postcodeStart":"BS13 0","postcode":["BS13","0NF"]}
{"price":57800,"dateOfTransfer":"2001-11-29T00:00:00","postcodeFull":"BS13 0DQ","propertyType":"Terraced","oldOrNew":"Established","duration":"Freehold","paon":"42","saon":"","street":"BOWRING CLOSE","locality":"BRISTOL","townOrCity":"BRISTOL","district":"CITY OF BRISTOL","county":"CITY OF BRISTOL","ppdCategoryType":"Standard","recordStatus":"Addition","latitude":51.401584,"longitude":-2.602951,"postcodeStart":"BS13 0","postcode":["BS13","0DQ"]}
{"price":64000,"dateOfTransfer":"2001-12-17T00:00:00","postcodeFull":"BS13 0QW","propertyType":"Semi-detached","oldOrNew":"Established","duration":"Freehold","paon":"67","saon":"","street":"SHORTWOOD ROAD","locality":"BRISTOL","townOrCity":"BRISTOL","district":"CITY OF BRISTOL","county":"CITY OF BRISTOL","ppdCategoryType":"Standard","recordStatus":"Addition","latitude":51.405473,"longitude":-2.586095,"postcodeStart":"BS13 0","postcode":["BS13","0QW"]}
{"price":59000,"dateOfTransfer":"2001-08-17T00:00:00","postcodeFull":"BS13 0BY","propertyType":"Semi-detached","oldOrNew":"Established","duration":"Freehold","paon":"9","saon":"","street":"BOURCHIER GARDENS","locality":"BRISTOL","townOrCity":"BRISTOL","district":"CITY OF BRISTOL","county":"CITY OF BRISTOL","ppdCategoryType":"Standard","recordStatus":"Addition","latitude":51.403477,"longitude":-2.607259,"postcodeStart":"BS13 0","postcode":["BS13","0BY"]}
{"price":46500,"dateOfTransfer":"2001-06-22T00:00:00","postcodeFull":"BS13 0NG","propertyType":"Terraced","oldOrNew":"Established","duration":"Freehold","paon":"40","saon":"","street":"UPJOHN CRESCENT","locality":"BRISTOL","townOrCity":"BRISTOL","district":"CITY OF BRISTOL","county":"CITY OF BRISTOL","ppdCategoryType":"Standard","recordStatus":"Addition","latitude":51.402418,"longitude":-2.596291,"postcodeStart":"BS13 0","postcode":["BS13","0NG"]}
{"price":53995,"dateOfTransfer":"2001-09-07T00:00:00","postcodeFull":"BS13 0EZ","propertyType":"Terraced","oldOrNew":"Established","duration":"Freehold","paon":"2","saon":"","street":"DOWLING ROAD","locality":"BRISTOL","townOrCity":"BRISTOL","district":"CITY OF BRISTOL","county":"CITY OF BRISTOL","ppdCategoryType":"Standard","recordStatus":"Addition","latitude":51.404591,"longitude":-2.596966,"postcodeStart":"BS13 0","postcode":["BS13","0EZ"]}
{"price":59995,"dateOfTransfer":"2001-12-14T00:00:00","postcodeFull":"BS13 0DQ","propertyType":"Terraced","oldOrNew":"Established","duration":"Freehold","paon":"41","saon":"","street":"BOWRING CLOSE","locality":"BRISTOL","townOrCity":"BRISTOL","district":"CITY OF BRISTOL","county":"CITY OF BRISTOL","ppdCategoryType":"Standard","recordStatus":"Addition","latitude":51.401584,"longitude":-2.602951,"postcodeStart":"BS13 0","postcode":["BS13","0DQ"]}
{"price":52000,"dateOfTransfer":"2001-12-03T00:00:00","postcodeFull":"BS13 0HA","propertyType":"Terraced","oldOrNew":"Established","duration":"Freehold","paon":"15","saon":"","street":"DOWLING ROAD","locality":"BRISTOL","townOrCity":"BRISTOL","district":"CITY OF BRISTOL","county":"CITY OF BRISTOL","ppdCategoryType":"Standard","recordStatus":"Addition","latitude":51.404248,"longitude":-2.597091,"postcodeStart":"BS13 0","postcode":["BS13","0HA"]}
{"price":58000,"dateOfTransfer":"2001-04-05T00:00:00","postcodeFull":"BS13 0PY","propertyType":"Terraced","oldOrNew":"Established","duration":"Freehold","paon":"14","saon":"","street":"TYNTE AVENUE","locality":"BRISTOL","townOrCity":"BRISTOL","district":"CITY OF BRISTOL","county":"CITY OF BRISTOL","ppdCategoryType":"Standard","recordStatus":"Addition","latitude":51.403167,"longitude":-2.590551,"postcodeStart":"BS13 0","postcode":["BS13","0PY"]}
{"price":55950,"dateOfTransfer":"2001-04-25T00:00:00","postcodeFull":"BS13 0NP","propertyType":"Terraced","oldOrNew":"Established","duration":"Freehold","paon":"44","saon":"","street":"ENGLISHCOMBE ROAD","locality":"BRISTOL","townOrCity":"BRISTOL","district":"CITY OF BRISTOL","county":"CITY OF BRISTOL","ppdCategoryType":"Standard","recordStatus":"Addition","latitude":51.401497,"longitude":-2.598795,"postcodeStart":"BS13 0","postcode":["BS13","0NP"]}
{"price":54000,"dateOfTransfer":"2001-12-14T00:00:00","postcodeFull":"BS13 0NS","propertyType":"Terraced","oldOrNew":"Established","duration":"Freehold","paon":"49","saon":"","street":"MELLENT AVENUE","locality":"BRISTOL","townOrCity":"BRISTOL","district":"CITY OF BRISTOL","county":"CITY OF BRISTOL","ppdCategoryType":"Standard","recordStatus":"Addition","latitude":51.400705,"longitude":-2.598642,"postcodeStart":"BS13 0","postcode":["BS13","0NS"]}
{"price":43000,"dateOfTransfer":"2001-07-20T00:00:00","postcodeFull":"BS13 0RD","propertyType":"Terraced","oldOrNew":"Established","duration":"Freehold","paon":"111","saon":"","street":"TOTSHILL DRIVE","locality":"BRISTOL","townOrCity":"BRISTOL","district":"CITY OF BRISTOL","county":"CITY OF BRISTOL","ppdCategoryType":"Standard","recordStatus":"Addition","latitude":51.406056,"longitude":-2.586404,"postcodeStart":"BS13 0","postcode":["BS13","0RD"]}
{"price":58500,"dateOfTransfer":"2001-03-30T00:00:00","postcodeFull":"BS13 0RF","propertyType":"Terraced","oldOrNew":"Established","duration":"Freehold","paon":"22","saon":"","street":"TEYFANT ROAD","locality":"BRISTOL","townOrCity":"BRISTOL","district":"CITY OF BRISTOL","county":"CITY OF BRISTOL","ppdCategoryType":"Standard","recordStatus":"Addition","latitude":51.405356,"longitude":-2.589357,"postcodeStart":"BS13 0","postcode":["BS13","0RF"]}
{"price":69000,"dateOfTransfer":"2001-11-23T00:00:00","postcodeFull":"BS13 0QF","propertyType":"Terraced","oldOrNew":"Established","duration":"Freehold","paon":"68","saon":"","street":"WITCH HAZEL ROAD","locality":"BRISTOL","townOrCity":"BRISTOL","district":"CITY OF BRISTOL","county":"CITY OF BRISTOL","ppdCategoryType":"Standard","recordStatus":"Addition","latitude":51.404768,"longitude":-2.585065,"postcodeStart":"BS13 0","postcode":["BS13","0QF"]}
{"price":58000,"dateOfTransfer":"2001-08-15T00:00:00","postcodeFull":"BS13 0EZ","propertyType":"Terraced","oldOrNew":"Established","duration":"Freehold","paon":"28","saon":"","street":"DOWLING ROAD","locality":"BRISTOL","townOrCity":"BRISTOL","district":"CITY OF BRISTOL","county":"CITY OF BRISTOL","ppdCategoryType":"Standard","recordStatus":"Addition","latitude":51.404591,"longitude":-2.596966,"postcodeStart":"BS13 0","postcode":["BS13","0EZ"]}
{"price":51995,"dateOfTransfer":"2001-01-17T00:00:00","postcodeFull":"BS13 0DQ","propertyType":"Terraced","oldOrNew":"Established","duration":"Freehold","paon":"40","saon":"","street":"BOWRING CLOSE","locality":"BRISTOL","townOrCity":"BRISTOL","district":"CITY OF BRISTOL","county":"CITY OF BRISTOL","ppdCategoryType":"Standard","recordStatus":"Addition","latitude":51.401584,"longitude":-2.602951,"postcodeStart":"BS13 0","postcode":["BS13","0DQ"]}
{"price":52950,"dateOfTransfer":"2001-12-14T00:00:00","postcodeFull":"BS13 0AD","propertyType":"Terraced","oldOrNew":"Established","duration":"Freehold","paon":"113","saon":"","street":"FULFORD ROAD","locality":"BRISTOL","townOrCity":"BRISTOL","district":"CITY OF BRISTOL","county":"CITY OF BRISTOL","ppdCategoryType":"Standard","recordStatus":"Addition","latitude":51.409682,"longitude":-2.600124,"postcodeStart":"BS13 0","postcode":["BS13","0AD"]}
{"price":66000,"dateOfTransfer":"2001-10-19T00:00:00","postcodeFull":"BS13 0QB","propertyType":"Terraced","oldOrNew":"Established","duration":"Freehold","paon":"25","saon":"","street":"LAMPTON GROVE","locality":"BRISTOL","townOrCity":"BRISTOL","district":"CITY OF BRISTOL","county":"CITY OF BRISTOL","ppdCategoryType":"Standard","recordStatus":"Addition","latitude":51.402867,"longitude":-2.589267,"postcodeStart":"BS13 0","postcode":["BS13","0QB"]}
{"price":58000,"dateOfTransfer":"2001-07-25T00:00:00","postcodeFull":"BS13 0QN","propertyType":"Semi-detached","oldOrNew":"Established","duration":"Freehold","paon":"88","saon":"","street":"SHORTWOOD ROAD","locality":"BRISTOL","townOrCity":"BRISTOL","district":"CITY OF BRISTOL","county":"CITY OF BRISTOL","ppdCategoryType":"Standard","recordStatus":"Addition","latitude":51.405249,"longitude":-2.585804,"postcodeStart":"BS13 0","postcode":["BS13","0QN"]}
{"price":64000,"dateOfTransfer":"2001-09-14T00:00:00","postcodeFull":"BS13 0AP","propertyType":"Semi-detached","oldOrNew":"Established","duration":"Freehold","paon":"8","saon":"","street":"MAYNARD ROAD","locality":"BRISTOL","townOrCity":"BRISTOL","district":"CITY OF BRISTOL","county":"CITY OF BRISTOL","ppdCategoryType":"Standard","recordStatus":"Addition","latitude":51.412245,"longitude":-2.598346,"postcodeStart":"BS13 0","postcode":["BS13","0AP"]}
{"price":49995,"dateOfTransfer":"2001-09-28T00:00:00","postcodeFull":"BS13 0NJ","propertyType":"Terraced","oldOrNew":"Established","duration":"Freehold","paon":"1","saon":"","street":"TEWTHER ROAD","locality":"BRISTOL","townOrCity":"BRISTOL","district":"CITY OF BRISTOL","county":"CITY OF BRISTOL","ppdCategoryType":"Standard","recordStatus":"Addition","latitude":51.402447,"longitude":-2.597772,"postcodeStart":"BS13 0","postcode":["BS13","0NJ"]}
{"price":52000,"dateOfTransfer":"2001-01-19T00:00:00","postcodeFull":"BS13 0DQ","propertyType":"Terraced","oldOrNew":"Established","duration":"Freehold","paon":"39","saon":"","street":"BOWRING CLOSE","locality":"BRISTOL","townOrCity":"BRISTOL","district":"CITY OF BRISTOL","county":"CITY OF BRISTOL","ppdCategoryType":"Standard","recordStatus":"Addition","latitude":51.401584,"longitude":-2.602951,"postcodeStart":"BS13 0","postcode":["BS13","0DQ"]}
{"price":42000,"dateOfTransfer":"2001-11-23T00:00:00","postcodeFull":"BS13 0PH","propertyType":"Terraced","oldOrNew":"Established","duration":"Freehold","paon":"341","saon":"","street":"BISHPORT AVENUE","locality":"BRISTOL","townOrCity":"BRISTOL","district":"CITY OF BRISTOL","county":"CITY OF BRISTOL","ppdCategoryType":"Standard","recordStatus":"Addition","latitude":51.40349,"longitude":-2.597743,"postcodeStart":"BS13 0","postcode":["BS13","0PH"]}
{"price":58950,"dateOfTransfer":"2001-01-19T00:00:00","postcodeFull":"BS13 0PH","propertyType":"Terraced","oldOrNew":"Established","duration":"Freehold","paon":"337","saon":"","street":"BISHPORT AVENUE","locality":"BRISTOL","townOrCity":"BRISTOL","district":"CITY OF BRISTOL","county":"CITY OF BRISTOL","ppdCategoryType":"Standard","recordStatus":"Addition","latitude":51.40349,"longitude":-2.597743,"postcodeStart":"BS13 0","postcode":["BS13","0PH"]}
{"price":45500,"dateOfTransfer":"2001-04-06T00:00:00","postcodeFull":"BS13 0AQ","propertyType":"Terraced","oldOrNew":"Established","duration":"Freehold","paon":"126","saon":"","street":"FULFORD ROAD","locality":"BRISTOL","townOrCity":"BRISTOL","district":"CITY OF BRISTOL","county":"CITY OF BRISTOL","ppdCategoryType":"Standard","recordStatus":"Addition","latitude":51.409905,"longitude":-2.596935,"postcodeStart":"BS13 0","postcode":["BS13","0AQ"]}
{"price":59500,"dateOfTransfer":"2001-06-29T00:00:00","postcodeFull":"BS13 0PS","propertyType":"Terraced","oldOrNew":"Established","duration":"Freehold","paon":"11","saon":"","street":"MAIDENHEAD ROAD","locality":"BRISTOL","townOrCity":"BRISTOL","district":"CITY OF BRISTOL","county":"CITY OF BRISTOL","ppdCategoryType":"Standard","recordStatus":"Addition","latitude":51.403684,"longitude":-2.591377,"postcodeStart":"BS13 0","postcode":["BS13","0PS"]}
{"price":46500,"dateOfTransfer":"2001-08-10T00:00:00","postcodeFull":"BS13 0JT","propertyType":"Terraced","oldOrNew":"Established","duration":"Freehold","paon":"20","saon":"","street":"GRINFIELD AVENUE","locality":"BRISTOL","townOrCity":"BRISTOL","district":"CITY OF BRISTOL","county":"CITY OF BRISTOL","ppdCategoryType":"Standard","recordStatus":"Addition","latitude":51.407832,"longitude":-2.599668,"postcodeStart":"BS13 0","postcode":["BS13","0JT"]}
{"price":58500,"dateOfTransfer":"2001-11-09T00:00:00","postcodeFull":"BS13 0NU","propertyType":"Terraced","oldOrNew":"Established","duration":"Freehold","paon":"73","saon":"","street":"ALDWICK AVENUE","locality":"BRISTOL","townOrCity":"BRISTOL","district":"CITY OF BRISTOL","county":"CITY OF BRISTOL","ppdCategoryType":"Standard","recordStatus":"Addition","latitude":51.401209,"longitude":-2.600717,"postcodeStart":"BS13 0","postcode":["BS13","0NU"]}
{"price":53000,"dateOfTransfer":"2001-11-02T00:00:00","postcodeFull":"BS13 0BX","propertyType":"Semi-detached","oldOrNew":"Established","duration":"Freehold","paon":"46","saon":"","street":"BOURCHIER GARDENS","locality":"BRISTOL","townOrCity":"BRISTOL","district":"CITY OF BRISTOL","county":"CITY OF BRISTOL","ppdCategoryType":"Standard","recordStatus":"Addition","latitude":51.403826,"longitude":-2.607437,"postcodeStart":"BS13 0","postcode":["BS13","0BX"]}
{"price":51000,"dateOfTransfer":"2001-01-26T00:00:00","postcodeFull":"BS13 0DF","propertyType":"Semi-detached","oldOrNew":"Established","duration":"Freehold","paon":"31","saon":"","street":"BLAGROVE CRESCENT","locality":"BRISTOL","townOrCity":"BRISTOL","district":"CITY OF BRISTOL","county":"CITY OF BRISTOL","ppdCategoryType":"Standard","recordStatus":"Addition","latitude":51.40252,"longitude":-2.604544,"postcodeStart":"BS13 0","postcode":["BS13","0DF"]}
{"price":50000,"dateOfTransfer":"2001-01-12T00:00:00","postcodeFull":"BS13 0NF","propertyType":"Terraced","oldOrNew":"Established","duration":"Freehold","paon":"13","saon":"","street":"UPJOHN CRESCENT","locality":"BRISTOL","townOrCity":"BRISTOL","district":"CITY OF BRISTOL","county":"CITY OF BRISTOL","ppdCategoryType":"Standard","recordStatus":"Addition","latitude":51.402885,"longitude":-2.597806,"postcodeStart":"BS13 0","postcode":["BS13","0NF"]}
{"price":45000,"dateOfTransfer":"2001-09-14T00:00:00","postcodeFull":"BS13 0AY","propertyType":"Terraced","oldOrNew":"Established","duration":"Freehold","paon":"3","saon":"","street":"MILLIMAN CLOSE","locality":"BRISTOL","townOrCity":"BRISTOL","district":"CITY OF BRISTOL","county":"CITY OF BRISTOL","ppdCategoryType":"Standard","recordStatus":"Addition","latitude":51.411006,"longitude":-2.597898,"postcodeStart":"BS13 0","postcode":["BS13","0AY"]}
{"price":76000,"dateOfTransfer":"2002-05-24T00:00:00","postcodeFull":"BS13 0AH","propertyType":"Terraced","oldOrNew":"Established","duration":"Leasehold","paon":"155","saon":"","street":"FULFORD ROAD","locality":"BRISTOL","townOrCity":"BRISTOL","district":"CITY OF BRISTOL","county":"CITY OF BRISTOL","ppdCategoryType":"Standard","recordStatus":"Addition","latitude":51.4101,"longitude":-2.597426,"postcodeStart":"BS13 0","postcode":["BS13","0AH"]}
{"price":63000,"dateOfTransfer":"2002-05-21T00:00:00","postcodeFull":"BS13 0NT","propertyType":"Terraced","oldOrNew":"Established","duration":"Freehold","paon":"12","saon":"","street":"MELLENT AVENUE","locality":"BRISTOL","townOrCity":"BRISTOL","district":"CITY OF BRISTOL","county":"CITY OF BRISTOL","ppdCategoryType":"Standard","recordStatus":"Addition","latitude":51.401006,"longitude":-2.599838,"postcodeStart":"BS13 0","postcode":["BS13","0NT"]}
{"price":79000,"dateOfTransfer":"2002-12-20T00:00:00","postcodeFull":"BS13 0NG","propertyType":"Terraced","oldOrNew":"Established","duration":"Freehold","paon":"50","saon":"","street":"UPJOHN CRESCENT","locality":"BRISTOL","townOrCity":"BRISTOL","district":"CITY OF BRISTOL","county":"CITY OF BRISTOL","ppdCategoryType":"Standard","recordStatus":"Addition","latitude":51.402418,"longitude":-2.596291,"postcodeStart":"BS13 0","postcode":["BS13","0NG"]}
{"price":57000,"dateOfTransfer":"2002-08-02T00:00:00","postcodeFull":"BS13 0QR","propertyType":"Semi-detached","oldOrNew":"Established","duration":"Freehold","paon":"15","saon":"","street":"SHORTWOOD ROAD","locality":"BRISTOL","townOrCity":"BRISTOL","district":"CITY OF BRISTOL","county":"CITY OF BRISTOL","ppdCategoryType":"Standard","recordStatus":"Addition","latitude":51.4044,"longitude":-2.588468,"postcodeStart":"BS13 0","postcode":["BS13","0QR"]}
{"price":72950,"dateOfTransfer":"2002-02-01T00:00:00","postcodeFull":"BS13 0AL","propertyType":"Terraced","oldOrNew":"Established","duration":"Freehold","paon":"2","saon":"","street":"BLACKTHORN ROAD","locality":"BRISTOL","townOrCity":"BRISTOL","district":"CITY OF BRISTOL","county":"CITY OF BRISTOL","ppdCategoryType":"Standard","recordStatus":"Addition","latitude":51.411019,"longitude":-2.597036,"postcodeStart":"BS13 0","postcode":["BS13","0AL"]}
{"price":45624,"dateOfTransfer":"2002-03-14T00:00:00","postcodeFull":"BS13 0PX","propertyType":"Terraced","oldOrNew":"Established","duration":"Freehold","paon":"29","saon":"","street":"TYNTE AVENUE","locality":"BRISTOL","townOrCity":"BRISTOL","district":"CITY OF BRISTOL","county":"CITY OF BRISTOL","ppdCategoryType":"Standard","recordStatus":"Addition","latitude":51.40329,"longitude":-2.590926,"postcodeStart":"BS13 0","postcode":["BS13","0PX"]}
{"price":69950,"dateOfTransfer":"2002-02-04T00:00:00","postcodeFull":"BS13 0RD","propertyType":"Semi-detached","oldOrNew":"Established","duration":"Freehold","paon":"109","saon":"","street":"TOTSHILL DRIVE","locality":"BRISTOL","townOrCity":"BRISTOL","district":"CITY OF BRISTOL","county":"CITY OF BRISTOL","ppdCategoryType":"Standard","recordStatus":"Addition","latitude":51.406056,"longitude":-2.586404,"postcodeStart":"BS13 0","postcode":["BS13","0RD"]}
{"price":64000,"dateOfTransfer":"2002-07-12T00:00:00","postcodeFull":"BS13 0NQ","propertyType":"Terraced","oldOrNew":"Established","duration":"Freehold","paon":"16","saon":"","street":"MACEYS ROAD","locality":"BRISTOL","townOrCity":"BRISTOL","district":"CITY OF BRISTOL","county":"CITY OF BRISTOL","ppdCategoryType":"Standard","recordStatus":"Addition","latitude":51.401518,"longitude":-2.596524,"postcodeStart":"BS13 0","postcode":["BS13","0NQ"]}
{"price":29000,"dateOfTransfer":"2002-05-17T00:00:00","postcodeFull":"BS13 0HL","propertyType":"Semi-detached","oldOrNew":"Established","duration":"Freehold","paon":"56","saon":"","street":"BELLAMY AVENUE","locality":"BRISTOL","townOrCity":"BRISTOL","district":"CITY OF BRISTOL","county":"CITY OF BRISTOL","ppdCategoryType":"Standard","recordStatus":"Addition","latitude":51.405076,"longitude":-2.602335,"postcodeStart":"BS13 0","postcode":["BS13","0HL"]}
{"price":62000,"dateOfTransfer":"2002-02-01T00:00:00","postcodeFull":"BS13 0LE","propertyType":"Terraced","oldOrNew":"Established","duration":"Freehold","paon":"1","saon":"","street":"MOWCROFT ROAD","locality":"BRISTOL","townOrCity":"BRISTOL","district":"CITY OF BRISTOL","county":"CITY OF BRISTOL","ppdCategoryType":"Standard","recordStatus":"Addition","latitude":51.409395,"longitude":-2.598136,"postcodeStart":"BS13 0","postcode":["BS13","0LE"]}
{"price":30000,"dateOfTransfer":"2002-11-18T00:00:00","postcodeFull":"BS13 0EU","propertyType":"Terraced","oldOrNew":"Established","duration":"Freehold","paon":"15","saon":"","street":"HOLBROOK CRESCENT","locality":"BRISTOL","townOrCity":"BRISTOL","district":"CITY OF BRISTOL","county":"CITY OF BRISTOL","ppdCategoryType":"Standard","recordStatus":"Addition","latitude":51.40531,"longitude":-2.596961,"postcodeStart":"BS13 0","postcode":["BS13","0EU"]}
{"price":38000,"dateOfTransfer":"2002-11-11T00:00:00","postcodeFull":"BS13 0NR","propertyType":"Terraced","oldOrNew":"Established","duration":"Freehold","paon":"59","saon":"","street":"ENGLISHCOMBE ROAD","locality":"BRISTOL","townOrCity":"BRISTOL","district":"CITY OF BRISTOL","county":"CITY OF BRISTOL","ppdCategoryType":"Standard","recordStatus":"Addition","latitude":51.400592,"longitude":-2.597921,"postcodeStart":"BS13 0","postcode":["BS13","0NR"]}
{"price":35000,"dateOfTransfer":"2002-07-29T00:00:00","postcodeFull":"BS13 0PS","propertyType":"Terraced","oldOrNew":"Established","duration":"Freehold","paon":"40","saon":"","street":"MAIDENHEAD ROAD","locality":"BRISTOL","townOrCity":"BRISTOL","district":"CITY OF BRISTOL","county":"CITY OF BRISTOL","ppdCategoryType":"Standard","recordStatus":"Addition","latitude":51.403684,"longitude":-2.591377,"postcodeStart":"BS13 0","postcode":["BS13","0PS"]}
