{"price":44000,"dateOfTransfer":"1995-10-27T00:00:00","postcodeFull":"BS15 9YH","propertyType":"Semi-detached","oldOrNew":"Established","duration":"Freehold","paon":"12","saon":"","street":"RODBOROUGH WAY","locality":"BRISTOL","townOrCity":"BRISTOL","district":"KINGSWOOD","county":"AVON","ppdCategoryType":"Standard","recordStatus":"Addition","latitude":51.456993,"longitude":-2.488452,"postcodeStart":"BS15 9","postcode":["BS15","9YH"]}
{"price":34000,"dateOfTransfer":"1995-03-31T00:00:00","postcodeFull":"BS15 9TW","propertyType":"Semi-detached","oldOrNew":"Established","duration":"Freehold","paon":"33A","saon":"","street":"BRAKE CLOSE","locality":"BRISTOL","townOrCity":"BRISTOL","district":"KINGSWOOD","county":"AVON","ppdCategoryType":"Standard","recordStatus":"Addition","latitude":51.455044,"longitude":-2.496592,"postcodeStart":"BS15 9","postcode":["BS15","9TW"]}
{"price":44500,"dateOfTransfer":"1995-11-30T00:00:00","postcodeFull":"BS15 9WX","propertyType":"Terraced","oldOrNew":"Established","duration":"Freehold","paon":"64","saon":"","street":"GLANVILLE GARDENS","locality":"BRISTOL","townOrCity":"BRISTOL","district":"KINGSWOOD","county":"AVON","ppdCategoryType":"Standard","recordStatus":"Addition","latitude":51.455261,"longitude":-2.500336,"postcodeStart":"BS15 9","postcode":["BS15","9WX"]}
{"price":54750,"dateOfTransfer":"1995-07-28T00:00:00","postcodeFull":"BS15 9SS","propertyType":"Detached","oldOrNew":"Established","duration":"Freehold","paon":"4","saon":"","street":"ELMFIELD","locality":"BRISTOL","townOrCity":"BRISTOL","district":"KINGSWOOD","county":"AVON","ppdCategoryType":"Standard","recordStatus":"Addition","latitude":51.453123,"longitude":-2.502184,"postcodeStart":"BS15 9","postcode":["BS15","9SS"]}
{"price":45000,"dateOfTransfer":"1995-06-09T00:00:00","postcodeFull":"BS15 9RE","propertyType":"Terraced","oldOrNew":"Established","duration":"Freehold","paon":"20","saon":"","street":"COURTNEY WAY","locality":"BRISTOL","townOrCity":"BRISTOL","district":"KINGSWOOD","county":"AVON","ppdCategoryType":"Standard","recordStatus":"Addition","latitude":51.457074,"longitude":-2.490583,"postcodeStart":"BS15 9","postcode":["BS15","9RE"]}
{"price":41000,"dateOfTransfer":"1995-07-28T00:00:00","postcodeFull":"BS15 9TD","propertyType":"Terraced","oldOrNew":"Established","duration":"Freehold","paon":"17","saon":"","street":"KINGSLEIGH COURT","locality":"BRISTOL","townOrCity":"BRISTOL","district":"KINGSWOOD","county":"AVON","ppdCategoryType":"Standard","recordStatus":"Addition","latitude":51.457626,"longitude":-2.491985,"postcodeStart":"BS15 9","postcode":["BS15","9TD"]}
{"price":45000,"dateOfTransfer":"1995-03-27T00:00:00","postcodeFull":"BS15 9PF","propertyType":"Terraced","oldOrNew":"Established","duration":"Freehold","paon":"55","saon":"","street":"WEDMORE CLOSE","locality":"BRISTOL","townOrCity":"BRISTOL","district":"KINGSWOOD","county":"AVON","ppdCategoryType":"Standard","recordStatus":"Addition","latitude":51.455392,"longitude":-2.497214,"postcodeStart":"BS15 9","postcode":["BS15","9PF"]}
{"price":44500,"dateOfTransfer":"1995-05-12T00:00:00","postcodeFull":"BS15 9TY","propertyType":"Terraced","oldOrNew":"Established","duration":"Freehold","paon":"80","saon":"","street":"ORCHARD ROAD","locality":"KINGSWOOD","townOrCity":"BRISTOL","district":"KINGSWOOD","county":"AVON","ppdCategoryType":"Standard","recordStatus":"Addition","latitude":51.459857,"longitude":-2.495982,"postcodeStart":"BS15 9","postcode":["BS15","9TY"]}
{"price":63000,"dateOfTransfer":"1995-10-11T00:00:00","postcodeFull":"BS15 9PJ","propertyType":"Semi-detached","oldOrNew":"Established","duration":"Freehold","paon":"1","saon":"","street":"KINGSLEIGH PARK","locality":"BRISTOL","townOrCity":"BRISTOL","district":"KINGSWOOD","county":"AVON","ppdCategoryType":"Standard","recordStatus":"Addition","latitude":51.456846,"longitude":-2.493618,"postcodeStart":"BS15 9","postcode":["BS15","9PJ"]}
{"price":58000,"dateOfTransfer":"1995-07-14T00:00:00","postcodeFull":"BS15 9SS","propertyType":"Semi-detached","oldOrNew":"Established","duration":"Freehold","paon":"11","saon":"","street":"ELMFIELD","locality":"BRISTOL","townOrCity":"BRISTOL","district":"KINGSWOOD","county":"AVON","ppdCategoryType":"Standard","recordStatus":"Addition","latitude":51.453123,"longitude":-2.502184,"postcodeStart":"BS15 9","postcode":["BS15","9SS"]}
{"price":25000,"dateOfTransfer":"1995-12-21T00:00:00","postcodeFull":"BS15 9PF","propertyType":"Terraced","oldOrNew":"Established","duration":"Freehold","paon":"32","saon":"","street":"WEDMORE CLOSE","locality":"BRISTOL","townOrCity":"BRISTOL","district":"SOUTH GLOUCESTERSHIRE","county":"SOUTH GLOUCESTERSHIRE","ppdCategoryType":"Standard","recordStatus":"Addition","latitude":51.455392,"longitude":-2.497214,"postcodeStart":"BS15 9","postcode":["BS15","9PF"]}
{"price":46500,"dateOfTransfer":"1995-01-12T00:00:00","postcodeFull":"BS15 9TW","propertyType":"Semi-detached","oldOrNew":"Established","duration":"Freehold","paon":"15","saon":"","street":"BRAKE CLOSE","locality":"BRISTOL","townOrCity":"BRISTOL","district":"KINGSWOOD","county":"AVON","ppdCategoryType":"Standard","recordStatus":"Addition","latitude":51.455044,"longitude":-2.496592,"postcodeStart":"BS15 9","postcode":["BS15","9TW"]}
{"price":48500,"dateOfTransfer":"1995-03-08T00:00:00","postcodeFull":"BS15 9RE","propertyType":"Terraced","oldOrNew":"Established","duration":"Freehold","paon":"42","saon":"","street":"COURTNEY WAY","locality":"BRISTOL","townOrCity":"BRISTOL","district":"KINGSWOOD","county":"AVON","ppdCategoryType":"Standard","recordStatus":"Addition","latitude":51.457074,"longitude":-2.490583,"postcodeStart":"BS15 9","postcode":["BS15","9RE"]}
{"price":102000,"dateOfTransfer":"1995-11-17T00:00:00","postcodeFull":"BS15 9NG","propertyType":"Detached","oldOrNew":"Established","duration":"Freehold","paon":"20","saon":"","street":"TYLER CLOSE","locality":"BRISTOL","townOrCity":"BRISTOL","district":"KINGSWOOD","county":"AVON","ppdCategoryType":"Standard","recordStatus":"Addition","latitude":51.449513,"longitude":-2.50318,"postcodeStart":"BS15 9","postcode":["BS15","9NG"]}
{"price":48500,"dateOfTransfer":"1995-04-28T00:00:00","postcodeFull":"BS15 9RB","propertyType":"Terraced","oldOrNew":"Established","duration":"Freehold","paon":"8","saon":"","street":"COURTNEY WAY","locality":"BRISTOL","townOrCity":"BRISTOL","district":"KINGSWOOD","county":"AVON","ppdCategoryType":"Standard","recordStatus":"Addition","latitude":51.456835,"longitude":-2.491473,"postcodeStart":"BS15 9","postcode":["BS15","9RB"]}
{"price":35000,"dateOfTransfer":"1995-11-22T00:00:00","postcodeFull":"BS15 9PF","propertyType":"Semi-detached","oldOrNew":"Established","duration":"Freehold","paon":"4","saon":"","street":"WEDMORE CLOSE","locality":"BRISTOL","townOrCity":"BRISTOL","district":"KINGSWOOD","county":"AVON","ppdCategoryType":"Standard","recordStatus":"Addition","latitude":51.455392,"longitude":-2.497214,"postcodeStart":"BS15 9","postcode":["BS15","9PF"]}
{"price":43000,"dateOfTransfer":"1995-03-21T00:00:00","postcodeFull":"BS15 9TW","propertyType":"Terraced","oldOrNew":"Established","duration":"Freehold","paon":"28","saon":"","street":"BRAKE CLOSE","locality":"BRISTOL","townOrCity":"BRISTOL","district":"KINGSWOOD","county":"AVON","ppdCategoryType":"Standard","recordStatus":"Addition","latitude":51.455044,"longitude":-2.496592,"postcodeStart":"BS15 9","postcode":["BS15","9TW"]}
{"price":44250,"dateOfTransfer":"1995-11-29T00:00:00","postcodeFull":"BS15 9RS","propertyType":"Terraced","oldOrNew":"Established","duration":"Freehold","paon":"43","saon":"","street":"LOWER COCK ROAD","locality":"BRISTOL","townOrCity":"BRISTOL","district":"KINGSWOOD","county":"AVON","ppdCategoryType":"Standard","recordStatus":"Addition","latitude":51.455694,"longitude":-2.491605,"postcodeStart":"BS15 9","postcode":["BS15","9RS"]}
{"price":42500,"dateOfTransfer":"1995-08-24T00:00:00","postcodeFull":"BS15 9QB","propertyType":"Semi-detached","oldOrNew":"Established","duration":"Freehold","paon":"5","saon":"","street":"COURT ROAD","locality":"KINGSWOOD","townOrCity":"BRISTOL","district":"KINGSWOOD","county":"AVON","ppdCategoryType":"Standard","recordStatus":"Addition","latitude":51.458025,"longitude":-2.50585,"postcodeStart":"BS15 9","postcode":["BS15","9QB"]}
{"price":42750,"dateOfTransfer":"1995-01-27T00:00:00","postcodeFull":"BS15 9WX","propertyType":"Terraced","oldOrNew":"Established","duration":"Freehold","paon":"78","saon":"","street":"GLANVILLE GARDENS","locality":"BRISTOL","townOrCity":"BRISTOL","district":"KINGSWOOD","county":"AVON","ppdCategoryType":"Standard","recordStatus":"Addition","latitude":51.455261,"longitude":-2.500336,"postcodeStart":"BS15 9","postcode":["BS15","9WX"]}
{"price":85000,"dateOfTransfer":"1995-11-10T00:00:00","postcodeFull":"BS15 9JS","propertyType":"Detached","oldOrNew":"New build","duration":"Freehold","paon":"4","saon":"","street":"KYGHT CLOSE","locality":"BRISTOL","townOrCity":"BRISTOL","district":"KINGSWOOD","county":"AVON","ppdCategoryType":"Standard","recordStatus":"Addition","latitude":51.460829,"longitude":-2.485024,"postcodeStart":"BS15 9","postcode":["BS15","9JS"]}
{"price":42000,"dateOfTransfer":"1995-06-16T00:00:00","postcodeFull":"BS15 9UN","propertyType":"Terraced","oldOrNew":"Established","duration":"Freehold","paon":"18","saon":"","street":"ORCHARD VALE","locality":"BRISTOL","townOrCity":"BRISTOL","district":"KINGSWOOD","county":"AVON","ppdCategoryType":"Standard","recordStatus":"Addition","latitude":51.459569,"longitude":-2.48953,"postcodeStart":"BS15 9","postcode":["BS15","9UN"]}
{"price":56000,"dateOfTransfer":"1995-09-07T00:00:00","postcodeFull":"BS15 9UH","propertyType":"Semi-detached","oldOrNew":"Established","duration":"Freehold","paon":"14","saon":"","street":"GAGES CLOSE","locality":"BRISTOL","townOrCity":"BRISTOL","district":"KINGSWOOD","county":"AVON","ppdCategoryType":"Standard","recordStatus":"Addition","latitude":51.45859,"longitude":-2.49355,"postcodeStart":"BS15 9","postcode":["BS15","9UH"]}
{"price":43750,"dateOfTransfer":"1995-10-27T00:00:00","postcodeFull":"BS15 9SA","propertyType":"Semi-detached","oldOrNew":"Established","duration":"Freehold","paon":"11","saon":"","street":"CORONATION ROAD","locality":"KINGSWOOD","townOrCity":"BRISTOL","district":"KINGSWOOD","county":"AVON","ppdCategoryType":"Standard","recordStatus":"Addition","latitude":51.459021,"longitude":-2.489496,"postcodeStart":"BS15 9","postcode":["BS15","9SA"]}
{"price":99000,"dateOfTransfer":"1995-11-01T00:00:00","postcodeFull":"BS15 9NG","propertyType":"Detached","oldOrNew":"Established","duration":"Freehold","paon":"2","saon":"","street":"TYLER CLOSE","locality":"BRISTOL","townOrCity":"BRISTOL","district":"KINGSWOOD","county":"AVON","ppdCategoryType":"Standard","recordStatus":"Addition","latitude":51.449513,"longitude":-2.50318,"postcodeStart":"BS15 9","postcode":["BS15","9NG"]}
{"price":48000,"dateOfTransfer":"1995-09-01T00:00:00","postcodeFull":"BS15 9QD","propertyType":"Terraced","oldOrNew":"Established","duration":"Freehold","paon":"29","saon":"","street":"COURT ROAD","locality":"KINGSWOOD","townOrCity":"BRISTOL","district":"KINGSWOOD","county":"AVON","ppdCategoryType":"Standard","recordStatus":"Addition","latitude":51.457155,"longitude":-2.505394,"postcodeStart":"BS15 9","postcode":["BS15","9QD"]}
{"price":55000,"dateOfTransfer":"1995-03-31T00:00:00","postcodeFull":"BS15 9SX","propertyType":"Terraced","oldOrNew":"Established","duration":"Freehold","paon":"142","saon":"","street":"MOUNT HILL ROAD","locality":"BRISTOL","townOrCity":"BRISTOL","district":"KINGSWOOD","county":"AVON","ppdCategoryType":"Standard","recordStatus":"Addition","latitude":51.451912,"longitude":-2.503566,"postcodeStart":"BS15 9","postcode":["BS15","9SX"]}
{"price":120000,"dateOfTransfer":"1995-10-27T00:00:00","postcodeFull":"BS15 9NG","propertyType":"Detached","oldOrNew":"Established","duration":"Freehold","paon":"23","saon":"","street":"TYLER CLOSE","locality":"BRISTOL","townOrCity":"BRISTOL","district":"KINGSWOOD","county":"AVON","ppdCategoryType":"Standard","recordStatus":"Addition","latitude":51.449513,"longitude":-2.50318,"postcodeStart":"BS15 9","postcode":["BS15","9NG"]}
{"price":90000,"dateOfTransfer":"1995-10-13T00:00:00","postcodeFull":"BS15 9PS","propertyType":"Detached","oldOrNew":"New build","duration":"Freehold","paon":"11","saon":"","street":"BELSHER DRIVE","locality":"KINGSWOOD","townOrCity":"BRISTOL","district":"KINGSWOOD","county":"AVON","ppdCategoryType":"Standard","recordStatus":"Addition","latitude":51.454688,"longitude":-2.489349,"postcodeStart":"BS15 9","postcode":["BS15","9PS"]}
{"price":72500,"dateOfTransfer":"1995-02-03T00:00:00","postcodeFull":"BS15 9JS","propertyType":"Detached","oldOrNew":"New build","duration":"Freehold","paon":"1","saon":"","street":"KYGHT CLOSE","locality":"BRISTOL","townOrCity":"BRISTOL","district":"KINGSWOOD","county":"AVON","ppdCategoryType":"Standard","recordStatus":"Addition","latitude":51.460829,"longitude":-2.485024,"postcodeStart":"BS15 9","postcode":["BS15","9JS"]}
{"price":38000,"dateOfTransfer":"1995-11-24T00:00:00","postcodeFull":"BS15 9RG","propertyType":"Terraced","oldOrNew":"Established","duration":"Freehold","paon":"8","saon":"","street":"COURTNEY ROAD","locality":"BRISTOL","townOrCity":"BRISTOL","district":"KINGSWOOD","county":"AVON","ppdCategoryType":"Standard","recordStatus":"Addition","latitude":51.457564,"longitude":-2.504492,"postcodeStart":"BS15 9","postcode":["BS15","9RG"]}
{"price":59995,"dateOfTransfer":"1995-05-05T00:00:00","postcodeFull":"BS15 9SL","propertyType":"Semi-detached","oldOrNew":"Established","duration":"Freehold","paon":"3A","saon":"","street":"PETTIGROVE ROAD","locality":"BRISTOL","townOrCity":"BRISTOL","district":"KINGSWOOD","county":"AVON","ppdCategoryType":"Standard","recordStatus":"Addition","latitude":51.454219,"longitude":-2.504513,"postcodeStart":"BS15 9","postcode":["BS15","9SL"]}
{"price":36500,"dateOfTransfer":"1995-09-29T00:00:00","postcodeFull":"BS15 9PF","propertyType":"Semi-detached","oldOrNew":"Established","duration":"Freehold","paon":"20","saon":"","street":"WEDMORE CLOSE","locality":"BRISTOL","townOrCity":"BRISTOL","district":"KINGSWOOD","county":"AVON","ppdCategoryType":"Standard","recordStatus":"Addition","latitude":51.455392,"longitude":-2.497214,"postcodeStart":"BS15 9","postcode":["BS15","9PF"]}
{"price":48000,"dateOfTransfer":"1995-08-18T00:00:00","postcodeFull":"BS15 9WU","propertyType":"Terraced","oldOrNew":"Established","duration":"Freehold","paon":"53","saon":"","street":"GLANVILLE GARDENS","locality":"BRISTOL","townOrCity":"BRISTOL","district":"KINGSWOOD","county":"AVON","ppdCategoryType":"Standard","recordStatus":"Addition","latitude":51.45579,"longitude":-2.500802,"postcodeStart":"BS15 9","postcode":["BS15","9WU"]}
{"price":53250,"dateOfTransfer":"1995-01-03T00:00:00","postcodeFull":"BS15 9PF","propertyType":"Semi-detached","oldOrNew":"Established","duration":"Freehold","paon":"42","saon":"","street":"WEDMORE CLOSE","locality":"BRISTOL","townOrCity":"BRISTOL","district":"KINGSWOOD","county":"AVON","ppdCategoryType":"Standard","recordStatus":"Addition","latitude":51.455392,"longitude":-2.497214,"postcodeStart":"BS15 9","postcode":["BS15","9PF"]}
{"price":83000,"dateOfTransfer":"1995-02-03T00:00:00","postcodeFull":"BS15 9TF","propertyType":"Detached","oldOrNew":"Established","duration":"Freehold","paon":"2","saon":"","street":"ORCHARD CLOSE","locality":"KINGSWOOD","townOrCity":"BRISTOL","district":"KINGSWOOD","county":"AVON","ppdCategoryType":"Standard","recordStatus":"Addition","latitude":51.459798,"longitude":-2.501451,"postcodeStart":"BS15 9","postcode":["BS15","9TF"]}
{"price":99995,"dateOfTransfer":"1995-09-29T00:00:00","postcodeFull":"BS15 9PS","propertyType":"Detached","oldOrNew":"New build","duration":"Freehold","paon":"7","saon":"","street":"BELSHER DRIVE","locality":"KINGSWOOD","townOrCity":"BRISTOL","district":"KINGSWOOD","county":"AVON","ppdCategoryType":"Standard","recordStatus":"Addition","latitude":51.454688,"longitude":-2.489349,"postcodeStart":"BS15 9","postcode":["BS15","9PS"]}
{"price":54000,"dateOfTransfer":"1995-04-12T00:00:00","postcodeFull":"BS15 9PZ","propertyType":"Semi-detached","oldOrNew":"Established","duration":"Freehold","paon":"3","saon":"","street":"ABBOTSWOOD","locality":"BRISTOL","townOrCity":"BRISTOL","district":"KINGSWOOD","county":"AVON","ppdCategoryType":"Standard","recordStatus":"Addition","latitude":51.456997,"longitude":-2.506601,"postcodeStart":"BS15 9","postcode":["BS15","9PZ"]}
{"price":62500,"dateOfTransfer":"1995-08-07T00:00:00","postcodeFull":"BS15 9SG","propertyType":"Terraced","oldOrNew":"Established","duration":"Freehold","paon":"98","saon":"","street":"COCK ROAD","locality":"BRISTOL","townOrCity":"BRISTOL","district":"KINGSWOOD","county":"AVON","ppdCategoryType":"Standard","recordStatus":"Addition","latitude":51.45413,"longitude":-2.491473,"postcodeStart":"BS15 9","postcode":["BS15","9SG"]}
{"price":45700,"dateOfTransfer":"1995-08-14T00:00:00","postcodeFull":"BS15 9YP","propertyType":"Terraced","oldOrNew":"Established","duration":"Freehold","paon":"26","saon":"","street":"ASHFORD WAY","locality":"BRISTOL","townOrCity":"BRISTOL","district":"KINGSWOOD","county":"AVON","ppdCategoryType":"Standard","recordStatus":"Addition","latitude":51.455611,"longitude":-2.490064,"postcodeStart":"BS15 9","postcode":["BS15","9YP"]}
{"price":44500,"dateOfTransfer":"1995-12-08T00:00:00","postcodeFull":"BS15 9ZF","propertyType":"Semi-detached","oldOrNew":"Established","duration":"Freehold","paon":"25","saon":"","street":"LAVERS CLOSE","locality":"BRISTOL","townOrCity":"BRISTOL","district":"KINGSWOOD","county":"AVON","ppdCategoryType":"Standard","recordStatus":"Addition","latitude":51.45402,"longitude":-2.498351,"postcodeStart":"BS15 9","postcode":["BS15","9ZF"]}
{"price":53000,"dateOfTransfer":"1995-12-21T00:00:00","postcodeFull":"BS15 9GF","propertyType":"Semi-detached","oldOrNew":"Established","duration":"Freehold","paon":"4","saon":"","street":"WARNER CLOSE","locality":"BRISTOL","townOrCity":"BRISTOL","district":"KINGSWOOD","county":"AVON","ppdCategoryType":"Standard","recordStatus":"Addition","latitude":51.453878,"longitude":-2.493686,"postcodeStart":"BS15 9","postcode":["BS15","9GF"]}
{"price":64500,"dateOfTransfer":"1995-08-25T00:00:00","postcodeFull":"BS15 9RP","propertyType":"Detached","oldOrNew":"Established","duration":"Freehold","paon":"6","saon":"","street":"GEE MOORS","locality":"BRISTOL","townOrCity":"BRISTOL","district":"SOUTH GLOUCESTERSHIRE","county":"SOUTH GLOUCESTERSHIRE","ppdCategoryType":"Standard","recordStatus":"Addition","latitude":51.454943,"longitude":-2.494792,"postcodeStart":"BS15 9","postcode":["BS15","9RP"]}
{"price":85000,"dateOfTransfer":"1995-07-11T00:00:00","postcodeFull":"BS15 9JS","propertyType":"Detached","oldOrNew":"New build","duration":"Freehold","paon":"3","saon":"","street":"KYGHT CLOSE","locality":"BRISTOL","townOrCity":"BRISTOL","district":"KINGSWOOD","county":"AVON","ppdCategoryType":"Standard","recordStatus":"Addition","latitude":51.460829,"longitude":-2.485024,"postcodeStart":"BS15 9","postcode":["BS15","9JS"]}
{"price":55250,"dateOfTransfer":"1995-03-31T00:00:00","postcodeFull":"BS15 9PE","propertyType":"Terraced","oldOrNew":"New build","duration":"Freehold","paon":"17","saon":"","street":"SOMERTON CLOSE","locality":"BRISTOL","townOrCity":"BRISTOL","district":"KINGSWOOD","county":"AVON","ppdCategoryType":"Standard","recordStatus":"Addition","latitude":51.456452,"longitude":-2.499428,"postcodeStart":"BS15 9","postcode":["BS15","9PE"]}
{"price":44000,"dateOfTransfer":"1995-09-04T00:00:00","postcodeFull":"BS15 9XE","propertyType":"Semi-detached","oldOrNew":"Established","duration":"Freehold","paon":"69","saon":"","street":"BADEN ROAD","locality":"KINGSWOOD","townOrCity":"BRISTOL","district":"KINGSWOOD","county":"AVON","ppdCategoryType":"Standard","recordStatus":"Addition","latitude":51.458594,"longitude":-2.483677,"postcodeStart":"BS15 9","postcode":["BS15","9XE"]}
{"price":62500,"dateOfTransfer":"1995-06-30T00:00:00","postcodeFull":"BS15 9ZE","propertyType":"Semi-detached","oldOrNew":"Established","duration":"Freehold","paon":"5","saon":"","street":"PURTON CLOSE","locality":"BRISTOL","townOrCity":"BRISTOL","district":"KINGSWOOD","county":"AVON","ppdCategoryType":"Standard","recordStatus":"Addition","latitude":51.454596,"longitude":-2.500286,"postcodeStart":"BS15 9","postcode":["BS15","9ZE"]}
{"price":90000,"dateOfTransfer":"1995-06-30T00:00:00","postcodeFull":"BS15 9PS","propertyType":"Semi-detached","oldOrNew":"New build","duration":"Freehold","paon":"14","saon":"","street":"BELSHER DRIVE","locality":"KINGSWOOD","townOrCity":"BRISTOL","district":"KINGSWOOD","county":"AVON","ppdCategoryType":"Standard","recordStatus":"Addition","latitude":51.454688,"longitude":-2.489349,"postcodeStart":"BS15 9","postcode":["BS15","9PS"]}
{"price":66000,"dateOfTransfer":"1995-09-06T00:00:00","postcodeFull":"BS15 9RJ","propertyType":"Semi-detached","oldOrNew":"Established","duration":"Freehold","paon":"26","saon":"","street":"SELWORTHY","locality":"BRISTOL","townOrCity":"BRISTOL","district":"KINGSWOOD","county":"AVON","ppdCategoryType":"Standard","recordStatus":"Addition","latitude":51.458121,"longitude":-2.500353,"postcodeStart":"BS15 9","postcode":["BS15","9RJ"]}
{"price":44000,"dateOfTransfer":"1995-12-01T00:00:00","postcodeFull":"BS15 9UY","propertyType":"Terraced","oldOrNew":"Established","duration":"Freehold","paon":"13","saon":"","street":"BELLEVUE CLOSE","locality":"BRISTOL","townOrCity":"BRISTOL","district":"KINGSWOOD","county":"AVON","ppdCategoryType":"Standard","recordStatus":"Addition","latitude":51.458445,"longitude":-2.498068,"postcodeStart":"BS15 9","postcode":["BS15","9UY"]}
{"price":129995,"dateOfTransfer":"1995-09-01T00:00:00","postcodeFull":"BS15 9PS","propertyType":"Detached","oldOrNew":"New build","duration":"Freehold","paon":"6","saon":"","street":"BELSHER DRIVE","locality":"KINGSWOOD","townOrCity":"BRISTOL","district":"KINGSWOOD","county":"AVON","ppdCategoryType":"Standard","recordStatus":"Addition","latitude":51.454688,"longitude":-2.489349,"postcodeStart":"BS15 9","postcode":["BS15","9PS"]}
{"price":37500,"dateOfTransfer":"1995-12-14T00:00:00","postcodeFull":"BS15 9UF","propertyType":"Terraced","oldOrNew":"Established","duration":"Freehold","paon":"11","saon":"","street":"THE ORCHARDS","locality":"BRISTOL","townOrCity":"BRISTOL","district":"KINGSWOOD","county":"AVON","ppdCategoryType":"Standard","recordStatus":"Addition","latitude":51.459461,"longitude":-2.496107,"postcodeStart":"BS15 9","postcode":["BS15","9UF"]}
{"price":110000,"dateOfTransfer":"1995-07-28T00:00:00","postcodeFull":"BS15 9JB","propertyType":"Detached","oldOrNew":"Established","duration":"Freehold","paon":"33","saon":"","street":"DEANERY ROAD","locality":"KINGSWOOD","townOrCity":"BRISTOL","district":"KINGSWOOD","county":"AVON","ppdCategoryType":"Standard","recordStatus":"Addition","latitude":51.460262,"longitude":-2.480182,"postcodeStart":"BS15 9","postcode":["BS15","9JB"]}
{"price":47200,"dateOfTransfer":"1995-01-31T00:00:00","postcodeFull":"BS15 9RE","propertyType":"Terraced","oldOrNew":"Established","duration":"Freehold","paon":"16","saon":"","street":"COURTNEY WAY","locality":"BRISTOL","townOrCity":"BRISTOL","district":"KINGSWOOD","county":"AVON","ppdCategoryType":"Standard","recordStatus":"Addition","latitude":51.457074,"longitude":-2.490583,"postcodeStart":"BS15 9","postcode":["BS15","9RE"]}
{"price":41500,"dateOfTransfer":"1995-10-31T00:00:00","postcodeFull":"BS15 9WS","propertyType":"Terraced","oldOrNew":"Established","duration":"Freehold","paon":"27","saon":"","street":"GLANVILLE GARDENS","locality":"BRISTOL","townOrCity":"BRISTOL","district":"KINGSWOOD","county":"AVON","ppdCategoryType":"Standard","recordStatus":"Addition","latitude":51.455515,"longitude":-2.502037,"postcodeStart":"BS15 9","postcode":["BS15","9WS"]}
{"price":66500,"dateOfTransfer":"1995-12-14T00:00:00","postcodeFull":"BS15 9SN","propertyType":"Semi-detached","oldOrNew":"Established","duration":"Freehold","paon":"17","saon":"","street":"PETTIGROVE ROAD","locality":"BRISTOL","townOrCity":"BRISTOL","district":"KINGSWOOD","county":"AVON","ppdCategoryType":"Standard","recordStatus":"Addition","latitude":51.454714,"longitude":-2.502273,"postcodeStart":"BS15 9","postcode":["BS15","9SN"]}
{"price":56750,"dateOfTransfer":"1995-11-17T00:00:00","postcodeFull":"BS15 9TU","propertyType":"Semi-detached","oldOrNew":"Established","duration":"Freehold","paon":"34","saon":"","street":"BELLEVUE ROAD","locality":"KINGSWOOD","townOrCity":"BRISTOL","district":"KINGSWOOD","county":"AVON","ppdCategoryType":"Standard","recordStatus":"Addition","latitude":51.458388,"longitude":-2.496628,"postcodeStart":"BS15 9","postcode":["BS15","9TU"]}
{"price":54000,"dateOfTransfer":"1995-08-10T00:00:00","postcodeFull":"BS15 9TA","propertyType":"Semi-detached","oldOrNew":"Established","duration":"Freehold","paon":"8","saon":"","street":"ELMFIELD CLOSE","locality":"BRISTOL","townOrCity":"BRISTOL","district":"KINGSWOOD","county":"AVON","ppdCategoryType":"Standard","recordStatus":"Addition","latitude":51.45291,"longitude":-2.501462,"postcodeStart":"BS15 9","postcode":["BS15","9TA"]}
{"price":47995,"dateOfTransfer":"1995-03-31T00:00:00","postcodeFull":"BS15 9TA","propertyType":"Terraced","oldOrNew":"Established","duration":"Freehold","paon":"3","saon":"","street":"ELMFIELD CLOSE","locality":"BRISTOL","townOrCity":"BRISTOL","district":"KINGSWOOD","county":"AVON","ppdCategoryType":"Standard","recordStatus":"Addition","latitude":51.45291,"longitude":-2.501462,"postcodeStart":"BS15 9","postcode":["BS15","9TA"]}
{"price":103995,"dateOfTransfer":"1995-06-30T00:00:00","postcodeFull":"BS15 9PS","propertyType":"Detached","oldOrNew":"New build","duration":"Freehold","paon":"17","saon":"","street":"BELSHER DRIVE","locality":"KINGSWOOD","townOrCity":"BRISTOL","district":"KINGSWOOD","county":"AVON","ppdCategoryType":"Standard","recordStatus":"Addition","latitude":51.454688,"longitude":-2.489349,"postcodeStart":"BS15 9","postcode":["BS15","9PS"]}
{"price":115495,"dateOfTransfer":"1995-06-02T00:00:00","postcodeFull":"BS15 9PS","propertyType":"Detached","oldOrNew":"New build","duration":"Freehold","paon":"18","saon":"","street":"BELSHER DRIVE","locality":"KINGSWOOD","townOrCity":"BRISTOL","district":"KINGSWOOD","county":"AVON","ppdCategoryType":"Standard","recordStatus":"Addition","latitude":51.454688,"longitude":-2.489349,"postcodeStart":"BS15 9","postcode":["BS15","9PS"]}
{"price":115495,"dateOfTransfer":"1995-04-28T00:00:00","postcodeFull":"BS15 9PS","propertyType":"Detached","oldOrNew":"New build","duration":"Freehold","paon":"24","saon":"","street":"BELSHER DRIVE","locality":"KINGSWOOD","townOrCity":"BRISTOL","district":"KINGSWOOD","county":"AVON","ppdCategoryType":"Standard","recordStatus":"Addition","latitude":51.454688,"longitude":-2.489349,"postcodeStart":"BS15 9","postcode":["BS15","9PS"]}
{"price":52500,"dateOfTransfer":"1995-11-15T00:00:00","postcodeFull":"BS15 9TW","propertyType":"Semi-detached","oldOrNew":"Established","duration":"Freehold","paon":"14","saon":"","street":"BRAKE CLOSE","locality":"BRISTOL","townOrCity":"BRISTOL","district":"KINGSWOOD","county":"AVON","ppdCategoryType":"Standard","recordStatus":"Addition","latitude":51.455044,"longitude":-2.496592,"postcodeStart":"BS15 9","postcode":["BS15","9TW"]}
{"price":87995,"dateOfTransfer":"1995-02-24T00:00:00","postcodeFull":"BS15 9PS","propertyType":"Detached","oldOrNew":"New build","duration":"Freehold","paon":"10","saon":"","street":"BELSHER DRIVE","locality":"KINGSWOOD","townOrCity":"BRISTOL","district":"KINGSWOOD","county":"AVON","ppdCategoryType":"Standard","recordStatus":"Addition","latitude":51.454688,"longitude":-2.489349,"postcodeStart":"BS15 9","postcode":["BS15","9PS"]}
{"price":50000,"dateOfTransfer":"1995-05-15T00:00:00","postcodeFull":"BS15 9YW","propertyType":"Semi-detached","oldOrNew":"Established","duration":"Freehold","paon":"40","saon":"","street":"ASHFORD WAY","locality":"BRISTOL","townOrCity":"BRISTOL","district":"KINGSWOOD","county":"AVON","ppdCategoryType":"Standard","recordStatus":"Addition","latitude":51.455985,"longitude":-2.490744,"postcodeStart":"BS15 9","postcode":["BS15","9YW"]}
{"price":63000,"dateOfTransfer":"1995-02-28T00:00:00","postcodeFull":"BS15 9ZE","propertyType":"Semi-detached","oldOrNew":"Established","duration":"Freehold","paon":"26","saon":"","street":"PURTON CLOSE","locality":"BRISTOL","townOrCity":"BRISTOL","district":"KINGSWOOD","county":"AVON","ppdCategoryType":"Standard","recordStatus":"Addition","latitude":51.454596,"longitude":-2.500286,"postcodeStart":"BS15 9","postcode":["BS15","9ZE"]}
{"price":60000,"dateOfTransfer":"1995-06-16T00:00:00","postcodeFull":"BS15 9SX","propertyType":"Terraced","oldOrNew":"Established","duration":"Freehold","paon":"164","saon":"","street":"MOUNT HILL ROAD","locality":"BRISTOL","townOrCity":"BRISTOL","district":"KINGSWOOD","county":"AVON","ppdCategoryType":"Standard","recordStatus":"Addition","latitude":51.451912,"longitude":-2.503566,"postcodeStart":"BS15 9","postcode":["BS15","9SX"]}
{"price":113000,"dateOfTransfer":"1995-06-30T00:00:00","postcodeFull":"BS15 9ST","propertyType":"Detached","oldOrNew":"Established","duration":"Freehold","paon":"26","saon":"","street":"ELM ROAD","locality":"KINGSWOOD","townOrCity":"BRISTOL","district":"KINGSWOOD","county":"AVON","ppdCategoryType":"Standard","recordStatus":"Addition","latitude":51.452703,"longitude":-2.503489,"postcodeStart":"BS15 9","postcode":["BS15","9ST"]}
{"price":39500,"dateOfTransfer":"1995-05-26T00:00:00","postcodeFull":"BS15 9PL","propertyType":"Terraced","oldOrNew":"Established","duration":"Freehold","paon":"35","saon":"","street":"KINGSLEIGH PARK","locality":"BRISTOL","townOrCity":"BRISTOL","district":"KINGSWOOD","county":"AVON","ppdCategoryType":"Standard","recordStatus":"Addition","latitude":51.456789,"longitude":-2.494178,"postcodeStart":"BS15 9","postcode":["BS15","9PL"]}
{"price":47500,"dateOfTransfer":"1995-03-30T00:00:00","postcodeFull":"BS15 9SN","propertyType":"Semi-detached","oldOrNew":"Established","duration":"Freehold","paon":"17","saon":"","street":"PETTIGROVE ROAD","locality":"BRISTOL","townOrCity":"BRISTOL","district":"KINGSWOOD","county":"AVON","ppdCategoryType":"Standard","recordStatus":"Addition","latitude":51.454714,"longitude":-2.502273,"postcodeStart":"BS15 9","postcode":["BS15","9SN"]}
{"price":90000,"dateOfTransfer":"1995-05-26T00:00:00","postcodeFull":"BS15 9PS","propertyType":"Detached","oldOrNew":"New build","duration":"Freehold","paon":"20","saon":"","street":"BELSHER DRIVE","locality":"KINGSWOOD","townOrCity":"BRISTOL","district":"KINGSWOOD","county":"AVON","ppdCategoryType":"Standard","recordStatus":"Addition","latitude":51.454688,"longitude":-2.489349,"postcodeStart":"BS15 9","postcode":["BS15","9PS"]}
{"price":51995,"dateOfTransfer":"1995-04-03T00:00:00","postcodeFull":"BS15 9YF","propertyType":"Terraced","oldOrNew":"Established","duration":"Freehold","paon":"99","saon":"","street":"GRIMSBURY ROAD","locality":"BRISTOL","townOrCity":"BRISTOL","district":"KINGSWOOD","county":"AVON","ppdCategoryType":"Standard","recordStatus":"Addition","latitude":51.456592,"longitude":-2.487498,"postcodeStart":"BS15 9","postcode":["BS15","9YF"]}
{"price":46000,"dateOfTransfer":"1995-04-05T00:00:00","postcodeFull":"BS15 9WS","propertyType":"Terraced","oldOrNew":"Established","duration":"Freehold","paon":"6","saon":"","street":"GLANVILLE GARDENS","locality":"BRISTOL","townOrCity":"BRISTOL","district":"KINGSWOOD","county":"AVON","ppdCategoryType":"Standard","recordStatus":"Addition","latitude":51.455515,"longitude":-2.502037,"postcodeStart":"BS15 9","postcode":["BS15","9WS"]}
{"price":40000,"dateOfTransfer":"1995-06-30T00:00:00","postcodeFull":"BS15 9TG","propertyType":"Semi-detached","oldOrNew":"Established","duration":"Freehold","paon":"2","saon":"","street":"EDWARD ROAD","locality":"KINGSWOOD","townOrCity":"BRISTOL","district":"KINGSWOOD","county":"AVON","ppdCategoryType":"Standard","recordStatus":"Addition","latitude":51.45962,"longitude":-2.503032,"postcodeStart":"BS15 9","postcode":["BS15","9TG"]}
{"price":47950,"dateOfTransfer":"1995-05-26T00:00:00","postcodeFull":"BS15 9PG","propertyType":"Semi-detached","oldOrNew":"Established","duration":"Freehold","paon":"20","saon":"","street":"BREDON CLOSE","locality":"BRISTOL","townOrCity":"BRISTOL","district":"KINGSWOOD","county":"AVON","ppdCategoryType":"Standard","recordStatus":"Addition","latitude":51.456006,"longitude":-2.494371,"postcodeStart":"BS15 9","postcode":["BS15","9PG"]}
{"price":51995,"dateOfTransfer":"1995-09-29T00:00:00","postcodeFull":"BS15 9WY","propertyType":"Semi-detached","oldOrNew":"Established","duration":"Freehold","paon":"90","saon":"","street":"GLANVILLE GARDENS","locality":"BRISTOL","townOrCity":"BRISTOL","district":"KINGSWOOD","county":"AVON","ppdCategoryType":"Standard","recordStatus":"Addition","latitude":51.455238,"longitude":-2.501602,"postcodeStart":"BS15 9","postcode":["BS15","9WY"]}
{"price":118250,"dateOfTransfer":"1995-09-29T00:00:00","postcodeFull":"BS15 9RQ","propertyType":"Detached","oldOrNew":"Established","duration":"Freehold","paon":"25","saon":"","street":"COURTNEY ROAD","locality":"BRISTOL","townOrCity":"BRISTOL","district":"KINGSWOOD","county":"AVON","ppdCategoryType":"Standard","recordStatus":"Addition","latitude":51.457747,"longitude":-2.501615,"postcodeStart":"BS15 9","postcode":["BS15","9RQ"]}
{"price":45750,"dateOfTransfer":"1995-05-16T00:00:00","postcodeFull":"BS15 9WT","propertyType":"Terraced","oldOrNew":"Established","duration":"Freehold","paon":"37","saon":"","street":"GLANVILLE GARDENS","locality":"BRISTOL","townOrCity":"BRISTOL","district":"KINGSWOOD","county":"AVON","ppdCategoryType":"Standard","recordStatus":"Addition","latitude":51.456172,"longitude":-2.501828,"postcodeStart":"BS15 9","postcode":["BS15","9WT"]}
{"price":63000,"dateOfTransfer":"1995-04-28T00:00:00","postcodeFull":"BS15 9SJ","propertyType":"Detached","oldOrNew":"Established","duration":"Freehold","paon":"21A","saon":"","street":"COCK ROAD","locality":"BRISTOL","townOrCity":"BRISTOL","district":"KINGSWOOD","county":"AVON","ppdCategoryType":"Standard","recordStatus":"Addition","latitude":51.452458,"longitude":-2.49983,"postcodeStart":"BS15 9","postcode":["BS15","9SJ"]}
{"price":80000,"dateOfTransfer":"1995-09-15T00:00:00","postcodeFull":"BS15 9JS","propertyType":"Detached","oldOrNew":"New build","duration":"Freehold","paon":"2","saon":"","street":"KYGHT CLOSE","locality":"BRISTOL","townOrCity":"BRISTOL","district":"KINGSWOOD","county":"AVON","ppdCategoryType":"Standard","recordStatus":"Addition","latitude":51.460829,"longitude":-2.485024,"postcodeStart":"BS15 9","postcode":["BS15","9JS"]}
{"price":79000,"dateOfTransfer":"1995-05-25T00:00:00","postcodeFull":"BS15 9RJ","propertyType":"Detached","oldOrNew":"New build","duration":"Freehold","paon":"35","saon":"","street":"SELWORTHY","locality":"BRISTOL","townOrCity":"BRISTOL","district":"KINGSWOOD","county":"AVON","ppdCategoryType":"Standard","recordStatus":"Addition","latitude":51.458121,"longitude":-2.500353,"postcodeStart":"BS15 9","postcode":["BS15","9RJ"]}
{"price":39000,"dateOfTransfer":"1995-02-17T00:00:00","postcodeFull":"BS15 9UA","propertyType":"Terraced","oldOrNew":"Established","duration":"Freehold","paon":"15","saon":"","street":"ORCHARD GARDENS","locality":"BRISTOL","townOrCity":"BRISTOL","district":"KINGSWOOD","county":"AVON","ppdCategoryType":"Standard","recordStatus":"Addition","latitude":51.460372,"longitude":-2.495426,"postcodeStart":"BS15 9","postcode":["BS15","9UA"]}
{"price":47000,"dateOfTransfer":"1995-02-28T00:00:00","postcodeFull":"BS15 9YR","propertyType":"Terraced","oldOrNew":"Established","duration":"Freehold","paon":"41","saon":"","street":"STAVERTON WAY","locality":"BRISTOL","townOrCity":"BRISTOL","district":"KINGSWOOD","county":"AVON","ppdCategoryType":"Standard","recordStatus":"Addition","latitude":51.455902,"longitude":-2.489275,"postcodeStart":"BS15 9","postcode":["BS15","9YR"]}
{"price":58500,"dateOfTransfer":"1995-02-24T00:00:00","postcodeFull":"BS15 9ZG","propertyType":"Semi-detached","oldOrNew":"Established","duration":"Freehold","paon":"48","saon":"","street":"LAVERS CLOSE","locality":"BRISTOL","townOrCity":"BRISTOL","district":"KINGSWOOD","county":"AVON","ppdCategoryType":"Standard","recordStatus":"Addition","latitude":51.453357,"longitude":-2.497941,"postcodeStart":"BS15 9","postcode":["BS15","9ZG"]}
{"price":56000,"dateOfTransfer":"1995-05-01T00:00:00","postcodeFull":"BS15 9QL","propertyType":"Terraced","oldOrNew":"Established","duration":"Freehold","paon":"6","saon":"","street":"PETTIGROVE GARDENS","locality":"BRISTOL","townOrCity":"BRISTOL","district":"KINGSWOOD","county":"AVON","ppdCategoryType":"Standard","recordStatus":"Addition","latitude":51.455292,"longitude":-2.503762,"postcodeStart":"BS15 9","postcode":["BS15","9QL"]}
{"price":96500,"dateOfTransfer":"1995-06-30T00:00:00","postcodeFull":"BS15 9SH","propertyType":"Detached","oldOrNew":"Established","duration":"Freehold","paon":"27","saon":"","street":"COCK ROAD","locality":"BRISTOL","townOrCity":"BRISTOL","district":"KINGSWOOD","county":"AVON","ppdCategoryType":"Standard","recordStatus":"Addition","latitude":51.452794,"longitude":-2.496654,"postcodeStart":"BS15 9","postcode":["BS15","9SH"]}
{"price":46000,"dateOfTransfer":"1995-03-31T00:00:00","postcodeFull":"BS15 9UU","propertyType":"Terraced","oldOrNew":"Established","duration":"Freehold","paon":"23","saon":"","street":"FAIRVIEW ROAD","locality":"BRISTOL","townOrCity":"BRISTOL","district":"KINGSWOOD","county":"AVON","ppdCategoryType":"Standard","recordStatus":"Addition","latitude":51.460288,"longitude":-2.491755,"postcodeStart":"BS15 9","postcode":["BS15","9UU"]}
{"price":47000,"dateOfTransfer":"1995-06-23T00:00:00","postcodeFull":"BS15 9SN","propertyType":"Terraced","oldOrNew":"Established","duration":"Freehold","paon":"35","saon":"","street":"PETTIGROVE ROAD","locality":"BRISTOL","townOrCity":"BRISTOL","district":"KINGSWOOD","county":"AVON","ppdCategoryType":"Standard","recordStatus":"Addition","latitude":51.454714,"longitude":-2.502273,"postcodeStart":"BS15 9","postcode":["BS15","9SN"]}
{"price":53000,"dateOfTransfer":"1995-02-03T00:00:00","postcodeFull":"BS15 9WX","propertyType":"Terraced","oldOrNew":"Established","duration":"Freehold","paon":"83","saon":"","street":"GLANVILLE GARDENS","locality":"BRISTOL","townOrCity":"BRISTOL","district":"KINGSWOOD","county":"AVON","ppdCategoryType":"Standard","recordStatus":"Addition","latitude":51.455261,"longitude":-2.500336,"postcodeStart":"BS15 9","postcode":["BS15","9WX"]}
{"price":49995,"dateOfTransfer":"1995-03-03T00:00:00","postcodeFull":"BS15 9UL","propertyType":"Terraced","oldOrNew":"Established","duration":"Freehold","paon":"65","saon":"","street":"ORCHARD VALE","locality":"BRISTOL","townOrCity":"BRISTOL","district":"KINGSWOOD","county":"AVON","ppdCategoryType":"Standard","recordStatus":"Addition","latitude":51.459403,"longitude":-2.492207,"postcodeStart":"BS15 9","postcode":["BS15","9UL"]}
{"price":57000,"dateOfTransfer":"1995-09-15T00:00:00","postcodeFull":"BS15 9QG","propertyType":"Terraced","oldOrNew":"Established","duration":"Freehold","paon":"57","saon":"","street":"COURT ROAD","locality":"KINGSWOOD","townOrCity":"BRISTOL","district":"KINGSWOOD","county":"AVON","ppdCategoryType":"Standard","recordStatus":"Addition","latitude":51.456082,"longitude":-2.506203,"postcodeStart":"BS15 9","postcode":["BS15","9QG"]}
{"price":45000,"dateOfTransfer":"1995-06-01T00:00:00","postcodeFull":"BS15 9UT","propertyType":"Semi-detached","oldOrNew":"Established","duration":"Freehold","paon":"54","saon":"","street":"FAIRVIEW ROAD","locality":"BRISTOL","townOrCity":"BRISTOL","district":"KINGSWOOD","county":"AVON","ppdCategoryType":"Standard","recordStatus":"Addition","latitude":51.460366,"longitude":-2.492461,"postcodeStart":"BS15 9","postcode":["BS15","9UT"]}
{"price":34000,"dateOfTransfer":"1995-05-12T00:00:00","postcodeFull":"BS15 9YD","propertyType":"Flat/Maisonette/Townhouse","oldOrNew":"Established","duration":"Leasehold","paon":"52","saon":"","street":"GAGES ROAD","locality":"BRISTOL","townOrCity":"BRISTOL","district":"KINGSWOOD","county":"AVON","ppdCategoryType":"Standard","recordStatus":"Addition","latitude":51.457623,"longitude":-2.494792,"postcodeStart":"BS15 9","postcode":["BS15","9YD"]}
{"price":47000,"dateOfTransfer":"1995-10-30T00:00:00","postcodeFull":"BS15 9UR","propertyType":"Semi-detached","oldOrNew":"Established","duration":"Freehold","paon":"9","saon":"","street":"AMBLE CLOSE","locality":"BRISTOL","townOrCity":"BRISTOL","district":"KINGSWOOD","county":"AVON","ppdCategoryType":"Standard","recordStatus":"Addition","latitude":51.458779,"longitude":-2.495582,"postcodeStart":"BS15 9","postcode":["BS15","9UR"]}
{"price":57000,"dateOfTransfer":"1995-11-21T00:00:00","postcodeFull":"BS15 9PJ","propertyType":"Semi-detached","oldOrNew":"Established","duration":"Freehold","paon":"1","saon":"","street":"KINGSLEIGH PARK","locality":"BRISTOL","townOrCity":"BRISTOL","district":"KINGSWOOD","county":"AVON","ppdCategoryType":"Standard","recordStatus":"Addition","latitude":51.456846,"longitude":-2.493618,"postcodeStart":"BS15 9","postcode":["BS15","9PJ"]}
{"price":49500,"dateOfTransfer":"1995-11-29T00:00:00","postcodeFull":"BS15 9SD","propertyType":"Semi-detached","oldOrNew":"Established","duration":"Freehold","paon":"39","saon":"","street":"GRIMSBURY ROAD","locality":"BRISTOL","townOrCity":"BRISTOL","district":"KINGSWOOD","county":"AVON","ppdCategoryType":"Standard","recordStatus":"Addition","latitude":51.457761,"longitude":-2.487008,"postcodeStart":"BS15 9","postcode":["BS15","9SD"]}
{"price":39000,"dateOfTransfer":"1995-06-21T00:00:00","postcodeFull":"BS15 9PF","propertyType":"Semi-detached","oldOrNew":"Established","duration":"Freehold","paon":"7","saon":"","street":"WEDMORE CLOSE","locality":"BRISTOL","townOrCity":"BRISTOL","district":"KINGSWOOD","county":"AVON","ppdCategoryType":"Standard","recordStatus":"Addition","latitude":51.455392,"longitude":-2.497214,"postcodeStart":"BS15 9","postcode":["BS15","9PF"]}
{"price":50000,"dateOfTransfer":"1995-10-31T00:00:00","postcodeFull":"BS15 9SP","propertyType":"Semi-detached","oldOrNew":"Established","duration":"Freehold","paon":"15","saon":"","street":"ELM ROAD","locality":"KINGSWOOD","townOrCity":"BRISTOL","district":"KINGSWOOD","county":"AVON","ppdCategoryType":"Standard","recordStatus":"Addition","latitude":51.453784,"longitude":-2.503184,"postcodeStart":"BS15 9","postcode":["BS15","9SP"]}
{"price":40700,"dateOfTransfer":"1995-04-07T00:00:00","postcodeFull":"BS15 9RX","propertyType":"Semi-detached","oldOrNew":"Established","duration":"Freehold","paon":"17","saon":"","street":"COURTNEY WAY","locality":"BRISTOL","townOrCity":"BRISTOL","district":"KINGSWOOD","county":"AVON","ppdCategoryType":"Standard","recordStatus":"Addition","latitude":51.457467,"longitude":-2.490847,"postcodeStart":"BS15 9","postcode":["BS15","9RX"]}
{"price":67500,"dateOfTransfer":"1995-10-06T00:00:00","postcodeFull":"BS15 9JA","propertyType":"Semi-detached","oldOrNew":"Established","duration":"Freehold","paon":"29","saon":"","street":"DEANERY ROAD","locality":"KINGSWOOD","townOrCity":"BRISTOL","district":"KINGSWOOD","county":"AVON","ppdCategoryType":"Standard","recordStatus":"Addition","latitude":51.460478,"longitude":-2.484532,"postcodeStart":"BS15 9","postcode":["BS15","9JA"]}
{"price":62000,"dateOfTransfer":"1995-09-29T00:00:00","postcodeFull":"BS15 9RT","propertyType":"Semi-detached","oldOrNew":"Established","duration":"Freehold","paon":"14","saon":"","street":"LOWER COCK ROAD","locality":"BRISTOL","townOrCity":"BRISTOL","district":"KINGSWOOD","county":"AVON","ppdCategoryType":"Standard","recordStatus":"Addition","latitude":51.456342,"longitude":-2.491468,"postcodeStart":"BS15 9","postcode":["BS15","9RT"]}
{"price":115995,"dateOfTransfer":"1995-08-25T00:00:00","postcodeFull":"BS15 9PS","propertyType":"Detached","oldOrNew":"New build","duration":"Freehold","paon":"9","saon":"","street":"BELSHER DRIVE","locality":"KINGSWOOD","townOrCity":"BRISTOL","district":"KINGSWOOD","county":"AVON","ppdCategoryType":"Standard","recordStatus":"Addition","latitude":51.454688,"longitude":-2.489349,"postcodeStart":"BS15 9","postcode":["BS15","9PS"]}
{"price":63995,"dateOfTransfer":"1995-06-02T00:00:00","postcodeFull":"BS15 9TJ","propertyType":"Semi-detached","oldOrNew":"Established","duration":"Freehold","paon":"19","saon":"","street":"PARK VIEW","locality":"BRISTOL","townOrCity":"BRISTOL","district":"KINGSWOOD","county":"AVON","ppdCategoryType":"Standard","recordStatus":"Addition","latitude":51.458878,"longitude":-2.499843,"postcodeStart":"BS15 9","postcode":["BS15","9TJ"]}
{"price":101996,"dateOfTransfer":"1995-06-28T00:00:00","postcodeFull":"BS15 9PS","propertyType":"Semi-detached","oldOrNew":"New build","duration":"Freehold","paon":"15","saon":"","street":"BELSHER DRIVE","locality":"KINGSWOOD","townOrCity":"BRISTOL","district":"KINGSWOOD","county":"AVON","ppdCategoryType":"Standard","recordStatus":"Addition","latitude":51.454688,"longitude":-2.489349,"postcodeStart":"BS15 9","postcode":["BS15","9PS"]}
{"price":24000,"dateOfTransfer":"1995-12-07T00:00:00","postcodeFull":"BS15 9JB","propertyType":"Flat/Maisonette/Townhouse","oldOrNew":"Established","duration":"Freehold","paon":"45","saon":"","street":"DEANERY ROAD","locality":"KINGSWOOD","townOrCity":"BRISTOL","district":"KINGSWOOD","county":"AVON","ppdCategoryType":"Standard","recordStatus":"Addition","latitude":51.460262,"longitude":-2.480182,"postcodeStart":"BS15 9","postcode":["BS15","9JB"]}
{"price":22550,"dateOfTransfer":"1995-03-27T00:00:00","postcodeFull":"BS15 9QW","propertyType":"Semi-detached","oldOrNew":"Established","duration":"Freehold","paon":"8","saon":"","street":"DUNDRY CLOSE","locality":"BRISTOL","townOrCity":"BRISTOL","district":"KINGSWOOD","county":"AVON","ppdCategoryType":"Standard","recordStatus":"Addition","latitude":51.453874,"longitude":-2.505099,"postcodeStart":"BS15 9","postcode":["BS15","9QW"]}
{"price":31000,"dateOfTransfer":"1996-02-22T00:00:00","postcodeFull":"BS15 9TU","propertyType":"Flat/Maisonette/Townhouse","oldOrNew":"Established","duration":"Leasehold","paon":"55","saon":"","street":"BELLEVUE ROAD","locality":"KINGSWOOD","townOrCity":"BRISTOL","district":"SOUTH GLOUCESTERSHIRE","county":"SOUTH GLOUCESTERSHIRE","ppdCategoryType":"Standard","recordStatus":"Addition","latitude":51.458388,"longitude":-2.496628,"postcodeStart":"BS15 9","postcode":["BS15","9TU"]}
{"price":58000,"dateOfTransfer":"1996-03-28T00:00:00","postcodeFull":"BS15 9TH","propertyType":"Semi-detached","oldOrNew":"Established","duration":"Freehold","paon":"27","saon":"","street":"ORCHARD ROAD","locality":"KINGSWOOD","townOrCity":"BRISTOL","district":"SOUTH GLOUCESTERSHIRE","county":"SOUTH GLOUCESTERSHIRE","ppdCategoryType":"Standard","recordStatus":"Addition","latitude":51.459215,"longitude":-2.502581,"postcodeStart":"BS15 9","postcode":["BS15","9TH"]}
{"price":36000,"dateOfTransfer":"1996-05-10T00:00:00","postcodeFull":"BS15 9TZ","propertyType":"Terraced","oldOrNew":"Established","duration":"Freehold","paon":"135","saon":"","street":"ORCHARD ROAD","locality":"KINGSWOOD","townOrCity":"BRISTOL","district":"SOUTH GLOUCESTERSHIRE","county":"SOUTH GLOUCESTERSHIRE","ppdCategoryType":"Standard","recordStatus":"Addition","latitude":51.460109,"longitude":-2.495783,"postcodeStart":"BS15 9","postcode":["BS15","9TZ"]}
{"price":41000,"dateOfTransfer":"1996-09-13T00:00:00","postcodeFull":"BS15 9QJ","propertyType":"Terraced","oldOrNew":"Established","duration":"Freehold","paon":"39","saon":"","street":"CLAYPOOL ROAD","locality":"BRISTOL","townOrCity":"BRISTOL","district":"SOUTH GLOUCESTERSHIRE","county":"SOUTH GLOUCESTERSHIRE","ppdCategoryType":"Standard","recordStatus":"Addition","latitude":51.455806,"longitude":-2.503494,"postcodeStart":"BS15 9","postcode":["BS15","9QJ"]}
{"price":120000,"dateOfTransfer":"1996-04-10T00:00:00","postcodeFull":"BS15 9SJ","propertyType":"Detached","oldOrNew":"Established","duration":"Freehold","paon":"23","saon":"","street":"COCK ROAD","locality":"BRISTOL","townOrCity":"BRISTOL","district":"SOUTH GLOUCESTERSHIRE","county":"SOUTH GLOUCESTERSHIRE","ppdCategoryType":"Standard","recordStatus":"Addition","latitude":51.452458,"longitude":-2.49983,"postcodeStart":"BS15 9","postcode":["BS15","9SJ"]}
{"price":47950,"dateOfTransfer":"1996-05-24T00:00:00","postcodeFull":"BS15 9QA","propertyType":"Terraced","oldOrNew":"Established","duration":"Freehold","paon":"1B","saon":"","street":"POWS ROAD","locality":"BRISTOL","townOrCity":"BRISTOL","district":"SOUTH GLOUCESTERSHIRE","county":"SOUTH GLOUCESTERSHIRE","ppdCategoryType":"Standard","recordStatus":"Addition","latitude":51.45744,"longitude":-2.506045,"postcodeStart":"BS15 9","postcode":["BS15","9QA"]}
{"price":57500,"dateOfTransfer":"1996-09-13T00:00:00","postcodeFull":"BS15 9ZD","propertyType":"Terraced","oldOrNew":"Established","duration":"Freehold","paon":"9","saon":"","street":"OWLS HEAD ROAD","locality":"BRISTOL","townOrCity":"BRISTOL","district":"SOUTH GLOUCESTERSHIRE","county":"SOUTH GLOUCESTERSHIRE","ppdCategoryType":"Standard","recordStatus":"Addition","latitude":51.454085,"longitude":-2.499992,"postcodeStart":"BS15 9","postcode":["BS15","9ZD"]}
{"price":50000,"dateOfTransfer":"1996-04-30T00:00:00","postcodeFull":"BS15 9TJ","propertyType":"Terraced","oldOrNew":"Established","duration":"Freehold","paon":"11","saon":"","street":"PARK VIEW","locality":"BRISTOL","townOrCity":"BRISTOL","district":"SOUTH GLOUCESTERSHIRE","county":"SOUTH GLOUCESTERSHIRE","ppdCategoryType":"Standard","recordStatus":"Addition","latitude":51.458878,"longitude":-2.499843,"postcodeStart":"BS15 9","postcode":["BS15","9TJ"]}
{"price":44000,"dateOfTransfer":"1996-09-13T00:00:00","postcodeFull":"BS15 9WS","propertyType":"Terraced","oldOrNew":"Established","duration":"Freehold","paon":"15","saon":"","street":"GLANVILLE GARDENS","locality":"BRISTOL","townOrCity":"BRISTOL","district":"SOUTH GLOUCESTERSHIRE","county":"SOUTH GLOUCESTERSHIRE","ppdCategoryType":"Standard","recordStatus":"Addition","latitude":51.455515,"longitude":-2.502037,"postcodeStart":"BS15 9","postcode":["BS15","9WS"]}
{"price":62500,"dateOfTransfer":"1996-10-14T00:00:00","postcodeFull":"BS15 9UY","propertyType":"Terraced","oldOrNew":"Established","duration":"Freehold","paon":"13","saon":"","street":"BELLEVUE CLOSE","locality":"BRISTOL","townOrCity":"BRISTOL","district":"SOUTH GLOUCESTERSHIRE","county":"SOUTH GLOUCESTERSHIRE","ppdCategoryType":"Standard","recordStatus":"Addition","latitude":51.458445,"longitude":-2.498068,"postcodeStart":"BS15 9","postcode":["BS15","9UY"]}
{"price":113500,"dateOfTransfer":"1996-07-26T00:00:00","postcodeFull":"BS15 9RS","propertyType":"Detached","oldOrNew":"New build","duration":"Freehold","paon":"25A","saon":"","street":"LOWER COCK ROAD","locality":"BRISTOL","townOrCity":"BRISTOL","district":"SOUTH GLOUCESTERSHIRE","county":"SOUTH GLOUCESTERSHIRE","ppdCategoryType":"Standard","recordStatus":"Addition","latitude":51.455694,"longitude":-2.491605,"postcodeStart":"BS15 9","postcode":["BS15","9RS"]}
{"price":42000,"dateOfTransfer":"1996-10-31T00:00:00","postcodeFull":"BS15 9RY","propertyType":"Semi-detached","oldOrNew":"Established","duration":"Freehold","paon":"55","saon":"","street":"COURTNEY WAY","locality":"BRISTOL","townOrCity":"BRISTOL","district":"SOUTH GLOUCESTERSHIRE","county":"SOUTH GLOUCESTERSHIRE","ppdCategoryType":"Standard","recordStatus":"Addition","latitude":51.457945,"longitude":-2.488837,"postcodeStart":"BS15 9","postcode":["BS15","9RY"]}
{"price":115250,"dateOfTransfer":"1996-08-21T00:00:00","postcodeFull":"BS15 9RS","propertyType":"Detached","oldOrNew":"New build","duration":"Freehold","paon":"25B","saon":"","street":"LOWER COCK ROAD","locality":"BRISTOL","townOrCity":"BRISTOL","district":"SOUTH GLOUCESTERSHIRE","county":"SOUTH GLOUCESTERSHIRE","ppdCategoryType":"Standard","recordStatus":"Addition","latitude":51.455694,"longitude":-2.491605,"postcodeStart":"BS15 9","postcode":["BS15","9RS"]}
{"price":47950,"dateOfTransfer":"1996-05-17T00:00:00","postcodeFull":"BS15 9YP","propertyType":"Semi-detached","oldOrNew":"Established","duration":"Freehold","paon":"22","saon":"","street":"ASHFORD WAY","locality":"BRISTOL","townOrCity":"BRISTOL","district":"SOUTH GLOUCESTERSHIRE","county":"SOUTH GLOUCESTERSHIRE","ppdCategoryType":"Standard","recordStatus":"Addition","latitude":51.455611,"longitude":-2.490064,"postcodeStart":"BS15 9","postcode":["BS15","9YP"]}
{"price":98250,"dateOfTransfer":"1996-09-30T00:00:00","postcodeFull":"BS15 9ZE","propertyType":"Detached","oldOrNew":"Established","duration":"Freehold","paon":"34","saon":"","street":"PURTON CLOSE","locality":"","townOrCity":"BRISTOL","district":"SOUTH GLOUCESTERSHIRE","county":"SOUTH GLOUCESTERSHIRE","ppdCategoryType":"Standard","recordStatus":"Addition","latitude":51.454596,"longitude":-2.500286,"postcodeStart":"BS15 9","postcode":["BS15","9ZE"]}
{"price":60000,"dateOfTransfer":"1996-08-22T00:00:00","postcodeFull":"BS15 9UY","propertyType":"Terraced","oldOrNew":"Established","duration":"Freehold","paon":"10","saon":"","street":"BELLEVUE CLOSE","locality":"BRISTOL","townOrCity":"BRISTOL","district":"SOUTH GLOUCESTERSHIRE","county":"SOUTH GLOUCESTERSHIRE","ppdCategoryType":"Standard","recordStatus":"Addition","latitude":51.458445,"longitude":-2.498068,"postcodeStart":"BS15 9","postcode":["BS15","9UY"]}
{"price":55000,"dateOfTransfer":"1996-08-09T00:00:00","postcodeFull":"BS15 9QA","propertyType":"Terraced","oldOrNew":"Established","duration":"Freehold","paon":"1C","saon":"","street":"POWS ROAD","locality":"BRISTOL","townOrCity":"BRISTOL","district":"SOUTH GLOUCESTERSHIRE","county":"SOUTH GLOUCESTERSHIRE","ppdCategoryType":"Standard","recordStatus":"Addition","latitude":51.45744,"longitude":-2.506045,"postcodeStart":"BS15 9","postcode":["BS15","9QA"]}
{"price":42000,"dateOfTransfer":"1996-01-25T00:00:00","postcodeFull":"BS15 9SB","propertyType":"Semi-detached","oldOrNew":"Established","duration":"Freehold","paon":"62","saon":"","street":"CORONATION ROAD","locality":"KINGSWOOD","townOrCity":"BRISTOL","district":"KINGSWOOD","county":"AVON","ppdCategoryType":"Standard","recordStatus":"Addition","latitude":51.458544,"longitude":-2.489663,"postcodeStart":"BS15 9","postcode":["BS15","9SB"]}
{"price":69000,"dateOfTransfer":"1996-12-13T00:00:00","postcodeFull":"BS15 9RZ","propertyType":"Semi-detached","oldOrNew":"Established","duration":"Freehold","paon":"19","saon":"","street":"GRIMSBURY ROAD","locality":"BRISTOL","townOrCity":"BRISTOL","district":"SOUTH GLOUCESTERSHIRE","county":"SOUTH GLOUCESTERSHIRE","ppdCategoryType":"Standard","recordStatus":"Addition","latitude":51.459271,"longitude":-2.487697,"postcodeStart":"BS15 9","postcode":["BS15","9RZ"]}
{"price":60000,"dateOfTransfer":"1996-11-01T00:00:00","postcodeFull":"BS15 9NJ","propertyType":"Semi-detached","oldOrNew":"Established","duration":"Leasehold","paon":"9","saon":"","street":"KELSTON GROVE","locality":"BRISTOL","townOrCity":"BRISTOL","district":"SOUTH GLOUCESTERSHIRE","county":"SOUTH GLOUCESTERSHIRE","ppdCategoryType":"Standard","recordStatus":"Addition","latitude":51.451608,"longitude":-2.50303,"postcodeStart":"BS15 9","postcode":["BS15","9NJ"]}
{"price":50000,"dateOfTransfer":"1996-09-20T00:00:00","postcodeFull":"BS15 9YL","propertyType":"Semi-detached","oldOrNew":"Established","duration":"Freehold","paon":"35","saon":"","street":"WHITECROFT WAY","locality":"BRISTOL","townOrCity":"BRISTOL","district":"SOUTH GLOUCESTERSHIRE","county":"SOUTH GLOUCESTERSHIRE","ppdCategoryType":"Standard","recordStatus":"Addition","latitude":51.456927,"longitude":-2.489257,"postcodeStart":"BS15 9","postcode":["BS15","9YL"]}
{"price":50000,"dateOfTransfer":"1996-12-06T00:00:00","postcodeFull":"BS15 9SJ","propertyType":"Terraced","oldOrNew":"Established","duration":"Freehold","paon":"17","saon":"","street":"COCK ROAD","locality":"BRISTOL","townOrCity":"BRISTOL","district":"SOUTH GLOUCESTERSHIRE","county":"SOUTH GLOUCESTERSHIRE","ppdCategoryType":"Standard","recordStatus":"Addition","latitude":51.452458,"longitude":-2.49983,"postcodeStart":"BS15 9","postcode":["BS15","9SJ"]}
{"price":62000,"dateOfTransfer":"1996-05-10T00:00:00","postcodeFull":"BS15 9TX","propertyType":"Semi-detached","oldOrNew":"Established","duration":"Freehold","paon":"23","saon":"","street":"FOXCOTE","locality":"BRISTOL","townOrCity":"BRISTOL","district":"SOUTH GLOUCESTERSHIRE","county":"SOUTH GLOUCESTERSHIRE","ppdCategoryType":"Standard","recordStatus":"Addition","latitude":51.45781,"longitude":-2.497313,"postcodeStart":"BS15 9","postcode":["BS15","9TX"]}
{"price":49000,"dateOfTransfer":"1996-08-02T00:00:00","postcodeFull":"BS15 9YL","propertyType":"Semi-detached","oldOrNew":"Established","duration":"Freehold","paon":"41","saon":"","street":"WHITECROFT WAY","locality":"BRISTOL","townOrCity":"BRISTOL","district":"CITY OF BRISTOL","county":"CITY OF BRISTOL","ppdCategoryType":"Standard","recordStatus":"Addition","latitude":51.456927,"longitude":-2.489257,"postcodeStart":"BS15 9","postcode":["BS15","9YL"]}
{"price":102000,"dateOfTransfer":"1996-09-19T00:00:00","postcodeFull":"BS15 9QG","propertyType":"Detached","oldOrNew":"Established","duration":"Freehold","paon":"46A","saon":"","street":"COURT ROAD","locality":"KINGSWOOD","townOrCity":"BRISTOL","district":"SOUTH GLOUCESTERSHIRE","county":"SOUTH GLOUCESTERSHIRE","ppdCategoryType":"Standard","recordStatus":"Addition","latitude":51.456082,"longitude":-2.506203,"postcodeStart":"BS15 9","postcode":["BS15","9QG"]}
{"price":46250,"dateOfTransfer":"1996-04-26T00:00:00","postcodeFull":"BS15 9YR","propertyType":"Semi-detached","oldOrNew":"Established","duration":"Freehold","paon":"5","saon":"","street":"STAVERTON WAY","locality":"BRISTOL","townOrCity":"BRISTOL","district":"SOUTH GLOUCESTERSHIRE","county":"SOUTH GLOUCESTERSHIRE","ppdCategoryType":"Standard","recordStatus":"Addition","latitude":51.455902,"longitude":-2.489275,"postcodeStart":"BS15 9","postcode":["BS15","9YR"]}
{"price":47000,"dateOfTransfer":"1996-01-19T00:00:00","postcodeFull":"BS15 9YR","propertyType":"Semi-detached","oldOrNew":"Established","duration":"Freehold","paon":"23","saon":"","street":"STAVERTON WAY","locality":"BRISTOL","townOrCity":"BRISTOL","district":"KINGSWOOD","county":"AVON","ppdCategoryType":"Standard","recordStatus":"Addition","latitude":51.455902,"longitude":-2.489275,"postcodeStart":"BS15 9","postcode":["BS15","9YR"]}
{"price":32000,"dateOfTransfer":"1996-04-30T00:00:00","postcodeFull":"BS15 9PF","propertyType":"Terraced","oldOrNew":"Established","duration":"Freehold","paon":"43A","saon":"","street":"WEDMORE CLOSE","locality":"BRISTOL","townOrCity":"BRISTOL","district":"SOUTH GLOUCESTERSHIRE","county":"SOUTH GLOUCESTERSHIRE","ppdCategoryType":"Standard","recordStatus":"Addition","latitude":51.455392,"longitude":-2.497214,"postcodeStart":"BS15 9","postcode":["BS15","9PF"]}
{"price":56000,"dateOfTransfer":"1996-05-31T00:00:00","postcodeFull":"BS15 9SF","propertyType":"Detached","oldOrNew":"Established","duration":"Freehold","paon":"117","saon":"","street":"COCK ROAD","locality":"BRISTOL","townOrCity":"BRISTOL","district":"SOUTH GLOUCESTERSHIRE","county":"SOUTH GLOUCESTERSHIRE","ppdCategoryType":"Standard","recordStatus":"Addition","latitude":51.455069,"longitude":-2.490188,"postcodeStart":"BS15 9","postcode":["BS15","9SF"]}
{"price":56000,"dateOfTransfer":"1996-06-21T00:00:00","postcodeFull":"BS15 9TW","propertyType":"Semi-detached","oldOrNew":"Established","duration":"Freehold","paon":"3","saon":"","street":"BRAKE CLOSE","locality":"BRISTOL","townOrCity":"BRISTOL","district":"SOUTH GLOUCESTERSHIRE","county":"SOUTH GLOUCESTERSHIRE","ppdCategoryType":"Standard","recordStatus":"Addition","latitude":51.455044,"longitude":-2.496592,"postcodeStart":"BS15 9","postcode":["BS15","9TW"]}
{"price":28250,"dateOfTransfer":"1996-11-29T00:00:00","postcodeFull":"BS15 9QD","propertyType":"Terraced","oldOrNew":"Established","duration":"Freehold","paon":"10","saon":"","street":"COURT ROAD","locality":"KINGSWOOD","townOrCity":"BRISTOL","district":"SOUTH GLOUCESTERSHIRE","county":"SOUTH GLOUCESTERSHIRE","ppdCategoryType":"Standard","recordStatus":"Addition","latitude":51.457155,"longitude":-2.505394,"postcodeStart":"BS15 9","postcode":["BS15","9QD"]}
{"price":44000,"dateOfTransfer":"1996-03-21T00:00:00","postcodeFull":"BS15 9XE","propertyType":"Terraced","oldOrNew":"Established","duration":"Freehold","paon":"73","saon":"","street":"BADEN ROAD","locality":"KINGSWOOD","townOrCity":"BRISTOL","district":"SOUTH GLOUCESTERSHIRE","county":"SOUTH GLOUCESTERSHIRE","ppdCategoryType":"Standard","recordStatus":"Addition","latitude":51.458594,"longitude":-2.483677,"postcodeStart":"BS15 9","postcode":["BS15","9XE"]}
{"price":71000,"dateOfTransfer":"1996-02-29T00:00:00","postcodeFull":"BS15 9ZA","propertyType":"Terraced","oldOrNew":"Established","duration":"Freehold","paon":"34","saon":"","street":"KEMBLE CLOSE","locality":"BRISTOL","townOrCity":"BRISTOL","district":"KINGSWOOD","county":"AVON","ppdCategoryType":"Standard","recordStatus":"Addition","latitude":51.453925,"longitude":-2.501789,"postcodeStart":"BS15 9","postcode":["BS15","9ZA"]}
{"price":43250,"dateOfTransfer":"1996-06-14T00:00:00","postcodeFull":"BS15 9WS","propertyType":"Terraced","oldOrNew":"Established","duration":"Freehold","paon":"25","saon":"","street":"GLANVILLE GARDENS","locality":"BRISTOL","townOrCity":"BRISTOL","district":"SOUTH GLOUCESTERSHIRE","county":"SOUTH GLOUCESTERSHIRE","ppdCategoryType":"Standard","recordStatus":"Addition","latitude":51.455515,"longitude":-2.502037,"postcodeStart":"BS15 9","postcode":["BS15","9WS"]}
{"price":76500,"dateOfTransfer":"1996-12-20T00:00:00","postcodeFull":"BS15 9FG","propertyType":"Detached","oldOrNew":"Established","duration":"Freehold","paon":"4","saon":"","street":"KINGSLEIGH GARDENS","locality":"BRISTOL","townOrCity":"BRISTOL","district":"SOUTH GLOUCESTERSHIRE","county":"SOUTH GLOUCESTERSHIRE","ppdCategoryType":"Standard","recordStatus":"Addition","latitude":51.457173,"longitude":-2.492642,"postcodeStart":"BS15 9","postcode":["BS15","9FG"]}
{"price":45000,"dateOfTransfer":"1996-08-23T00:00:00","postcodeFull":"BS15 9YN","propertyType":"Terraced","oldOrNew":"Established","duration":"Freehold","paon":"8","saon":"","street":"WHITECROFT WAY","locality":"BRISTOL","townOrCity":"BRISTOL","district":"SOUTH GLOUCESTERSHIRE","county":"SOUTH GLOUCESTERSHIRE","ppdCategoryType":"Standard","recordStatus":"Addition","latitude":51.456744,"longitude":-2.489975,"postcodeStart":"BS15 9","postcode":["BS15","9YN"]}
{"price":42000,"dateOfTransfer":"1996-09-27T00:00:00","postcodeFull":"BS15 9WT","propertyType":"Semi-detached","oldOrNew":"Established","duration":"Freehold","paon":"33","saon":"","street":"GLANVILLE GARDENS","locality":"BRISTOL","townOrCity":"BRISTOL","district":"SOUTH GLOUCESTERSHIRE","county":"SOUTH GLOUCESTERSHIRE","ppdCategoryType":"Standard","recordStatus":"Addition","latitude":51.456172,"longitude":-2.501828,"postcodeStart":"BS15 9","postcode":["BS15","9WT"]}
{"price":42500,"dateOfTransfer":"1996-05-29T00:00:00","postcodeFull":"BS15 9TW","propertyType":"Terraced","oldOrNew":"Established","duration":"Freehold","paon":"29","saon":"","street":"BRAKE CLOSE","locality":"BRISTOL","townOrCity":"BRISTOL","district":"SOUTH GLOUCESTERSHIRE","county":"SOUTH GLOUCESTERSHIRE","ppdCategoryType":"Standard","recordStatus":"Addition","latitude":51.455044,"longitude":-2.496592,"postcodeStart":"BS15 9","postcode":["BS15","9TW"]}
{"price":45500,"dateOfTransfer":"1996-02-29T00:00:00","postcodeFull":"BS15 9UA","propertyType":"Terraced","oldOrNew":"Established","duration":"Freehold","paon":"23","saon":"","street":"ORCHARD GARDENS","locality":"BRISTOL","townOrCity":"BRISTOL","district":"SOUTH GLOUCESTERSHIRE","county":"SOUTH GLOUCESTERSHIRE","ppdCategoryType":"Standard","recordStatus":"Addition","latitude":51.460372,"longitude":-2.495426,"postcodeStart":"BS15 9","postcode":["BS15","9UA"]}
{"price":39500,"dateOfTransfer":"1996-07-17T00:00:00","postcodeFull":"BS15 9RW","propertyType":"Terraced","oldOrNew":"Established","duration":"Freehold","paon":"96","saon":"","street":"COURTNEY ROAD","locality":"BRISTOL","townOrCity":"BRISTOL","district":"SOUTH GLOUCESTERSHIRE","county":"SOUTH GLOUCESTERSHIRE","ppdCategoryType":"Standard","recordStatus":"Addition","latitude":51.456324,"longitude":-2.497786,"postcodeStart":"BS15 9","postcode":["BS15","9RW"]}
{"price":72000,"dateOfTransfer":"1996-10-22T00:00:00","postcodeFull":"BS15 9RS","propertyType":"Semi-detached","oldOrNew":"Established","duration":"Freehold","paon":"33","saon":"","street":"LOWER COCK ROAD","locality":"BRISTOL","townOrCity":"BRISTOL","district":"SOUTH GLOUCESTERSHIRE","county":"SOUTH GLOUCESTERSHIRE","ppdCategoryType":"Standard","recordStatus":"Addition","latitude":51.455694,"longitude":-2.491605,"postcodeStart":"BS15 9","postcode":["BS15","9RS"]}
{"price":69000,"dateOfTransfer":"1996-12-17T00:00:00","postcodeFull":"BS15 9RJ","propertyType":"Semi-detached","oldOrNew":"Established","duration":"Freehold","paon":"33","saon":"","street":"SELWORTHY","locality":"BRISTOL","townOrCity":"BRISTOL","district":"SOUTH GLOUCESTERSHIRE","county":"SOUTH GLOUCESTERSHIRE","ppdCategoryType":"Standard","recordStatus":"Addition","latitude":51.458121,"longitude":-2.500353,"postcodeStart":"BS15 9","postcode":["BS15","9RJ"]}
{"price":24000,"dateOfTransfer":"1996-07-11T00:00:00","postcodeFull":"BS15 9LG","propertyType":"Flat/Maisonette/Townhouse","oldOrNew":"Established","duration":"Leasehold","paon":"14","saon":"","street":"LADD CLOSE","locality":"BRISTOL","townOrCity":"BRISTOL","district":"SOUTH GLOUCESTERSHIRE","county":"SOUTH GLOUCESTERSHIRE","ppdCategoryType":"Standard","recordStatus":"Addition","latitude":51.455272,"longitude":-2.495673,"postcodeStart":"BS15 9","postcode":["BS15","9LG"]}
{"price":48500,"dateOfTransfer":"1996-03-13T00:00:00","postcodeFull":"BS15 9YR","propertyType":"Semi-detached","oldOrNew":"Established","duration":"Freehold","paon":"55","saon":"","street":"STAVERTON WAY","locality":"BRISTOL","townOrCity":"BRISTOL","district":"SOUTH GLOUCESTERSHIRE","county":"SOUTH GLOUCESTERSHIRE","ppdCategoryType":"Standard","recordStatus":"Addition","latitude":51.455902,"longitude":-2.489275,"postcodeStart":"BS15 9","postcode":["BS15","9YR"]}
{"price":94000,"dateOfTransfer":"1996-09-27T00:00:00","postcodeFull":"BS15 9QN","propertyType":"Detached","oldOrNew":"Established","duration":"Freehold","paon":"87","saon":"","street":"COURT ROAD","locality":"KINGSWOOD","townOrCity":"BRISTOL","district":"SOUTH GLOUCESTERSHIRE","county":"SOUTH GLOUCESTERSHIRE","ppdCategoryType":"Standard","recordStatus":"Addition","latitude":51.453502,"longitude":-2.50593,"postcodeStart":"BS15 9","postcode":["BS15","9QN"]}
{"price":42000,"dateOfTransfer":"1996-03-04T00:00:00","postcodeFull":"BS15 9PJ","propertyType":"Terraced","oldOrNew":"Established","duration":"Freehold","paon":"16","saon":"","street":"KINGSLEIGH PARK","locality":"BRISTOL","townOrCity":"BRISTOL","district":"SOUTH GLOUCESTERSHIRE","county":"SOUTH GLOUCESTERSHIRE","ppdCategoryType":"Standard","recordStatus":"Addition","latitude":51.456846,"longitude":-2.493618,"postcodeStart":"BS15 9","postcode":["BS15","9PJ"]}
{"price":45000,"dateOfTransfer":"1996-12-20T00:00:00","postcodeFull":"BS15 9SD","propertyType":"Terraced","oldOrNew":"Established","duration":"Freehold","paon":"45","saon":"","street":"GRIMSBURY ROAD","locality":"BRISTOL","townOrCity":"BRISTOL","district":"SOUTH GLOUCESTERSHIRE","county":"SOUTH GLOUCESTERSHIRE","ppdCategoryType":"Standard","recordStatus":"Addition","latitude":51.457761,"longitude":-2.487008,"postcodeStart":"BS15 9","postcode":["BS15","9SD"]}
{"price":42000,"dateOfTransfer":"1996-06-21T00:00:00","postcodeFull":"BS15 9TZ","propertyType":"Terraced","oldOrNew":"Established","duration":"Freehold","paon":"123","saon":"","street":"ORCHARD ROAD","locality":"KINGSWOOD","townOrCity":"BRISTOL","district":"SOUTH GLOUCESTERSHIRE","county":"SOUTH GLOUCESTERSHIRE","ppdCategoryType":"Standard","recordStatus":"Addition","latitude":51.460109,"longitude":-2.495783,"postcodeStart":"BS15 9","postcode":["BS15","9TZ"]}
{"price":49995,"dateOfTransfer":"1996-11-29T00:00:00","postcodeFull":"BS15 9TZ","propertyType":"Terraced","oldOrNew":"Established","duration":"Freehold","paon":"105","saon":"","street":"ORCHARD ROAD","locality":"KINGSWOOD","townOrCity":"BRISTOL","district":"SOUTH GLOUCESTERSHIRE","county":"SOUTH GLOUCESTERSHIRE","ppdCategoryType":"Standard","recordStatus":"Addition","latitude":51.460109,"longitude":-2.495783,"postcodeStart":"BS15 9","postcode":["BS15","9TZ"]}
{"price":43000,"dateOfTransfer":"1996-03-01T00:00:00","postcodeFull":"BS15 9WX","propertyType":"Semi-detached","oldOrNew":"Established","duration":"Freehold","paon":"60","saon":"","street":"GLANVILLE GARDENS","locality":"BRISTOL","townOrCity":"BRISTOL","district":"SOUTH GLOUCESTERSHIRE","county":"SOUTH GLOUCESTERSHIRE","ppdCategoryType":"Standard","recordStatus":"Addition","latitude":51.455261,"longitude":-2.500336,"postcodeStart":"BS15 9","postcode":["BS15","9WX"]}
{"price":40000,"dateOfTransfer":"1996-06-17T00:00:00","postcodeFull":"BS15 9RN","propertyType":"Terraced","oldOrNew":"Established","duration":"Freehold","paon":"152","saon":"","street":"COURTNEY ROAD","locality":"BRISTOL","townOrCity":"BRISTOL","district":"SOUTH GLOUCESTERSHIRE","county":"SOUTH GLOUCESTERSHIRE","ppdCategoryType":"Standard","recordStatus":"Addition","latitude":51.456152,"longitude":-2.493869,"postcodeStart":"BS15 9","postcode":["BS15","9RN"]}
{"price":34500,"dateOfTransfer":"1996-03-29T00:00:00","postcodeFull":"BS15 9TU","propertyType":"Flat/Maisonette/Townhouse","oldOrNew":"Established","duration":"Leasehold","paon":"79","saon":"","street":"BELLEVUE ROAD","locality":"KINGSWOOD","townOrCity":"BRISTOL","district":"SOUTH GLOUCESTERSHIRE","county":"SOUTH GLOUCESTERSHIRE","ppdCategoryType":"Standard","recordStatus":"Addition","latitude":51.458388,"longitude":-2.496628,"postcodeStart":"BS15 9","postcode":["BS15","9TU"]}
{"price":44000,"dateOfTransfer":"1996-05-17T00:00:00","postcodeFull":"BS15 9UU","propertyType":"Terraced","oldOrNew":"Established","duration":"Freehold","paon":"37","saon":"","street":"FAIRVIEW ROAD","locality":"BRISTOL","townOrCity":"BRISTOL","district":"SOUTH GLOUCESTERSHIRE","county":"SOUTH GLOUCESTERSHIRE","ppdCategoryType":"Standard","recordStatus":"Addition","latitude":51.460288,"longitude":-2.491755,"postcodeStart":"BS15 9","postcode":["BS15","9UU"]}
{"price":44000,"dateOfTransfer":"1996-08-30T00:00:00","postcodeFull":"BS15 9QD","propertyType":"Terraced","oldOrNew":"Established","duration":"Freehold","paon":"12","saon":"","street":"COURT ROAD","locality":"KINGSWOOD","townOrCity":"BRISTOL","district":"SOUTH GLOUCESTERSHIRE","county":"SOUTH GLOUCESTERSHIRE","ppdCategoryType":"Standard","recordStatus":"Addition","latitude":51.457155,"longitude":-2.505394,"postcodeStart":"BS15 9","postcode":["BS15","9QD"]}
{"price":26000,"dateOfTransfer":"1996-05-16T00:00:00","postcodeFull":"BS15 9QE","propertyType":"Semi-detached","oldOrNew":"Established","duration":"Freehold","paon":"2","saon":"","street":"BERKELEY ROAD","locality":"KINGSWOOD","townOrCity":"BRISTOL","district":"SOUTH GLOUCESTERSHIRE","county":"SOUTH GLOUCESTERSHIRE","ppdCategoryType":"Standard","recordStatus":"Addition","latitude":51.457131,"longitude":-2.504646,"postcodeStart":"BS15 9","postcode":["BS15","9QE"]}
{"price":38000,"dateOfTransfer":"1996-09-27T00:00:00","postcodeFull":"BS15 9ZD","propertyType":"Terraced","oldOrNew":"Established","duration":"Freehold","paon":"6","saon":"","street":"OWLS HEAD ROAD","locality":"BRISTOL","townOrCity":"BRISTOL","district":"SOUTH GLOUCESTERSHIRE","county":"SOUTH GLOUCESTERSHIRE","ppdCategoryType":"Standard","recordStatus":"Addition","latitude":51.454085,"longitude":-2.499992,"postcodeStart":"BS15 9","postcode":["BS15","9ZD"]}
{"price":50500,"dateOfTransfer":"1996-01-05T00:00:00","postcodeFull":"BS15 9PF","propertyType":"Terraced","oldOrNew":"Established","duration":"Freehold","paon":"46","saon":"","street":"WEDMORE CLOSE","locality":"BRISTOL","townOrCity":"BRISTOL","district":"KINGSWOOD","county":"AVON","ppdCategoryType":"Standard","recordStatus":"Addition","latitude":51.455392,"longitude":-2.497214,"postcodeStart":"BS15 9","postcode":["BS15","9PF"]}
{"price":45000,"dateOfTransfer":"1996-09-27T00:00:00","postcodeFull":"BS15 9RH","propertyType":"Semi-detached","oldOrNew":"Established","duration":"Freehold","paon":"42","saon":"","street":"COURTNEY ROAD","locality":"BRISTOL","townOrCity":"BRISTOL","district":"SOUTH GLOUCESTERSHIRE","county":"SOUTH GLOUCESTERSHIRE","ppdCategoryType":"Standard","recordStatus":"Addition","latitude":51.457306,"longitude":-2.501769,"postcodeStart":"BS15 9","postcode":["BS15","9RH"]}
{"price":45000,"dateOfTransfer":"1996-06-19T00:00:00","postcodeFull":"BS15 9SJ","propertyType":"Terraced","oldOrNew":"Established","duration":"Freehold","paon":"12A","saon":"","street":"COCK ROAD","locality":"BRISTOL","townOrCity":"BRISTOL","district":"SOUTH GLOUCESTERSHIRE","county":"SOUTH GLOUCESTERSHIRE","ppdCategoryType":"Standard","recordStatus":"Addition","latitude":51.452458,"longitude":-2.49983,"postcodeStart":"BS15 9","postcode":["BS15","9SJ"]}
{"price":122000,"dateOfTransfer":"1996-03-01T00:00:00","postcodeFull":"BS15 9SN","propertyType":"Detached","oldOrNew":"Established","duration":"Freehold","paon":"41","saon":"","street":"PETTIGROVE ROAD","locality":"BRISTOL","townOrCity":"BRISTOL","district":"SOUTH GLOUCESTERSHIRE","county":"SOUTH GLOUCESTERSHIRE","ppdCategoryType":"Standard","recordStatus":"Addition","latitude":51.454714,"longitude":-2.502273,"postcodeStart":"BS15 9","postcode":["BS15","9SN"]}
{"price":58500,"dateOfTransfer":"1996-11-22T00:00:00","postcodeFull":"BS15 9QD","propertyType":"Terraced","oldOrNew":"Established","duration":"Freehold","paon":"28","saon":"","street":"COURT ROAD","locality":"KINGSWOOD","townOrCity":"BRISTOL","district":"SOUTH GLOUCESTERSHIRE","county":"SOUTH GLOUCESTERSHIRE","ppdCategoryType":"Standard","recordStatus":"Addition","latitude":51.457155,"longitude":-2.505394,"postcodeStart":"BS15 9","postcode":["BS15","9QD"]}
{"price":55000,"dateOfTransfer":"1996-07-23T00:00:00","postcodeFull":"BS15 9SQ","propertyType":"Semi-detached","oldOrNew":"Established","duration":"Freehold","paon":"56","saon":"","street":"COCK ROAD","locality":"BRISTOL","townOrCity":"BRISTOL","district":"SOUTH GLOUCESTERSHIRE","county":"SOUTH GLOUCESTERSHIRE","ppdCategoryType":"Standard","recordStatus":"Addition","latitude":51.453387,"longitude":-2.494458,"postcodeStart":"BS15 9","postcode":["BS15","9SQ"]}
{"price":44500,"dateOfTransfer":"1996-02-02T00:00:00","postcodeFull":"BS15 9UF","propertyType":"Terraced","oldOrNew":"Established","duration":"Freehold","paon":"23","saon":"","street":"THE ORCHARDS","locality":"BRISTOL","townOrCity":"BRISTOL","district":"KINGSWOOD","county":"AVON","ppdCategoryType":"Standard","recordStatus":"Addition","latitude":51.459461,"longitude":-2.496107,"postcodeStart":"BS15 9","postcode":["BS15","9UF"]}
{"price":42000,"dateOfTransfer":"1996-12-06T00:00:00","postcodeFull":"BS15 9TD","propertyType":"Terraced","oldOrNew":"Established","duration":"Freehold","paon":"12","saon":"","street":"KINGSLEIGH COURT","locality":"BRISTOL","townOrCity":"BRISTOL","district":"SOUTH GLOUCESTERSHIRE","county":"SOUTH GLOUCESTERSHIRE","ppdCategoryType":"Standard","recordStatus":"Addition","latitude":51.457626,"longitude":-2.491985,"postcodeStart":"BS15 9","postcode":["BS15","9TD"]}
{"price":37000,"dateOfTransfer":"1996-07-31T00:00:00","postcodeFull":"BS15 9SQ","propertyType":"Terraced","oldOrNew":"Established","duration":"Freehold","paon":"63","saon":"","street":"COCK ROAD","locality":"BRISTOL","townOrCity":"BRISTOL","district":"SOUTH GLOUCESTERSHIRE","county":"SOUTH GLOUCESTERSHIRE","ppdCategoryType":"Standard","recordStatus":"Addition","latitude":51.453387,"longitude":-2.494458,"postcodeStart":"BS15 9","postcode":["BS15","9SQ"]}
{"price":48000,"dateOfTransfer":"1996-01-12T00:00:00","postcodeFull":"BS15 9TY","propertyType":"Terraced","oldOrNew":"Established","duration":"Freehold","paon":"70","saon":"","street":"ORCHARD ROAD","locality":"KINGSWOOD","townOrCity":"BRISTOL","district":"KINGSWOOD","county":"AVON","ppdCategoryType":"Standard","recordStatus":"Addition","latitude":51.459857,"longitude":-2.495982,"postcodeStart":"BS15 9","postcode":["BS15","9TY"]}
{"price":54500,"dateOfTransfer":"1996-08-21T00:00:00","postcodeFull":"BS15 9TJ","propertyType":"Semi-detached","oldOrNew":"Established","duration":"Freehold","paon":"20","saon":"","street":"PARK VIEW","locality":"BRISTOL","townOrCity":"BRISTOL","district":"SOUTH GLOUCESTERSHIRE","county":"SOUTH GLOUCESTERSHIRE","ppdCategoryType":"Standard","recordStatus":"Addition","latitude":51.458878,"longitude":-2.499843,"postcodeStart":"BS15 9","postcode":["BS15","9TJ"]}
{"price":26000,"dateOfTransfer":"1996-05-16T00:00:00","postcodeFull":"BS15 9SQ","propertyType":"Terraced","oldOrNew":"Established","duration":"Freehold","paon":"45A","saon":"","street":"COCK ROAD","locality":"","townOrCity":"BRISTOL","district":"SOUTH GLOUCESTERSHIRE","county":"SOUTH GLOUCESTERSHIRE","ppdCategoryType":"Standard","recordStatus":"Addition","latitude":51.453387,"longitude":-2.494458,"postcodeStart":"BS15 9","postcode":["BS15","9SQ"]}
{"price":41000,"dateOfTransfer":"1996-11-28T00:00:00","postcodeFull":"BS15 9WU","propertyType":"Terraced","oldOrNew":"Established","duration":"Freehold","paon":"45","saon":"","street":"GLANVILLE GARDENS","locality":"BRISTOL","townOrCity":"BRISTOL","district":"SOUTH GLOUCESTERSHIRE","county":"SOUTH GLOUCESTERSHIRE","ppdCategoryType":"Standard","recordStatus":"Addition","latitude":51.45579,"longitude":-2.500802,"postcodeStart":"BS15 9","postcode":["BS15","9WU"]}
{"price":135000,"dateOfTransfer":"1996-10-11T00:00:00","postcodeFull":"BS15 9NG","propertyType":"Detached","oldOrNew":"Established","duration":"Freehold","paon":"6","saon":"","street":"TYLER CLOSE","locality":"BRISTOL","townOrCity":"BRISTOL","district":"SOUTH GLOUCESTERSHIRE","county":"SOUTH GLOUCESTERSHIRE","ppdCategoryType":"Standard","recordStatus":"Addition","latitude":51.449513,"longitude":-2.50318,"postcodeStart":"BS15 9","postcode":["BS15","9NG"]}
{"price":56500,"dateOfTransfer":"1996-09-30T00:00:00","postcodeFull":"BS15 9TY","propertyType":"Terraced","oldOrNew":"Established","duration":"Freehold","paon":"60","saon":"","street":"ORCHARD ROAD","locality":"KINGSWOOD","townOrCity":"BRISTOL","district":"SOUTH GLOUCESTERSHIRE","county":"SOUTH GLOUCESTERSHIRE","ppdCategoryType":"Standard","recordStatus":"Addition","latitude":51.459857,"longitude":-2.495982,"postcodeStart":"BS15 9","postcode":["BS15","9TY"]}
{"price":59450,"dateOfTransfer":"1996-05-13T00:00:00","postcodeFull":"BS15 9UB","propertyType":"Semi-detached","oldOrNew":"Established","duration":"Freehold","paon":"13","saon":"","street":"WOODSTOCK ROAD","locality":"KINGSWOOD","townOrCity":"BRISTOL","district":"SOUTH GLOUCESTERSHIRE","county":"SOUTH GLOUCESTERSHIRE","ppdCategoryType":"Standard","recordStatus":"Addition","latitude":51.460643,"longitude":-2.494595,"postcodeStart":"BS15 9","postcode":["BS15","9UB"]}
{"price":43000,"dateOfTransfer":"1996-02-20T00:00:00","postcodeFull":"BS15 9YL","propertyType":"Terraced","oldOrNew":"Established","duration":"Freehold","paon":"9","saon":"","street":"WHITECROFT WAY","locality":"BRISTOL","townOrCity":"BRISTOL","district":"KINGSWOOD","county":"AVON","ppdCategoryType":"Standard","recordStatus":"Addition","latitude":51.456927,"longitude":-2.489257,"postcodeStart":"BS15 9","postcode":["BS15","9YL"]}
{"price":43500,"dateOfTransfer":"1996-09-06T00:00:00","postcodeFull":"BS15 9PE","propertyType":"Semi-detached","oldOrNew":"Established","duration":"Freehold","paon":"24","saon":"","street":"SOMERTON CLOSE","locality":"BRISTOL","townOrCity":"BRISTOL","district":"SOUTH GLOUCESTERSHIRE","county":"SOUTH GLOUCESTERSHIRE","ppdCategoryType":"Standard","recordStatus":"Addition","latitude":51.456452,"longitude":-2.499428,"postcodeStart":"BS15 9","postcode":["BS15","9PE"]}
{"price":126000,"dateOfTransfer":"1996-11-15T00:00:00","postcodeFull":"BS15 9NW","propertyType":"Detached","oldOrNew":"Established","duration":"Freehold","paon":"18A","saon":"","street":"HOLLYGUEST ROAD","locality":"BRISTOL","townOrCity":"BRISTOL","district":"SOUTH GLOUCESTERSHIRE","county":"SOUTH GLOUCESTERSHIRE","ppdCategoryType":"Standard","recordStatus":"Addition","latitude":51.450674,"longitude":-2.502388,"postcodeStart":"BS15 9","postcode":["BS15","9NW"]}
{"price":43000,"dateOfTransfer":"1996-05-17T00:00:00","postcodeFull":"BS15 9TY","propertyType":"Terraced","oldOrNew":"Established","duration":"Freehold","paon":"66","saon":"","street":"ORCHARD ROAD","locality":"KINGSWOOD","townOrCity":"BRISTOL","district":"SOUTH GLOUCESTERSHIRE","county":"SOUTH GLOUCESTERSHIRE","ppdCategoryType":"Standard","recordStatus":"Addition","latitude":51.459857,"longitude":-2.495982,"postcodeStart":"BS15 9","postcode":["BS15","9TY"]}
{"price":43000,"dateOfTransfer":"1996-03-22T00:00:00","postcodeFull":"BS15 9WS","propertyType":"Terraced","oldOrNew":"Established","duration":"Freehold","paon":"18","saon":"","street":"GLANVILLE GARDENS","locality":"BRISTOL","townOrCity":"BRISTOL","district":"SOUTH GLOUCESTERSHIRE","county":"SOUTH GLOUCESTERSHIRE","ppdCategoryType":"Standard","recordStatus":"Addition","latitude":51.455515,"longitude":-2.502037,"postcodeStart":"BS15 9","postcode":["BS15","9WS"]}
{"price":65000,"dateOfTransfer":"1996-06-28T00:00:00","postcodeFull":"BS15 9ZG","propertyType":"Detached","oldOrNew":"Established","duration":"Freehold","paon":"46","saon":"","street":"LAVERS CLOSE","locality":"BRISTOL","townOrCity":"BRISTOL","district":"SOUTH GLOUCESTERSHIRE","county":"SOUTH GLOUCESTERSHIRE","ppdCategoryType":"Standard","recordStatus":"Addition","latitude":51.453357,"longitude":-2.497941,"postcodeStart":"BS15 9","postcode":["BS15","9ZG"]}
{"price":47250,"dateOfTransfer":"1996-05-02T00:00:00","postcodeFull":"BS15 9TW","propertyType":"Terraced","oldOrNew":"Established","duration":"Freehold","paon":"37","saon":"","street":"BRAKE CLOSE","locality":"BRISTOL","townOrCity":"BRISTOL","district":"SOUTH GLOUCESTERSHIRE","county":"SOUTH GLOUCESTERSHIRE","ppdCategoryType":"Standard","recordStatus":"Addition","latitude":51.455044,"longitude":-2.496592,"postcodeStart":"BS15 9","postcode":["BS15","9TW"]}
{"price":57750,"dateOfTransfer":"1996-08-23T00:00:00","postcodeFull":"BS15 9PJ","propertyType":"Semi-detached","oldOrNew":"Established","duration":"Freehold","paon":"5","saon":"","street":"KINGSLEIGH PARK","locality":"BRISTOL","townOrCity":"BRISTOL","district":"SOUTH GLOUCESTERSHIRE","county":"SOUTH GLOUCESTERSHIRE","ppdCategoryType":"Standard","recordStatus":"Addition","latitude":51.456846,"longitude":-2.493618,"postcodeStart":"BS15 9","postcode":["BS15","9PJ"]}
{"price":45000,"dateOfTransfer":"1996-07-26T00:00:00","postcodeFull":"BS15 9WX","propertyType":"Terraced","oldOrNew":"Established","duration":"Freehold","paon":"83","saon":"","street":"GLANVILLE GARDENS","locality":"BRISTOL","townOrCity":"BRISTOL","district":"SOUTH GLOUCESTERSHIRE","county":"SOUTH GLOUCESTERSHIRE","ppdCategoryType":"Standard","recordStatus":"Addition","latitude":51.455261,"longitude":-2.500336,"postcodeStart":"BS15 9","postcode":["BS15","9WX"]}
{"price":89000,"dateOfTransfer":"1996-08-01T00:00:00","postcodeFull":"BS15 9RN","propertyType":"Detached","oldOrNew":"Established","duration":"Freehold","paon":"51","saon":"","street":"COURTNEY ROAD","locality":"BRISTOL","townOrCity":"BRISTOL","district":"SOUTH GLOUCESTERSHIRE","county":"SOUTH GLOUCESTERSHIRE","ppdCategoryType":"Standard","recordStatus":"Addition","latitude":51.456152,"longitude":-2.493869,"postcodeStart":"BS15 9","postcode":["BS15","9RN"]}
{"price":52000,"dateOfTransfer":"1996-02-28T00:00:00","postcodeFull":"BS15 9YF","propertyType":"Terraced","oldOrNew":"Established","duration":"Freehold","paon":"85","saon":"","street":"GRIMSBURY ROAD","locality":"BRISTOL","townOrCity":"BRISTOL","district":"KINGSWOOD","county":"AVON","ppdCategoryType":"Standard","recordStatus":"Addition","latitude":51.456592,"longitude":-2.487498,"postcodeStart":"BS15 9","postcode":["BS15","9YF"]}
{"price":40000,"dateOfTransfer":"1996-09-12T00:00:00","postcodeFull":"BS15 9UQ","propertyType":"Semi-detached","oldOrNew":"Established","duration":"Freehold","paon":"7","saon":"","street":"GAGES ROAD","locality":"BRISTOL","townOrCity":"BRISTOL","district":"SOUTH GLOUCESTERSHIRE","county":"SOUTH GLOUCESTERSHIRE","ppdCategoryType":"Standard","recordStatus":"Addition","latitude":51.458576,"longitude":-2.4926,"postcodeStart":"BS15 9","postcode":["BS15","9UQ"]}
{"price":56500,"dateOfTransfer":"1996-07-12T00:00:00","postcodeFull":"BS15 9QL","propertyType":"Semi-detached","oldOrNew":"Established","duration":"Freehold","paon":"16","saon":"","street":"PETTIGROVE GARDENS","locality":"BRISTOL","townOrCity":"BRISTOL","district":"SOUTH GLOUCESTERSHIRE","county":"SOUTH GLOUCESTERSHIRE","ppdCategoryType":"Standard","recordStatus":"Addition","latitude":51.455292,"longitude":-2.503762,"postcodeStart":"BS15 9","postcode":["BS15","9QL"]}
{"price":29000,"dateOfTransfer":"1996-06-28T00:00:00","postcodeFull":"BS15 9QD","propertyType":"Terraced","oldOrNew":"Established","duration":"Freehold","paon":"16","saon":"","street":"COURT ROAD","locality":"KINGSWOOD","townOrCity":"BRISTOL","district":"SOUTH GLOUCESTERSHIRE","county":"SOUTH GLOUCESTERSHIRE","ppdCategoryType":"Standard","recordStatus":"Addition","latitude":51.457155,"longitude":-2.505394,"postcodeStart":"BS15 9","postcode":["BS15","9QD"]}
{"price":39500,"dateOfTransfer":"1996-09-27T00:00:00","postcodeFull":"BS15 9PF","propertyType":"Flat/Maisonette/Townhouse","oldOrNew":"Established","duration":"Freehold","paon":"66","saon":"","street":"WEDMORE CLOSE","locality":"BRISTOL","townOrCity":"BRISTOL","district":"SOUTH GLOUCESTERSHIRE","county":"SOUTH GLOUCESTERSHIRE","ppdCategoryType":"Standard","recordStatus":"Addition","latitude":51.455392,"longitude":-2.497214,"postcodeStart":"BS15 9","postcode":["BS15","9PF"]}
{"price":53500,"dateOfTransfer":"1996-10-25T00:00:00","postcodeFull":"BS15 9UF","propertyType":"Terraced","oldOrNew":"Established","duration":"Freehold","paon":"21","saon":"","street":"THE ORCHARDS","locality":"BRISTOL","townOrCity":"BRISTOL","district":"SOUTH GLOUCESTERSHIRE","county":"SOUTH GLOUCESTERSHIRE","ppdCategoryType":"Standard","recordStatus":"Addition","latitude":51.459461,"longitude":-2.496107,"postcodeStart":"BS15 9","postcode":["BS15","9UF"]}
{"price":41000,"dateOfTransfer":"1996-06-06T00:00:00","postcodeFull":"BS15 9WX","propertyType":"Terraced","oldOrNew":"Established","duration":"Freehold","paon":"66","saon":"","street":"GLANVILLE GARDENS","locality":"BRISTOL","townOrCity":"BRISTOL","district":"SOUTH GLOUCESTERSHIRE","county":"SOUTH GLOUCESTERSHIRE","ppdCategoryType":"Standard","recordStatus":"Addition","latitude":51.455261,"longitude":-2.500336,"postcodeStart":"BS15 9","postcode":["BS15","9WX"]}
{"price":42500,"dateOfTransfer":"1996-07-26T00:00:00","postcodeFull":"BS15 9QB","propertyType":"Semi-detached","oldOrNew":"Established","duration":"Freehold","paon":"19","saon":"","street":"COURT ROAD","locality":"KINGSWOOD","townOrCity":"BRISTOL","district":"SOUTH GLOUCESTERSHIRE","county":"SOUTH GLOUCESTERSHIRE","ppdCategoryType":"Standard","recordStatus":"Addition","latitude":51.458025,"longitude":-2.50585,"postcodeStart":"BS15 9","postcode":["BS15","9QB"]}
{"price":50000,"dateOfTransfer":"1996-05-10T00:00:00","postcodeFull":"BS15 9UF","propertyType":"Semi-detached","oldOrNew":"Established","duration":"Freehold","paon":"7","saon":"","street":"THE ORCHARDS","locality":"BRISTOL","townOrCity":"BRISTOL","district":"SOUTH GLOUCESTERSHIRE","county":"SOUTH GLOUCESTERSHIRE","ppdCategoryType":"Standard","recordStatus":"Addition","latitude":51.459461,"longitude":-2.496107,"postcodeStart":"BS15 9","postcode":["BS15","9UF"]}
{"price":44000,"dateOfTransfer":"1996-04-04T00:00:00","postcodeFull":"BS15 9ZG","propertyType":"Terraced","oldOrNew":"Established","duration":"Freehold","paon":"42","saon":"","street":"LAVERS CLOSE","locality":"BRISTOL","townOrCity":"BRISTOL","district":"SOUTH GLOUCESTERSHIRE","county":"SOUTH GLOUCESTERSHIRE","ppdCategoryType":"Standard","recordStatus":"Addition","latitude":51.453357,"longitude":-2.497941,"postcodeStart":"BS15 9","postcode":["BS15","9ZG"]}
{"price":62995,"dateOfTransfer":"1996-11-29T00:00:00","postcodeFull":"BS15 9TX","propertyType":"Semi-detached","oldOrNew":"Established","duration":"Freehold","paon":"2","saon":"","street":"FOXCOTE","locality":"BRISTOL","townOrCity":"BRISTOL","district":"SOUTH GLOUCESTERSHIRE","county":"SOUTH GLOUCESTERSHIRE","ppdCategoryType":"Standard","recordStatus":"Addition","latitude":51.45781,"longitude":-2.497313,"postcodeStart":"BS15 9","postcode":["BS15","9TX"]}
{"price":49000,"dateOfTransfer":"1996-07-26T00:00:00","postcodeFull":"BS15 9YL","propertyType":"Semi-detached","oldOrNew":"Established","duration":"Freehold","paon":"33","saon":"","street":"WHITECROFT WAY","locality":"BRISTOL","townOrCity":"BRISTOL","district":"SOUTH GLOUCESTERSHIRE","county":"SOUTH GLOUCESTERSHIRE","ppdCategoryType":"Standard","recordStatus":"Addition","latitude":51.456927,"longitude":-2.489257,"postcodeStart":"BS15 9","postcode":["BS15","9YL"]}
{"price":43000,"dateOfTransfer":"1996-04-24T00:00:00","postcodeFull":"BS15 9ZB","propertyType":"Semi-detached","oldOrNew":"Established","duration":"Freehold","paon":"11","saon":"","street":"CAINS CLOSE","locality":"BRISTOL","townOrCity":"BRISTOL","district":"SOUTH GLOUCESTERSHIRE","county":"SOUTH GLOUCESTERSHIRE","ppdCategoryType":"Standard","recordStatus":"Addition","latitude":51.453409,"longitude":-2.500301,"postcodeStart":"BS15 9","postcode":["BS15","9ZB"]}
{"price":42000,"dateOfTransfer":"1996-11-15T00:00:00","postcodeFull":"BS15 9QD","propertyType":"Terraced","oldOrNew":"Established","duration":"Freehold","paon":"44","saon":"","street":"COURT ROAD","locality":"KINGSWOOD","townOrCity":"BRISTOL","district":"SOUTH GLOUCESTERSHIRE","county":"SOUTH GLOUCESTERSHIRE","ppdCategoryType":"Standard","recordStatus":"Addition","latitude":51.457155,"longitude":-2.505394,"postcodeStart":"BS15 9","postcode":["BS15","9QD"]}
{"price":34000,"dateOfTransfer":"1996-11-29T00:00:00","postcodeFull":"BS15 9RG","propertyType":"Terraced","oldOrNew":"Established","duration":"Freehold","paon":"6","saon":"","street":"COURTNEY ROAD","locality":"BRISTOL","townOrCity":"BRISTOL","district":"SOUTH GLOUCESTERSHIRE","county":"SOUTH GLOUCESTERSHIRE","ppdCategoryType":"Standard","recordStatus":"Addition","latitude":51.457564,"longitude":-2.504492,"postcodeStart":"BS15 9","postcode":["BS15","9RG"]}
{"price":41500,"dateOfTransfer":"1996-11-08T00:00:00","postcodeFull":"BS15 9UA","propertyType":"Terraced","oldOrNew":"Established","duration":"Freehold","paon":"20","saon":"","street":"ORCHARD GARDENS","locality":"BRISTOL","townOrCity":"BRISTOL","district":"SOUTH GLOUCESTERSHIRE","county":"SOUTH GLOUCESTERSHIRE","ppdCategoryType":"Standard","recordStatus":"Addition","latitude":51.460372,"longitude":-2.495426,"postcodeStart":"BS15 9","postcode":["BS15","9UA"]}
{"price":47500,"dateOfTransfer":"1996-07-19T00:00:00","postcodeFull":"BS15 9YQ","propertyType":"Semi-detached","oldOrNew":"Established","duration":"Freehold","paon":"45","saon":"","street":"RODBOROUGH WAY","locality":"BRISTOL","townOrCity":"BRISTOL","district":"SOUTH GLOUCESTERSHIRE","county":"SOUTH GLOUCESTERSHIRE","ppdCategoryType":"Standard","recordStatus":"Addition","latitude":51.457265,"longitude":-2.487894,"postcodeStart":"BS15 9","postcode":["BS15","9YQ"]}
{"price":41000,"dateOfTransfer":"1996-08-21T00:00:00","postcodeFull":"BS15 9WX","propertyType":"Terraced","oldOrNew":"Established","duration":"Freehold","paon":"67","saon":"","street":"GLANVILLE GARDENS","locality":"BRISTOL","townOrCity":"BRISTOL","district":"SOUTH GLOUCESTERSHIRE","county":"SOUTH GLOUCESTERSHIRE","ppdCategoryType":"Standard","recordStatus":"Addition","latitude":51.455261,"longitude":-2.500336,"postcodeStart":"BS15 9","postcode":["BS15","9WX"]}
{"price":70000,"dateOfTransfer":"1996-10-11T00:00:00","postcodeFull":"BS15 9SL","propertyType":"Terraced","oldOrNew":"Established","duration":"Freehold","paon":"12","saon":"","street":"PETTIGROVE ROAD","locality":"BRISTOL","townOrCity":"BRISTOL","district":"SOUTH GLOUCESTERSHIRE","county":"SOUTH GLOUCESTERSHIRE","ppdCategoryType":"Standard","recordStatus":"Addition","latitude":51.454219,"longitude":-2.504513,"postcodeStart":"BS15 9","postcode":["BS15","9SL"]}
{"price":63000,"dateOfTransfer":"1996-10-25T00:00:00","postcodeFull":"BS15 9NJ","propertyType":"Semi-detached","oldOrNew":"Established","duration":"Leasehold","paon":"27","saon":"","street":"KELSTON GROVE","locality":"BRISTOL","townOrCity":"BRISTOL","district":"SOUTH GLOUCESTERSHIRE","county":"SOUTH GLOUCESTERSHIRE","ppdCategoryType":"Standard","recordStatus":"Addition","latitude":51.451608,"longitude":-2.50303,"postcodeStart":"BS15 9","postcode":["BS15","9NJ"]}
{"price":54000,"dateOfTransfer":"1996-04-23T00:00:00","postcodeFull":"BS15 9SD","propertyType":"Terraced","oldOrNew":"Established","duration":"Freehold","paon":"74","saon":"","street":"GRIMSBURY ROAD","locality":"BRISTOL","townOrCity":"BRISTOL","district":"SOUTH GLOUCESTERSHIRE","county":"SOUTH GLOUCESTERSHIRE","ppdCategoryType":"Standard","recordStatus":"Addition","latitude":51.457761,"longitude":-2.487008,"postcodeStart":"BS15 9","postcode":["BS15","9SD"]}
{"price":65750,"dateOfTransfer":"1996-08-09T00:00:00","postcodeFull":"BS15 9TJ","propertyType":"Terraced","oldOrNew":"Established","duration":"Freehold","paon":"29","saon":"","street":"PARK VIEW","locality":"BRISTOL","townOrCity":"BRISTOL","district":"SOUTH GLOUCESTERSHIRE","county":"SOUTH GLOUCESTERSHIRE","ppdCategoryType":"Standard","recordStatus":"Addition","latitude":51.458878,"longitude":-2.499843,"postcodeStart":"BS15 9","postcode":["BS15","9TJ"]}
{"price":48000,"dateOfTransfer":"1996-11-29T00:00:00","postcodeFull":"BS15 9YR","propertyType":"Terraced","oldOrNew":"Established","duration":"Freehold","paon":"29","saon":"","street":"STAVERTON WAY","locality":"BRISTOL","townOrCity":"BRISTOL","district":"SOUTH GLOUCESTERSHIRE","county":"SOUTH GLOUCESTERSHIRE","ppdCategoryType":"Standard","recordStatus":"Addition","latitude":51.455902,"longitude":-2.489275,"postcodeStart":"BS15 9","postcode":["BS15","9YR"]}
{"price":69950,"dateOfTransfer":"1996-03-08T00:00:00","postcodeFull":"BS15 9SF","propertyType":"Semi-detached","oldOrNew":"Established","duration":"Freehold","paon":"114","saon":"","street":"COCK ROAD","locality":"BRISTOL","townOrCity":"BRISTOL","district":"SOUTH GLOUCESTERSHIRE","county":"SOUTH GLOUCESTERSHIRE","ppdCategoryType":"Standard","recordStatus":"Addition","latitude":51.455069,"longitude":-2.490188,"postcodeStart":"BS15 9","postcode":["BS15","9SF"]}
{"price":77000,"dateOfTransfer":"1996-06-21T00:00:00","postcodeFull":"BS15 9UE","propertyType":"Detached","oldOrNew":"Established","duration":"Freehold","paon":"32","saon":"","street":"WOODSTOCK ROAD","locality":"KINGSWOOD","townOrCity":"BRISTOL","district":"SOUTH GLOUCESTERSHIRE","county":"SOUTH GLOUCESTERSHIRE","ppdCategoryType":"Standard","recordStatus":"Addition","latitude":51.458361,"longitude":-2.494512,"postcodeStart":"BS15 9","postcode":["BS15","9UE"]}
{"price":47000,"dateOfTransfer":"1996-11-06T00:00:00","postcodeFull":"BS15 9YL","propertyType":"Terraced","oldOrNew":"Established","duration":"Freehold","paon":"7","saon":"","street":"WHITECROFT WAY","locality":"BRISTOL","townOrCity":"BRISTOL","district":"SOUTH GLOUCESTERSHIRE","county":"SOUTH GLOUCESTERSHIRE","ppdCategoryType":"Standard","recordStatus":"Addition","latitude":51.456927,"longitude":-2.489257,"postcodeStart":"BS15 9","postcode":["BS15","9YL"]}
{"price":28000,"dateOfTransfer":"1996-08-14T00:00:00","postcodeFull":"BS15 9PD","propertyType":"Terraced","oldOrNew":"Established","duration":"Freehold","paon":"20","saon":"","street":"LANGFORD WAY","locality":"BRISTOL","townOrCity":"BRISTOL","district":"SOUTH GLOUCESTERSHIRE","county":"SOUTH GLOUCESTERSHIRE","ppdCategoryType":"Standard","recordStatus":"Addition","latitude":51.456581,"longitude":-2.500969,"postcodeStart":"BS15 9","postcode":["BS15","9PD"]}
{"price":46500,"dateOfTransfer":"1996-05-24T00:00:00","postcodeFull":"BS15 9YS","propertyType":"Terraced","oldOrNew":"Established","duration":"Freehold","paon":"107","saon":"","street":"GRIMSBURY ROAD","locality":"BRISTOL","townOrCity":"BRISTOL","district":"SOUTH GLOUCESTERSHIRE","county":"SOUTH GLOUCESTERSHIRE","ppdCategoryType":"Standard","recordStatus":"Addition","latitude":51.455501,"longitude":-2.488235,"postcodeStart":"BS15 9","postcode":["BS15","9YS"]}
{"price":26000,"dateOfTransfer":"1996-05-16T00:00:00","postcodeFull":"BS15 9SQ","propertyType":"Terraced","oldOrNew":"Established","duration":"Freehold","paon":"65","saon":"","street":"COCK ROAD","locality":"BRISTOL","townOrCity":"BRISTOL","district":"SOUTH GLOUCESTERSHIRE","county":"SOUTH GLOUCESTERSHIRE","ppdCategoryType":"Standard","recordStatus":"Addition","latitude":51.453387,"longitude":-2.494458,"postcodeStart":"BS15 9","postcode":["BS15","9SQ"]}
{"price":42600,"dateOfTransfer":"1996-11-29T00:00:00","postcodeFull":"BS15 9SN","propertyType":"Terraced","oldOrNew":"Established","duration":"Freehold","paon":"31","saon":"","street":"PETTIGROVE ROAD","locality":"BRISTOL","townOrCity":"BRISTOL","district":"SOUTH GLOUCESTERSHIRE","county":"SOUTH GLOUCESTERSHIRE","ppdCategoryType":"Standard","recordStatus":"Addition","latitude":51.454714,"longitude":-2.502273,"postcodeStart":"BS15 9","postcode":["BS15","9SN"]}
{"price":30000,"dateOfTransfer":"1996-10-16T00:00:00","postcodeFull":"BS15 9UF","propertyType":"Terraced","oldOrNew":"Established","duration":"Freehold","paon":"36","saon":"","street":"THE ORCHARDS","locality":"BRISTOL","townOrCity":"BRISTOL","district":"SOUTH GLOUCESTERSHIRE","county":"SOUTH GLOUCESTERSHIRE","ppdCategoryType":"Standard","recordStatus":"Addition","latitude":51.459461,"longitude":-2.496107,"postcodeStart":"BS15 9","postcode":["BS15","9UF"]}
{"price":32000,"dateOfTransfer":"1996-03-29T00:00:00","postcodeFull":"BS15 9RY","propertyType":"Semi-detached","oldOrNew":"Established","duration":"Freehold","paon":"45","saon":"","street":"COURTNEY WAY","locality":"BRISTOL","townOrCity":"BRISTOL","district":"SOUTH GLOUCESTERSHIRE","county":"SOUTH GLOUCESTERSHIRE","ppdCategoryType":"Standard","recordStatus":"Addition","latitude":51.457945,"longitude":-2.488837,"postcodeStart":"BS15 9","postcode":["BS15","9RY"]}
{"price":48000,"dateOfTransfer":"1997-02-17T00:00:00","postcodeFull":"BS15 9YN","propertyType":"Terraced","oldOrNew":"Established","duration":"Freehold","paon":"38","saon":"","street":"WHITECROFT WAY","locality":"BRISTOL","townOrCity":"BRISTOL","district":"SOUTH GLOUCESTERSHIRE","county":"SOUTH GLOUCESTERSHIRE","ppdCategoryType":"Standard","recordStatus":"Addition","latitude":51.456744,"longitude":-2.489975,"postcodeStart":"BS15 9","postcode":["BS15","9YN"]}
{"price":57950,"dateOfTransfer":"1997-12-19T00:00:00","postcodeFull":"BS15 9YR","propertyType":"Terraced","oldOrNew":"Established","duration":"Freehold","paon":"43","saon":"","street":"STAVERTON WAY","locality":"BRISTOL","townOrCity":"BRISTOL","district":"SOUTH GLOUCESTERSHIRE","county":"SOUTH GLOUCESTERSHIRE","ppdCategoryType":"Standard","recordStatus":"Addition","latitude":51.455902,"longitude":-2.489275,"postcodeStart":"BS15 9","postcode":["BS15","9YR"]}
