{"price":95000,"dateOfTransfer":"1995-11-17T00:00:00","postcodeFull":"CB24 8QD","propertyType":"Detached","oldOrNew":"Established","duration":"Freehold","paon":"75","saon":"","street":"KING STREET","locality":"RAMPTON","townOrCity":"CAMBRIDGE","district":"SOUTH CAMBRIDGESHIRE","county":"CAMBRIDGESHIRE","ppdCategoryType":"Standard","recordStatus":"Addition","latitude":52.290965,"longitude":0.086863,"postcodeStart":"CB24 8","postcode":["CB24","8QD"]}
{"price":85000,"dateOfTransfer":"1995-09-06T00:00:00","postcodeFull":"CB24 8QS","propertyType":"Semi-detached","oldOrNew":"Established","duration":"Freehold","paon":"35","saon":"","street":"DENMARK ROAD","locality":"COTTENHAM","townOrCity":"CAMBRIDGE","district":"SOUTH CAMBRIDGESHIRE","county":"CAMBRIDGESHIRE","ppdCategoryType":"Standard","recordStatus":"Addition","latitude":52.285706,"longitude":0.127267,"postcodeStart":"CB24 8","postcode":["CB24","8QS"]}
{"price":120000,"dateOfTransfer":"1995-11-07T00:00:00","postcodeFull":"CB24 8SD","propertyType":"Detached","oldOrNew":"Established","duration":"Freehold","paon":"149","saon":"","street":"HIGH STREET","locality":"COTTENHAM","townOrCity":"CAMBRIDGE","district":"SOUTH CAMBRIDGESHIRE","county":"CAMBRIDGESHIRE","ppdCategoryType":"Standard","recordStatus":"Addition","latitude":52.292334,"longitude":0.128224,"postcodeStart":"CB24 8","postcode":["CB24","8SD"]}
{"price":74500,"dateOfTransfer":"1995-03-31T00:00:00","postcodeFull":"CB24 8TQ","propertyType":"Semi-detached","oldOrNew":"Established","duration":"Freehold","paon":"37","saon":"","street":"PELHAM WAY","locality":"COTTENHAM","townOrCity":"CAMBRIDGE","district":"SOUTH CAMBRIDGESHIRE","county":"CAMBRIDGESHIRE","ppdCategoryType":"Standard","recordStatus":"Addition","latitude":52.284499,"longitude":0.119389,"postcodeStart":"CB24 8","postcode":["CB24","8TQ"]}
{"price":182500,"dateOfTransfer":"1995-03-31T00:00:00","postcodeFull":"CB24 8UD","propertyType":"Detached","oldOrNew":"Established","duration":"Freehold","paon":"52","saon":"","street":"HISTON ROAD","locality":"COTTENHAM","townOrCity":"CAMBRIDGE","district":"SOUTH CAMBRIDGESHIRE","county":"CAMBRIDGESHIRE","ppdCategoryType":"Standard","recordStatus":"Addition","latitude":52.279541,"longitude":0.119607,"postcodeStart":"CB24 8","postcode":["CB24","8UD"]}
{"price":105000,"dateOfTransfer":"1995-11-01T00:00:00","postcodeFull":"CB24 8RB","propertyType":"Detached","oldOrNew":"New build","duration":"Freehold","paon":"26","saon":"","street":"ROOKS STREET","locality":"COTTENHAM","townOrCity":"CAMBRIDGE","district":"SOUTH CAMBRIDGESHIRE","county":"CAMBRIDGESHIRE","ppdCategoryType":"Standard","recordStatus":"Addition","latitude":52.288514,"longitude":0.129203,"postcodeStart":"CB24 8","postcode":["CB24","8RB"]}
{"price":120000,"dateOfTransfer":"1995-08-24T00:00:00","postcodeFull":"CB24 8AY","propertyType":"Detached","oldOrNew":"New build","duration":"Freehold","paon":"5","saon":"","street":"CURRINGTONS CLOSE","locality":"COTTENHAM","townOrCity":"CAMBRIDGE","district":"SOUTH CAMBRIDGESHIRE","county":"CAMBRIDGESHIRE","ppdCategoryType":"Standard","recordStatus":"Addition","latitude":52.288553,"longitude":0.125976,"postcodeStart":"CB24 8","postcode":["CB24","8AY"]}
{"price":90000,"dateOfTransfer":"1995-10-25T00:00:00","postcodeFull":"CB24 8QY","propertyType":"Detached","oldOrNew":"New build","duration":"Freehold","paon":"37","saon":"","street":"MARGETT STREET","locality":"COTTENHAM","townOrCity":"CAMBRIDGE","district":"SOUTH CAMBRIDGESHIRE","county":"CAMBRIDGESHIRE","ppdCategoryType":"Standard","recordStatus":"Addition","latitude":52.289028,"longitude":0.127567,"postcodeStart":"CB24 8","postcode":["CB24","8QY"]}
{"price":54000,"dateOfTransfer":"1995-10-12T00:00:00","postcodeFull":"CB24 8QY","propertyType":"Semi-detached","oldOrNew":"Established","duration":"Freehold","paon":"57","saon":"","street":"MARGETT STREET","locality":"COTTENHAM","townOrCity":"CAMBRIDGE","district":"SOUTH CAMBRIDGESHIRE","county":"CAMBRIDGESHIRE","ppdCategoryType":"Standard","recordStatus":"Addition","latitude":52.289028,"longitude":0.127567,"postcodeStart":"CB24 8","postcode":["CB24","8QY"]}
{"price":93000,"dateOfTransfer":"1995-10-30T00:00:00","postcodeFull":"CB24 8TQ","propertyType":"Detached","oldOrNew":"Established","duration":"Freehold","paon":"49","saon":"","street":"PELHAM WAY","locality":"COTTENHAM","townOrCity":"CAMBRIDGE","district":"SOUTH CAMBRIDGESHIRE","county":"CAMBRIDGESHIRE","ppdCategoryType":"Standard","recordStatus":"Addition","latitude":52.284499,"longitude":0.119389,"postcodeStart":"CB24 8","postcode":["CB24","8TQ"]}
{"price":235000,"dateOfTransfer":"1995-09-27T00:00:00","postcodeFull":"CB24 8RN","propertyType":"Detached","oldOrNew":"Established","duration":"Freehold","paon":"2","saon":"","street":"THE SPINNEY","locality":"COTTENHAM","townOrCity":"CAMBRIDGE","district":"SOUTH CAMBRIDGESHIRE","county":"CAMBRIDGESHIRE","ppdCategoryType":"Standard","recordStatus":"Addition","latitude":52.29152,"longitude":0.125956,"postcodeStart":"CB24 8","postcode":["CB24","8RN"]}
{"price":103000,"dateOfTransfer":"1995-05-30T00:00:00","postcodeFull":"CB24 8AY","propertyType":"Detached","oldOrNew":"New build","duration":"Freehold","paon":"6","saon":"","street":"CURRINGTONS CLOSE","locality":"COTTENHAM","townOrCity":"CAMBRIDGE","district":"SOUTH CAMBRIDGESHIRE","county":"CAMBRIDGESHIRE","ppdCategoryType":"Standard","recordStatus":"Addition","latitude":52.288553,"longitude":0.125976,"postcodeStart":"CB24 8","postcode":["CB24","8AY"]}
{"price":82000,"dateOfTransfer":"1995-10-24T00:00:00","postcodeFull":"CB24 8QZ","propertyType":"Detached","oldOrNew":"Established","duration":"Freehold","paon":"57","saon":"","street":"ROOKS STREET","locality":"COTTENHAM","townOrCity":"CAMBRIDGE","district":"SOUTH CAMBRIDGESHIRE","county":"CAMBRIDGESHIRE","ppdCategoryType":"Standard","recordStatus":"Addition","latitude":52.288605,"longitude":0.129571,"postcodeStart":"CB24 8","postcode":["CB24","8QZ"]}
{"price":64000,"dateOfTransfer":"1995-09-01T00:00:00","postcodeFull":"CB24 8TJ","propertyType":"Semi-detached","oldOrNew":"Established","duration":"Freehold","paon":"141","saon":"","street":"RAMPTON ROAD","locality":"COTTENHAM","townOrCity":"CAMBRIDGE","district":"SOUTH CAMBRIDGESHIRE","county":"CAMBRIDGESHIRE","ppdCategoryType":"Standard","recordStatus":"Addition","latitude":52.28609,"longitude":0.112882,"postcodeStart":"CB24 8","postcode":["CB24","8TJ"]}
{"price":86000,"dateOfTransfer":"1995-09-01T00:00:00","postcodeFull":"CB24 8UL","propertyType":"Detached","oldOrNew":"Established","duration":"Freehold","paon":"14","saon":"","street":"RAMPTON ROAD","locality":"COTTENHAM","townOrCity":"CAMBRIDGE","district":"SOUTH CAMBRIDGESHIRE","county":"CAMBRIDGESHIRE","ppdCategoryType":"Standard","recordStatus":"Addition","latitude":52.2834,"longitude":0.118985,"postcodeStart":"CB24 8","postcode":["CB24","8UL"]}
{"price":57950,"dateOfTransfer":"1995-09-06T00:00:00","postcodeFull":"CB24 8XH","propertyType":"Terraced","oldOrNew":"Established","duration":"Freehold","paon":"19","saon":"","street":"MOORES COURT","locality":"COTTENHAM","townOrCity":"CAMBRIDGE","district":"SOUTH CAMBRIDGESHIRE","county":"CAMBRIDGESHIRE","ppdCategoryType":"Standard","recordStatus":"Addition","latitude":52.292662,"longitude":0.125996,"postcodeStart":"CB24 8","postcode":["CB24","8XH"]}
{"price":55000,"dateOfTransfer":"1995-11-17T00:00:00","postcodeFull":"CB24 8SP","propertyType":"Semi-detached","oldOrNew":"Established","duration":"Freehold","paon":"9","saon":"","street":"TWENTYPENCE ROAD","locality":"COTTENHAM","townOrCity":"CAMBRIDGE","district":"SOUTH CAMBRIDGESHIRE","county":"CAMBRIDGESHIRE","ppdCategoryType":"Standard","recordStatus":"Addition","latitude":52.299886,"longitude":0.13724,"postcodeStart":"CB24 8","postcode":["CB24","8SP"]}
{"price":59000,"dateOfTransfer":"1995-07-07T00:00:00","postcodeFull":"CB24 8TR","propertyType":"Semi-detached","oldOrNew":"Established","duration":"Freehold","paon":"65","saon":"","street":"HARLESTONES ROAD","locality":"COTTENHAM","townOrCity":"CAMBRIDGE","district":"SOUTH CAMBRIDGESHIRE","county":"CAMBRIDGESHIRE","ppdCategoryType":"Standard","recordStatus":"Addition","latitude":52.285882,"longitude":0.121992,"postcodeStart":"CB24 8","postcode":["CB24","8TR"]}
{"price":50000,"dateOfTransfer":"1995-10-30T00:00:00","postcodeFull":"CB24 8RH","propertyType":"Semi-detached","oldOrNew":"Established","duration":"Freehold","paon":"117","saon":"","street":"COOLIDGE GARDENS","locality":"COTTENHAM","townOrCity":"CAMBRIDGE","district":"SOUTH CAMBRIDGESHIRE","county":"CAMBRIDGESHIRE","ppdCategoryType":"Standard","recordStatus":"Addition","latitude":52.286011,"longitude":0.132789,"postcodeStart":"CB24 8","postcode":["CB24","8RH"]}
{"price":60000,"dateOfTransfer":"1995-10-26T00:00:00","postcodeFull":"CB24 8QZ","propertyType":"Semi-detached","oldOrNew":"Established","duration":"Freehold","paon":"99","saon":"","street":"ROOKS STREET","locality":"COTTENHAM","townOrCity":"CAMBRIDGE","district":"SOUTH CAMBRIDGESHIRE","county":"CAMBRIDGESHIRE","ppdCategoryType":"Standard","recordStatus":"Addition","latitude":52.288605,"longitude":0.129571,"postcodeStart":"CB24 8","postcode":["CB24","8QZ"]}
{"price":59999,"dateOfTransfer":"1995-03-31T00:00:00","postcodeFull":"CB24 8RA","propertyType":"Terraced","oldOrNew":"Established","duration":"Freehold","paon":"19","saon":"","street":"MILLFIELD","locality":"COTTENHAM","townOrCity":"CAMBRIDGE","district":"SOUTH CAMBRIDGESHIRE","county":"CAMBRIDGESHIRE","ppdCategoryType":"Standard","recordStatus":"Addition","latitude":52.289635,"longitude":0.131626,"postcodeStart":"CB24 8","postcode":["CB24","8RA"]}
{"price":85000,"dateOfTransfer":"1995-08-25T00:00:00","postcodeFull":"CB24 8TX","propertyType":"Detached","oldOrNew":"Established","duration":"Freehold","paon":"325","saon":"","street":"HIGH STREET","locality":"COTTENHAM","townOrCity":"CAMBRIDGE","district":"SOUTH CAMBRIDGESHIRE","county":"CAMBRIDGESHIRE","ppdCategoryType":"Standard","recordStatus":"Addition","latitude":52.283972,"longitude":0.123555,"postcodeStart":"CB24 8","postcode":["CB24","8TX"]}
{"price":41250,"dateOfTransfer":"1995-02-13T00:00:00","postcodeFull":"CB24 8RS","propertyType":"Flat/Maisonette/Townhouse","oldOrNew":"Established","duration":"Leasehold","paon":"6","saon":"","street":"BEAGLE COURT","locality":"COTTENHAM","townOrCity":"CAMBRIDGE","district":"SOUTH CAMBRIDGESHIRE","county":"CAMBRIDGESHIRE","ppdCategoryType":"Standard","recordStatus":"Addition","latitude":52.287835,"longitude":0.125384,"postcodeStart":"CB24 8","postcode":["CB24","8RS"]}
{"price":72500,"dateOfTransfer":"1995-04-28T00:00:00","postcodeFull":"CB24 8QR","propertyType":"Semi-detached","oldOrNew":"Established","duration":"Freehold","paon":"24","saon":"","street":"LYLES ROAD","locality":"COTTENHAM","townOrCity":"CAMBRIDGE","district":"SOUTH CAMBRIDGESHIRE","county":"CAMBRIDGESHIRE","ppdCategoryType":"Standard","recordStatus":"Addition","latitude":52.286304,"longitude":0.123537,"postcodeStart":"CB24 8","postcode":["CB24","8QR"]}
{"price":117000,"dateOfTransfer":"1995-06-09T00:00:00","postcodeFull":"CB24 8RU","propertyType":"Semi-detached","oldOrNew":"Established","duration":"Freehold","paon":"7","saon":"","street":"CUNDELL DRIVE","locality":"COTTENHAM","townOrCity":"CAMBRIDGE","district":"SOUTH CAMBRIDGESHIRE","county":"CAMBRIDGESHIRE","ppdCategoryType":"Standard","recordStatus":"Addition","latitude":52.287238,"longitude":0.128596,"postcodeStart":"CB24 8","postcode":["CB24","8RU"]}
{"price":64000,"dateOfTransfer":"1995-10-04T00:00:00","postcodeFull":"CB24 8TR","propertyType":"Terraced","oldOrNew":"Established","duration":"Freehold","paon":"5","saon":"","street":"HARLESTONES ROAD","locality":"COTTENHAM","townOrCity":"CAMBRIDGE","district":"SOUTH CAMBRIDGESHIRE","county":"CAMBRIDGESHIRE","ppdCategoryType":"Standard","recordStatus":"Addition","latitude":52.285882,"longitude":0.121992,"postcodeStart":"CB24 8","postcode":["CB24","8TR"]}
{"price":77500,"dateOfTransfer":"1995-07-21T00:00:00","postcodeFull":"CB24 8SA","propertyType":"Detached","oldOrNew":"Established","duration":"Freehold","paon":"23","saon":"","street":"HIGH STREET","locality":"COTTENHAM","townOrCity":"CAMBRIDGE","district":"SOUTH CAMBRIDGESHIRE","county":"CAMBRIDGESHIRE","ppdCategoryType":"Standard","recordStatus":"Addition","latitude":52.295107,"longitude":0.130484,"postcodeStart":"CB24 8","postcode":["CB24","8SA"]}
{"price":62000,"dateOfTransfer":"1995-01-30T00:00:00","postcodeFull":"CB24 8QR","propertyType":"Detached","oldOrNew":"Established","duration":"Freehold","paon":"4","saon":"","street":"LYLES ROAD","locality":"COTTENHAM","townOrCity":"CAMBRIDGE","district":"SOUTH CAMBRIDGESHIRE","county":"CAMBRIDGESHIRE","ppdCategoryType":"Standard","recordStatus":"Addition","latitude":52.286304,"longitude":0.123537,"postcodeStart":"CB24 8","postcode":["CB24","8QR"]}
{"price":60000,"dateOfTransfer":"1995-08-31T00:00:00","postcodeFull":"CB24 8YY","propertyType":"Detached","oldOrNew":"New build","duration":"Freehold","paon":"3","saon":"","street":"EASTLANDS CLOSE","locality":"COTTENHAM","townOrCity":"CAMBRIDGE","district":"SOUTH CAMBRIDGESHIRE","county":"CAMBRIDGESHIRE","ppdCategoryType":"Standard","recordStatus":"Addition","latitude":52.286579,"longitude":0.125221,"postcodeStart":"CB24 8","postcode":["CB24","8YY"]}
{"price":59500,"dateOfTransfer":"1995-07-25T00:00:00","postcodeFull":"CB24 8QY","propertyType":"Terraced","oldOrNew":"Established","duration":"Freehold","paon":"61","saon":"","street":"MARGETT STREET","locality":"COTTENHAM","townOrCity":"CAMBRIDGE","district":"SOUTH CAMBRIDGESHIRE","county":"CAMBRIDGESHIRE","ppdCategoryType":"Standard","recordStatus":"Addition","latitude":52.289028,"longitude":0.127567,"postcodeStart":"CB24 8","postcode":["CB24","8QY"]}
{"price":105000,"dateOfTransfer":"1995-12-15T00:00:00","postcodeFull":"CB24 8QY","propertyType":"Detached","oldOrNew":"New build","duration":"Freehold","paon":"35","saon":"","street":"MARGETT STREET","locality":"COTTENHAM","townOrCity":"CAMBRIDGE","district":"SOUTH CAMBRIDGESHIRE","county":"CAMBRIDGESHIRE","ppdCategoryType":"Standard","recordStatus":"Addition","latitude":52.289028,"longitude":0.127567,"postcodeStart":"CB24 8","postcode":["CB24","8QY"]}
{"price":60000,"dateOfTransfer":"1995-03-24T00:00:00","postcodeFull":"CB24 8AG","propertyType":"Terraced","oldOrNew":"New build","duration":"Freehold","paon":"14","saon":"","street":"LEE CLOSE","locality":"COTTENHAM","townOrCity":"CAMBRIDGE","district":"SOUTH CAMBRIDGESHIRE","county":"CAMBRIDGESHIRE","ppdCategoryType":"Standard","recordStatus":"Addition","latitude":52.284254,"longitude":0.121005,"postcodeStart":"CB24 8","postcode":["CB24","8AG"]}
{"price":55000,"dateOfTransfer":"1995-08-25T00:00:00","postcodeFull":"CB24 8RH","propertyType":"Semi-detached","oldOrNew":"Established","duration":"Freehold","paon":"123","saon":"","street":"COOLIDGE GARDENS","locality":"COTTENHAM","townOrCity":"CAMBRIDGE","district":"SOUTH CAMBRIDGESHIRE","county":"CAMBRIDGESHIRE","ppdCategoryType":"Standard","recordStatus":"Addition","latitude":52.286011,"longitude":0.132789,"postcodeStart":"CB24 8","postcode":["CB24","8RH"]}
{"price":53000,"dateOfTransfer":"1995-10-13T00:00:00","postcodeFull":"CB24 8RX","propertyType":"Terraced","oldOrNew":"Established","duration":"Freehold","paon":"161","saon":"","street":"HIGH STREET","locality":"COTTENHAM","townOrCity":"CAMBRIDGE","district":"SOUTH CAMBRIDGESHIRE","county":"CAMBRIDGESHIRE","ppdCategoryType":"Standard","recordStatus":"Addition","latitude":52.290007,"longitude":0.125471,"postcodeStart":"CB24 8","postcode":["CB24","8RX"]}
{"price":73500,"dateOfTransfer":"1995-08-10T00:00:00","postcodeFull":"CB24 8AG","propertyType":"Semi-detached","oldOrNew":"New build","duration":"Freehold","paon":"2","saon":"","street":"LEE CLOSE","locality":"COTTENHAM","townOrCity":"CAMBRIDGE","district":"SOUTH CAMBRIDGESHIRE","county":"CAMBRIDGESHIRE","ppdCategoryType":"Standard","recordStatus":"Addition","latitude":52.284254,"longitude":0.121005,"postcodeStart":"CB24 8","postcode":["CB24","8AG"]}
{"price":114000,"dateOfTransfer":"1995-03-15T00:00:00","postcodeFull":"CB24 8AY","propertyType":"Detached","oldOrNew":"New build","duration":"Freehold","paon":"3","saon":"","street":"CURRINGTONS CLOSE","locality":"COTTENHAM","townOrCity":"CAMBRIDGE","district":"SOUTH CAMBRIDGESHIRE","county":"CAMBRIDGESHIRE","ppdCategoryType":"Standard","recordStatus":"Addition","latitude":52.288553,"longitude":0.125976,"postcodeStart":"CB24 8","postcode":["CB24","8AY"]}
{"price":72000,"dateOfTransfer":"1995-10-13T00:00:00","postcodeFull":"CB24 8AG","propertyType":"Semi-detached","oldOrNew":"New build","duration":"Freehold","paon":"2A","saon":"","street":"LEE CLOSE","locality":"COTTENHAM","townOrCity":"CAMBRIDGE","district":"SOUTH CAMBRIDGESHIRE","county":"CAMBRIDGESHIRE","ppdCategoryType":"Standard","recordStatus":"Addition","latitude":52.284254,"longitude":0.121005,"postcodeStart":"CB24 8","postcode":["CB24","8AG"]}
{"price":84500,"dateOfTransfer":"1995-08-01T00:00:00","postcodeFull":"CB24 8UH","propertyType":"Detached","oldOrNew":"Established","duration":"Freehold","paon":"34","saon":"","street":"DUNSTAL FIELD","locality":"COTTENHAM","townOrCity":"CAMBRIDGE","district":"SOUTH CAMBRIDGESHIRE","county":"CAMBRIDGESHIRE","ppdCategoryType":"Standard","recordStatus":"Addition","latitude":52.280653,"longitude":0.123237,"postcodeStart":"CB24 8","postcode":["CB24","8UH"]}
{"price":207875,"dateOfTransfer":"1995-11-30T00:00:00","postcodeFull":"CB24 8PP","propertyType":"Detached","oldOrNew":"Established","duration":"Freehold","paon":"ALBORO HOUSE","saon":"","street":"TWENTYPENCE ROAD","locality":"COTTENHAM","townOrCity":"CAMBRIDGE","district":"SOUTH CAMBRIDGESHIRE","county":"CAMBRIDGESHIRE","ppdCategoryType":"Standard","recordStatus":"Addition","latitude":52.309202,"longitude":0.161773,"postcodeStart":"CB24 8","postcode":["CB24","8PP"]}
{"price":54500,"dateOfTransfer":"1995-10-19T00:00:00","postcodeFull":"CB24 8RB","propertyType":"Terraced","oldOrNew":"Established","duration":"Freehold","paon":"58","saon":"","street":"ROOKS STREET","locality":"COTTENHAM","townOrCity":"CAMBRIDGE","district":"SOUTH CAMBRIDGESHIRE","county":"CAMBRIDGESHIRE","ppdCategoryType":"Standard","recordStatus":"Addition","latitude":52.288514,"longitude":0.129203,"postcodeStart":"CB24 8","postcode":["CB24","8RB"]}
{"price":50000,"dateOfTransfer":"1995-09-01T00:00:00","postcodeFull":"CB24 8PX","propertyType":"Detached","oldOrNew":"Established","duration":"Freehold","paon":"GOOSE END COTTAGE","saon":"","street":"SMITHY FEN","locality":"COTTENHAM","townOrCity":"CAMBRIDGE","district":"SOUTH CAMBRIDGESHIRE","county":"CAMBRIDGESHIRE","ppdCategoryType":"Standard","recordStatus":"Addition","latitude":52.325237,"longitude":0.122084,"postcodeStart":"CB24 8","postcode":["CB24","8PX"]}
{"price":79500,"dateOfTransfer":"1995-03-31T00:00:00","postcodeFull":"CB24 8AG","propertyType":"Terraced","oldOrNew":"New build","duration":"Freehold","paon":"4","saon":"","street":"LEE CLOSE","locality":"COTTENHAM","townOrCity":"CAMBRIDGE","district":"SOUTH CAMBRIDGESHIRE","county":"CAMBRIDGESHIRE","ppdCategoryType":"Standard","recordStatus":"Addition","latitude":52.284254,"longitude":0.121005,"postcodeStart":"CB24 8","postcode":["CB24","8AG"]}
{"price":110000,"dateOfTransfer":"1995-06-09T00:00:00","postcodeFull":"CB24 8AY","propertyType":"Detached","oldOrNew":"New build","duration":"Freehold","paon":"1","saon":"","street":"CURRINGTONS CLOSE","locality":"COTTENHAM","townOrCity":"CAMBRIDGE","district":"SOUTH CAMBRIDGESHIRE","county":"CAMBRIDGESHIRE","ppdCategoryType":"Standard","recordStatus":"Addition","latitude":52.288553,"longitude":0.125976,"postcodeStart":"CB24 8","postcode":["CB24","8AY"]}
{"price":59000,"dateOfTransfer":"1995-10-17T00:00:00","postcodeFull":"CB24 8TX","propertyType":"Detached","oldOrNew":"New build","duration":"Freehold","paon":"286A","saon":"","street":"HIGH STREET","locality":"COTTENHAM","townOrCity":"CAMBRIDGE","district":"SOUTH CAMBRIDGESHIRE","county":"CAMBRIDGESHIRE","ppdCategoryType":"Standard","recordStatus":"Addition","latitude":52.283972,"longitude":0.123555,"postcodeStart":"CB24 8","postcode":["CB24","8TX"]}
{"price":59500,"dateOfTransfer":"1995-07-21T00:00:00","postcodeFull":"CB24 8AG","propertyType":"Terraced","oldOrNew":"New build","duration":"Freehold","paon":"18","saon":"","street":"LEE CLOSE","locality":"COTTENHAM","townOrCity":"CAMBRIDGE","district":"SOUTH CAMBRIDGESHIRE","county":"CAMBRIDGESHIRE","ppdCategoryType":"Standard","recordStatus":"Addition","latitude":52.284254,"longitude":0.121005,"postcodeStart":"CB24 8","postcode":["CB24","8AG"]}
{"price":105750,"dateOfTransfer":"1995-07-14T00:00:00","postcodeFull":"CB24 8AY","propertyType":"Detached","oldOrNew":"New build","duration":"Freehold","paon":"7","saon":"","street":"CURRINGTONS CLOSE","locality":"COTTENHAM","townOrCity":"CAMBRIDGE","district":"SOUTH CAMBRIDGESHIRE","county":"CAMBRIDGESHIRE","ppdCategoryType":"Standard","recordStatus":"Addition","latitude":52.288553,"longitude":0.125976,"postcodeStart":"CB24 8","postcode":["CB24","8AY"]}
{"price":42000,"dateOfTransfer":"1995-04-28T00:00:00","postcodeFull":"CB24 8QN","propertyType":"Flat/Maisonette/Townhouse","oldOrNew":"Established","duration":"Leasehold","paon":"1","saon":"","street":"SAMES COURT","locality":"COTTENHAM","townOrCity":"CAMBRIDGE","district":"SOUTH CAMBRIDGESHIRE","county":"CAMBRIDGESHIRE","ppdCategoryType":"Standard","recordStatus":"Addition","latitude":52.292726,"longitude":0.128434,"postcodeStart":"CB24 8","postcode":["CB24","8QN"]}
{"price":119000,"dateOfTransfer":"1995-10-13T00:00:00","postcodeFull":"CB24 8RU","propertyType":"Detached","oldOrNew":"Established","duration":"Freehold","paon":"14","saon":"","street":"CUNDELL DRIVE","locality":"COTTENHAM","townOrCity":"CAMBRIDGE","district":"SOUTH CAMBRIDGESHIRE","county":"CAMBRIDGESHIRE","ppdCategoryType":"Standard","recordStatus":"Addition","latitude":52.287238,"longitude":0.128596,"postcodeStart":"CB24 8","postcode":["CB24","8RU"]}
{"price":53950,"dateOfTransfer":"1995-05-23T00:00:00","postcodeFull":"CB24 8QP","propertyType":"Semi-detached","oldOrNew":"Established","duration":"Freehold","paon":"267","saon":"","street":"HIGH STREET","locality":"COTTENHAM","townOrCity":"CAMBRIDGE","district":"SOUTH CAMBRIDGESHIRE","county":"CAMBRIDGESHIRE","ppdCategoryType":"Standard","recordStatus":"Addition","latitude":52.286847,"longitude":0.12617,"postcodeStart":"CB24 8","postcode":["CB24","8QP"]}
{"price":104000,"dateOfTransfer":"1995-10-20T00:00:00","postcodeFull":"CB24 8UH","propertyType":"Detached","oldOrNew":"Established","duration":"Freehold","paon":"12","saon":"","street":"DUNSTAL FIELD","locality":"COTTENHAM","townOrCity":"CAMBRIDGE","district":"SOUTH CAMBRIDGESHIRE","county":"CAMBRIDGESHIRE","ppdCategoryType":"Standard","recordStatus":"Addition","latitude":52.280653,"longitude":0.123237,"postcodeStart":"CB24 8","postcode":["CB24","8UH"]}
{"price":120000,"dateOfTransfer":"1995-07-14T00:00:00","postcodeFull":"CB24 8TX","propertyType":"Detached","oldOrNew":"Established","duration":"Freehold","paon":"307","saon":"","street":"HIGH STREET","locality":"COTTENHAM","townOrCity":"CAMBRIDGE","district":"SOUTH CAMBRIDGESHIRE","county":"CAMBRIDGESHIRE","ppdCategoryType":"Standard","recordStatus":"Addition","latitude":52.283972,"longitude":0.123555,"postcodeStart":"CB24 8","postcode":["CB24","8TX"]}
{"price":91000,"dateOfTransfer":"1995-05-26T00:00:00","postcodeFull":"CB24 8QB","propertyType":"Detached","oldOrNew":"Established","duration":"Freehold","paon":"3","saon":"","street":"THE GREEN","locality":"RAMPTON","townOrCity":"CAMBRIDGE","district":"SOUTH CAMBRIDGESHIRE","county":"CAMBRIDGESHIRE","ppdCategoryType":"Standard","recordStatus":"Addition","latitude":52.291195,"longitude":0.090657,"postcodeStart":"CB24 8","postcode":["CB24","8QB"]}
{"price":58500,"dateOfTransfer":"1995-09-25T00:00:00","postcodeFull":"CB24 8SQ","propertyType":"Terraced","oldOrNew":"Established","duration":"Freehold","paon":"4","saon":"","street":"SMITHS PATH","locality":"COTTENHAM","townOrCity":"CAMBRIDGE","district":"SOUTH CAMBRIDGESHIRE","county":"CAMBRIDGESHIRE","ppdCategoryType":"Standard","recordStatus":"Addition","latitude":52.292774,"longitude":0.131222,"postcodeStart":"CB24 8","postcode":["CB24","8SQ"]}
{"price":129500,"dateOfTransfer":"1995-05-23T00:00:00","postcodeFull":"CB24 8TU","propertyType":"Detached","oldOrNew":"Established","duration":"Freehold","paon":"3","saon":"","street":"FOUNDRY CLOSE","locality":"COTTENHAM","townOrCity":"CAMBRIDGE","district":"SOUTH CAMBRIDGESHIRE","county":"CAMBRIDGESHIRE","ppdCategoryType":"Standard","recordStatus":"Addition","latitude":52.281582,"longitude":0.121112,"postcodeStart":"CB24 8","postcode":["CB24","8TU"]}
{"price":64000,"dateOfTransfer":"1995-04-07T00:00:00","postcodeFull":"CB24 8QP","propertyType":"Semi-detached","oldOrNew":"Established","duration":"Freehold","paon":"295","saon":"","street":"HIGH STREET","locality":"COTTENHAM","townOrCity":"CAMBRIDGE","district":"SOUTH CAMBRIDGESHIRE","county":"CAMBRIDGESHIRE","ppdCategoryType":"Standard","recordStatus":"Addition","latitude":52.286847,"longitude":0.12617,"postcodeStart":"CB24 8","postcode":["CB24","8QP"]}
{"price":50000,"dateOfTransfer":"1995-08-01T00:00:00","postcodeFull":"CB24 8RH","propertyType":"Semi-detached","oldOrNew":"Established","duration":"Freehold","paon":"183","saon":"","street":"COOLIDGE GARDENS","locality":"COTTENHAM","townOrCity":"CAMBRIDGE","district":"SOUTH CAMBRIDGESHIRE","county":"CAMBRIDGESHIRE","ppdCategoryType":"Standard","recordStatus":"Addition","latitude":52.286011,"longitude":0.132789,"postcodeStart":"CB24 8","postcode":["CB24","8RH"]}
{"price":60000,"dateOfTransfer":"1995-08-04T00:00:00","postcodeFull":"CB24 8AG","propertyType":"Terraced","oldOrNew":"New build","duration":"Freehold","paon":"6","saon":"","street":"LEE CLOSE","locality":"COTTENHAM","townOrCity":"CAMBRIDGE","district":"SOUTH CAMBRIDGESHIRE","county":"CAMBRIDGESHIRE","ppdCategoryType":"Standard","recordStatus":"Addition","latitude":52.284254,"longitude":0.121005,"postcodeStart":"CB24 8","postcode":["CB24","8AG"]}
{"price":100000,"dateOfTransfer":"1995-02-10T00:00:00","postcodeFull":"CB24 8SB","propertyType":"Detached","oldOrNew":"Established","duration":"Freehold","paon":"19","saon":"","street":"MALES CLOSE","locality":"COTTENHAM","townOrCity":"CAMBRIDGE","district":"SOUTH CAMBRIDGESHIRE","county":"CAMBRIDGESHIRE","ppdCategoryType":"Standard","recordStatus":"Addition","latitude":52.292789,"longitude":0.12744,"postcodeStart":"CB24 8","postcode":["CB24","8SB"]}
{"price":78500,"dateOfTransfer":"1995-08-10T00:00:00","postcodeFull":"CB24 8TA","propertyType":"Semi-detached","oldOrNew":"Established","duration":"Freehold","paon":"22","saon":"","street":"LAMBS LANE","locality":"COTTENHAM","townOrCity":"CAMBRIDGE","district":"SOUTH CAMBRIDGESHIRE","county":"CAMBRIDGESHIRE","ppdCategoryType":"Standard","recordStatus":"Addition","latitude":52.286954,"longitude":0.119902,"postcodeStart":"CB24 8","postcode":["CB24","8TA"]}
{"price":107000,"dateOfTransfer":"1995-03-28T00:00:00","postcodeFull":"CB24 8AY","propertyType":"Detached","oldOrNew":"New build","duration":"Freehold","paon":"2","saon":"","street":"CURRINGTONS CLOSE","locality":"COTTENHAM","townOrCity":"CAMBRIDGE","district":"SOUTH CAMBRIDGESHIRE","county":"CAMBRIDGESHIRE","ppdCategoryType":"Standard","recordStatus":"Addition","latitude":52.288553,"longitude":0.125976,"postcodeStart":"CB24 8","postcode":["CB24","8AY"]}
{"price":35000,"dateOfTransfer":"1995-06-21T00:00:00","postcodeFull":"CB24 8SA","propertyType":"Terraced","oldOrNew":"Established","duration":"Freehold","paon":"51","saon":"","street":"HIGH STREET","locality":"COTTENHAM","townOrCity":"CAMBRIDGE","district":"SOUTH CAMBRIDGESHIRE","county":"CAMBRIDGESHIRE","ppdCategoryType":"Standard","recordStatus":"Addition","latitude":52.295107,"longitude":0.130484,"postcodeStart":"CB24 8","postcode":["CB24","8SA"]}
{"price":36000,"dateOfTransfer":"1995-11-06T00:00:00","postcodeFull":"CB24 8QW","propertyType":"Semi-detached","oldOrNew":"New build","duration":"Leasehold","paon":"12","saon":"","street":"FRANKLIN GARDENS","locality":"COTTENHAM","townOrCity":"CAMBRIDGE","district":"SOUTH CAMBRIDGESHIRE","county":"CAMBRIDGESHIRE","ppdCategoryType":"Standard","recordStatus":"Addition","latitude":52.287212,"longitude":0.123507,"postcodeStart":"CB24 8","postcode":["CB24","8QW"]}
{"price":65000,"dateOfTransfer":"1995-09-15T00:00:00","postcodeFull":"CB24 8QS","propertyType":"Detached","oldOrNew":"Established","duration":"Freehold","paon":"29","saon":"","street":"DENMARK ROAD","locality":"COTTENHAM","townOrCity":"CAMBRIDGE","district":"SOUTH CAMBRIDGESHIRE","county":"CAMBRIDGESHIRE","ppdCategoryType":"Standard","recordStatus":"Addition","latitude":52.285706,"longitude":0.127267,"postcodeStart":"CB24 8","postcode":["CB24","8QS"]}
{"price":63000,"dateOfTransfer":"1995-01-18T00:00:00","postcodeFull":"CB24 8AG","propertyType":"Terraced","oldOrNew":"New build","duration":"Freehold","paon":"20","saon":"","street":"LEE CLOSE","locality":"COTTENHAM","townOrCity":"CAMBRIDGE","district":"SOUTH CAMBRIDGESHIRE","county":"CAMBRIDGESHIRE","ppdCategoryType":"Standard","recordStatus":"Addition","latitude":52.284254,"longitude":0.121005,"postcodeStart":"CB24 8","postcode":["CB24","8AG"]}
{"price":127000,"dateOfTransfer":"1995-05-26T00:00:00","postcodeFull":"CB24 8UF","propertyType":"Detached","oldOrNew":"Established","duration":"Freehold","paon":"35","saon":"","street":"HISTON ROAD","locality":"COTTENHAM","townOrCity":"CAMBRIDGE","district":"SOUTH CAMBRIDGESHIRE","county":"CAMBRIDGESHIRE","ppdCategoryType":"Standard","recordStatus":"Addition","latitude":52.279778,"longitude":0.120731,"postcodeStart":"CB24 8","postcode":["CB24","8UF"]}
{"price":63000,"dateOfTransfer":"1995-07-21T00:00:00","postcodeFull":"CB24 8TG","propertyType":"Detached","oldOrNew":"Established","duration":"Freehold","paon":"37A","saon":"","street":"VICTORY WAY","locality":"COTTENHAM","townOrCity":"CAMBRIDGE","district":"SOUTH CAMBRIDGESHIRE","county":"CAMBRIDGESHIRE","ppdCategoryType":"Standard","recordStatus":"Addition","latitude":52.288219,"longitude":0.119523,"postcodeStart":"CB24 8","postcode":["CB24","8TG"]}
{"price":105000,"dateOfTransfer":"1995-09-01T00:00:00","postcodeFull":"CB24 8BW","propertyType":"Detached","oldOrNew":"New build","duration":"Freehold","paon":"SHORTACRE WORKS","saon":"","street":"BEACH ROAD","locality":"COTTENHAM","townOrCity":"CAMBRIDGE","district":"SOUTH CAMBRIDGESHIRE","county":"CAMBRIDGESHIRE","ppdCategoryType":"Standard","recordStatus":"Addition","latitude":52.28155,"longitude":0.138913,"postcodeStart":"CB24 8","postcode":["CB24","8BW"]}
{"price":65000,"dateOfTransfer":"1995-11-14T00:00:00","postcodeFull":"CB24 8SA","propertyType":"Detached","oldOrNew":"Established","duration":"Freehold","paon":"50","saon":"","street":"HIGH STREET","locality":"COTTENHAM","townOrCity":"CAMBRIDGE","district":"SOUTH CAMBRIDGESHIRE","county":"CAMBRIDGESHIRE","ppdCategoryType":"Standard","recordStatus":"Addition","latitude":52.295107,"longitude":0.130484,"postcodeStart":"CB24 8","postcode":["CB24","8SA"]}
{"price":58000,"dateOfTransfer":"1995-05-25T00:00:00","postcodeFull":"CB24 8AG","propertyType":"Terraced","oldOrNew":"New build","duration":"Freehold","paon":"8","saon":"","street":"LEE CLOSE","locality":"COTTENHAM","townOrCity":"CAMBRIDGE","district":"SOUTH CAMBRIDGESHIRE","county":"CAMBRIDGESHIRE","ppdCategoryType":"Standard","recordStatus":"Addition","latitude":52.284254,"longitude":0.121005,"postcodeStart":"CB24 8","postcode":["CB24","8AG"]}
{"price":85000,"dateOfTransfer":"1995-07-07T00:00:00","postcodeFull":"CB24 8TB","propertyType":"Detached","oldOrNew":"Established","duration":"Freehold","paon":"23","saon":"","street":"LAMBS LANE","locality":"COTTENHAM","townOrCity":"CAMBRIDGE","district":"SOUTH CAMBRIDGESHIRE","county":"CAMBRIDGESHIRE","ppdCategoryType":"Standard","recordStatus":"Addition","latitude":52.286892,"longitude":0.120689,"postcodeStart":"CB24 8","postcode":["CB24","8TB"]}
{"price":60000,"dateOfTransfer":"1995-11-17T00:00:00","postcodeFull":"CB24 8TA","propertyType":"Semi-detached","oldOrNew":"Established","duration":"Freehold","paon":"56","saon":"","street":"LAMBS LANE","locality":"COTTENHAM","townOrCity":"CAMBRIDGE","district":"SOUTH CAMBRIDGESHIRE","county":"CAMBRIDGESHIRE","ppdCategoryType":"Standard","recordStatus":"Addition","latitude":52.286954,"longitude":0.119902,"postcodeStart":"CB24 8","postcode":["CB24","8TA"]}
{"price":70000,"dateOfTransfer":"1995-11-30T00:00:00","postcodeFull":"CB24 8RX","propertyType":"Semi-detached","oldOrNew":"Established","duration":"Freehold","paon":"160A","saon":"","street":"HIGH STREET","locality":"COTTENHAM","townOrCity":"CAMBRIDGE","district":"SOUTH CAMBRIDGESHIRE","county":"CAMBRIDGESHIRE","ppdCategoryType":"Standard","recordStatus":"Addition","latitude":52.290007,"longitude":0.125471,"postcodeStart":"CB24 8","postcode":["CB24","8RX"]}
{"price":45000,"dateOfTransfer":"1995-05-26T00:00:00","postcodeFull":"CB24 8QN","propertyType":"Flat/Maisonette/Townhouse","oldOrNew":"Established","duration":"Leasehold","paon":"7","saon":"","street":"SAMES COURT","locality":"COTTENHAM","townOrCity":"CAMBRIDGE","district":"SOUTH CAMBRIDGESHIRE","county":"CAMBRIDGESHIRE","ppdCategoryType":"Standard","recordStatus":"Addition","latitude":52.292726,"longitude":0.128434,"postcodeStart":"CB24 8","postcode":["CB24","8QN"]}
{"price":129250,"dateOfTransfer":"1995-10-13T00:00:00","postcodeFull":"CB24 8TX","propertyType":"Detached","oldOrNew":"Established","duration":"Freehold","paon":"321","saon":"","street":"HIGH STREET","locality":"COTTENHAM","townOrCity":"CAMBRIDGE","district":"SOUTH CAMBRIDGESHIRE","county":"CAMBRIDGESHIRE","ppdCategoryType":"Standard","recordStatus":"Addition","latitude":52.283972,"longitude":0.123555,"postcodeStart":"CB24 8","postcode":["CB24","8TX"]}
{"price":170000,"dateOfTransfer":"1995-07-28T00:00:00","postcodeFull":"CB24 8SD","propertyType":"Terraced","oldOrNew":"Established","duration":"Freehold","paon":"117","saon":"","street":"HIGH STREET","locality":"COTTENHAM","townOrCity":"CAMBRIDGE","district":"SOUTH CAMBRIDGESHIRE","county":"CAMBRIDGESHIRE","ppdCategoryType":"Standard","recordStatus":"Addition","latitude":52.292334,"longitude":0.128224,"postcodeStart":"CB24 8","postcode":["CB24","8SD"]}
{"price":65000,"dateOfTransfer":"1995-09-15T00:00:00","postcodeFull":"CB24 8TB","propertyType":"Terraced","oldOrNew":"Established","duration":"Freehold","paon":"65","saon":"","street":"LAMBS LANE","locality":"COTTENHAM","townOrCity":"CAMBRIDGE","district":"SOUTH CAMBRIDGESHIRE","county":"CAMBRIDGESHIRE","ppdCategoryType":"Standard","recordStatus":"Addition","latitude":52.286892,"longitude":0.120689,"postcodeStart":"CB24 8","postcode":["CB24","8TB"]}
{"price":89000,"dateOfTransfer":"1995-12-01T00:00:00","postcodeFull":"CB24 8RA","propertyType":"Detached","oldOrNew":"Established","duration":"Freehold","paon":"THE BUNGALOW","saon":"","street":"MILLFIELD","locality":"COTTENHAM","townOrCity":"CAMBRIDGE","district":"SOUTH CAMBRIDGESHIRE","county":"CAMBRIDGESHIRE","ppdCategoryType":"Standard","recordStatus":"Addition","latitude":52.289635,"longitude":0.131626,"postcodeStart":"CB24 8","postcode":["CB24","8RA"]}
{"price":75000,"dateOfTransfer":"1995-10-30T00:00:00","postcodeFull":"CB24 8TA","propertyType":"Detached","oldOrNew":"Established","duration":"Freehold","paon":"58","saon":"","street":"LAMBS LANE","locality":"COTTENHAM","townOrCity":"CAMBRIDGE","district":"SOUTH CAMBRIDGESHIRE","county":"CAMBRIDGESHIRE","ppdCategoryType":"Standard","recordStatus":"Addition","latitude":52.286954,"longitude":0.119902,"postcodeStart":"CB24 8","postcode":["CB24","8TA"]}
{"price":60000,"dateOfTransfer":"1995-12-15T00:00:00","postcodeFull":"CB24 8TX","propertyType":"Flat/Maisonette/Townhouse","oldOrNew":"Established","duration":"Leasehold","paon":"327A","saon":"","street":"HIGH STREET","locality":"COTTENHAM","townOrCity":"CAMBRIDGE","district":"SOUTH CAMBRIDGESHIRE","county":"CAMBRIDGESHIRE","ppdCategoryType":"Standard","recordStatus":"Addition","latitude":52.283972,"longitude":0.123555,"postcodeStart":"CB24 8","postcode":["CB24","8TX"]}
{"price":118000,"dateOfTransfer":"1995-02-09T00:00:00","postcodeFull":"CB24 8RU","propertyType":"Detached","oldOrNew":"Established","duration":"Freehold","paon":"5","saon":"","street":"CUNDELL DRIVE","locality":"COTTENHAM","townOrCity":"CAMBRIDGE","district":"SOUTH CAMBRIDGESHIRE","county":"CAMBRIDGESHIRE","ppdCategoryType":"Standard","recordStatus":"Addition","latitude":52.287238,"longitude":0.128596,"postcodeStart":"CB24 8","postcode":["CB24","8RU"]}
{"price":60000,"dateOfTransfer":"1995-02-10T00:00:00","postcodeFull":"CB24 8AG","propertyType":"Terraced","oldOrNew":"New build","duration":"Freehold","paon":"12","saon":"","street":"LEE CLOSE","locality":"COTTENHAM","townOrCity":"CAMBRIDGE","district":"SOUTH CAMBRIDGESHIRE","county":"CAMBRIDGESHIRE","ppdCategoryType":"Standard","recordStatus":"Addition","latitude":52.284254,"longitude":0.121005,"postcodeStart":"CB24 8","postcode":["CB24","8AG"]}
{"price":42330,"dateOfTransfer":"1995-02-28T00:00:00","postcodeFull":"CB24 8RB","propertyType":"Terraced","oldOrNew":"Established","duration":"Freehold","paon":"84","saon":"","street":"ROOKS STREET","locality":"COTTENHAM","townOrCity":"CAMBRIDGE","district":"SOUTH CAMBRIDGESHIRE","county":"CAMBRIDGESHIRE","ppdCategoryType":"Standard","recordStatus":"Addition","latitude":52.288514,"longitude":0.129203,"postcodeStart":"CB24 8","postcode":["CB24","8RB"]}
{"price":89000,"dateOfTransfer":"1995-05-26T00:00:00","postcodeFull":"CB24 8TH","propertyType":"Detached","oldOrNew":"Established","duration":"Freehold","paon":"75","saon":"","street":"RAMPTON ROAD","locality":"COTTENHAM","townOrCity":"CAMBRIDGE","district":"SOUTH CAMBRIDGESHIRE","county":"CAMBRIDGESHIRE","ppdCategoryType":"Standard","recordStatus":"Addition","latitude":52.284343,"longitude":0.116567,"postcodeStart":"CB24 8","postcode":["CB24","8TH"]}
{"price":78000,"dateOfTransfer":"1995-07-14T00:00:00","postcodeFull":"CB24 8QY","propertyType":"Detached","oldOrNew":"Established","duration":"Freehold","paon":"47","saon":"","street":"MARGETT STREET","locality":"COTTENHAM","townOrCity":"CAMBRIDGE","district":"SOUTH CAMBRIDGESHIRE","county":"CAMBRIDGESHIRE","ppdCategoryType":"Standard","recordStatus":"Addition","latitude":52.289028,"longitude":0.127567,"postcodeStart":"CB24 8","postcode":["CB24","8QY"]}
{"price":59000,"dateOfTransfer":"1995-10-30T00:00:00","postcodeFull":"CB24 8AJ","propertyType":"Semi-detached","oldOrNew":"Established","duration":"Freehold","paon":"25","saon":"","street":"BROAD LANE","locality":"COTTENHAM","townOrCity":"CAMBRIDGE","district":"SOUTH CAMBRIDGESHIRE","county":"CAMBRIDGESHIRE","ppdCategoryType":"Standard","recordStatus":"Addition","latitude":52.292141,"longitude":0.125957,"postcodeStart":"CB24 8","postcode":["CB24","8AJ"]}
{"price":158000,"dateOfTransfer":"1995-11-30T00:00:00","postcodeFull":"CB24 8RX","propertyType":"Detached","oldOrNew":"Established","duration":"Freehold","paon":"157","saon":"","street":"HIGH STREET","locality":"COTTENHAM","townOrCity":"CAMBRIDGE","district":"SOUTH CAMBRIDGESHIRE","county":"CAMBRIDGESHIRE","ppdCategoryType":"Standard","recordStatus":"Addition","latitude":52.290007,"longitude":0.125471,"postcodeStart":"CB24 8","postcode":["CB24","8RX"]}
{"price":57500,"dateOfTransfer":"1995-09-11T00:00:00","postcodeFull":"CB24 8TZ","propertyType":"Semi-detached","oldOrNew":"Established","duration":"Freehold","paon":"5","saon":"","street":"LACKS CLOSE","locality":"COTTENHAM","townOrCity":"CAMBRIDGE","district":"SOUTH CAMBRIDGESHIRE","county":"CAMBRIDGESHIRE","ppdCategoryType":"Standard","recordStatus":"Addition","latitude":52.285312,"longitude":0.123695,"postcodeStart":"CB24 8","postcode":["CB24","8TZ"]}
{"price":44000,"dateOfTransfer":"1995-08-25T00:00:00","postcodeFull":"CB24 8RB","propertyType":"Semi-detached","oldOrNew":"Established","duration":"Freehold","paon":"86A","saon":"","street":"ROOKS STREET","locality":"COTTENHAM","townOrCity":"CAMBRIDGE","district":"SOUTH CAMBRIDGESHIRE","county":"CAMBRIDGESHIRE","ppdCategoryType":"Standard","recordStatus":"Addition","latitude":52.288514,"longitude":0.129203,"postcodeStart":"CB24 8","postcode":["CB24","8RB"]}
{"price":58000,"dateOfTransfer":"1995-09-15T00:00:00","postcodeFull":"CB24 8AG","propertyType":"Terraced","oldOrNew":"New build","duration":"Freehold","paon":"10","saon":"","street":"LEE CLOSE","locality":"COTTENHAM","townOrCity":"CAMBRIDGE","district":"SOUTH CAMBRIDGESHIRE","county":"CAMBRIDGESHIRE","ppdCategoryType":"Standard","recordStatus":"Addition","latitude":52.284254,"longitude":0.121005,"postcodeStart":"CB24 8","postcode":["CB24","8AG"]}
{"price":59500,"dateOfTransfer":"1995-05-25T00:00:00","postcodeFull":"CB24 8AG","propertyType":"Terraced","oldOrNew":"New build","duration":"Freehold","paon":"16","saon":"","street":"LEE CLOSE","locality":"COTTENHAM","townOrCity":"CAMBRIDGE","district":"SOUTH CAMBRIDGESHIRE","county":"CAMBRIDGESHIRE","ppdCategoryType":"Standard","recordStatus":"Addition","latitude":52.284254,"longitude":0.121005,"postcodeStart":"CB24 8","postcode":["CB24","8AG"]}
{"price":96000,"dateOfTransfer":"1996-06-05T00:00:00","postcodeFull":"CB24 8RF","propertyType":"Detached","oldOrNew":"Established","duration":"Freehold","paon":"WHITEHAVEN","saon":"","street":"NEW ROAD","locality":"COTTENHAM","townOrCity":"CAMBRIDGE","district":"SOUTH CAMBRIDGESHIRE","county":"CAMBRIDGESHIRE","ppdCategoryType":"Standard","recordStatus":"Addition","latitude":52.287814,"longitude":0.131527,"postcodeStart":"CB24 8","postcode":["CB24","8RF"]}
{"price":58000,"dateOfTransfer":"1996-06-20T00:00:00","postcodeFull":"CB24 8QZ","propertyType":"Terraced","oldOrNew":"Established","duration":"Freehold","paon":"49","saon":"","street":"ROOKS STREET","locality":"COTTENHAM","townOrCity":"CAMBRIDGE","district":"SOUTH CAMBRIDGESHIRE","county":"CAMBRIDGESHIRE","ppdCategoryType":"Standard","recordStatus":"Addition","latitude":52.288605,"longitude":0.129571,"postcodeStart":"CB24 8","postcode":["CB24","8QZ"]}
{"price":155000,"dateOfTransfer":"1996-07-01T00:00:00","postcodeFull":"CB24 8QY","propertyType":"Detached","oldOrNew":"New build","duration":"Freehold","paon":"18","saon":"","street":"MARGETT STREET","locality":"COTTENHAM","townOrCity":"CAMBRIDGE","district":"SOUTH CAMBRIDGESHIRE","county":"CAMBRIDGESHIRE","ppdCategoryType":"Standard","recordStatus":"Addition","latitude":52.289028,"longitude":0.127567,"postcodeStart":"CB24 8","postcode":["CB24","8QY"]}
{"price":137250,"dateOfTransfer":"1996-04-04T00:00:00","postcodeFull":"CB24 8RU","propertyType":"Detached","oldOrNew":"Established","duration":"Freehold","paon":"12","saon":"","street":"CUNDELL DRIVE","locality":"COTTENHAM","townOrCity":"CAMBRIDGE","district":"SOUTH CAMBRIDGESHIRE","county":"CAMBRIDGESHIRE","ppdCategoryType":"Standard","recordStatus":"Addition","latitude":52.287238,"longitude":0.128596,"postcodeStart":"CB24 8","postcode":["CB24","8RU"]}
{"price":75000,"dateOfTransfer":"1996-10-24T00:00:00","postcodeFull":"CB24 8UN","propertyType":"Semi-detached","oldOrNew":"Established","duration":"Freehold","paon":"12","saon":"","street":"ELLIS CLOSE","locality":"COTTENHAM","townOrCity":"CAMBRIDGE","district":"SOUTH CAMBRIDGESHIRE","county":"CAMBRIDGESHIRE","ppdCategoryType":"Standard","recordStatus":"Addition","latitude":52.282458,"longitude":0.118881,"postcodeStart":"CB24 8","postcode":["CB24","8UN"]}
{"price":70000,"dateOfTransfer":"1996-10-08T00:00:00","postcodeFull":"CB24 8TL","propertyType":"Detached","oldOrNew":"Established","duration":"Freehold","paon":"15","saon":"","street":"NEW TOWN","locality":"COTTENHAM","townOrCity":"CAMBRIDGE","district":"SOUTH CAMBRIDGESHIRE","county":"CAMBRIDGESHIRE","ppdCategoryType":"Standard","recordStatus":"Addition","latitude":52.284491,"longitude":0.118348,"postcodeStart":"CB24 8","postcode":["CB24","8TL"]}
{"price":60000,"dateOfTransfer":"1996-08-30T00:00:00","postcodeFull":"CB24 8TR","propertyType":"Semi-detached","oldOrNew":"Established","duration":"Freehold","paon":"27","saon":"","street":"HARLESTONES ROAD","locality":"COTTENHAM","townOrCity":"CAMBRIDGE","district":"SOUTH CAMBRIDGESHIRE","county":"CAMBRIDGESHIRE","ppdCategoryType":"Standard","recordStatus":"Addition","latitude":52.285882,"longitude":0.121992,"postcodeStart":"CB24 8","postcode":["CB24","8TR"]}
{"price":72500,"dateOfTransfer":"1996-03-15T00:00:00","postcodeFull":"CB24 8UU","propertyType":"Semi-detached","oldOrNew":"Established","duration":"Freehold","paon":"3","saon":"","street":"GOODE CLOSE","locality":"COTTENHAM","townOrCity":"CAMBRIDGE","district":"SOUTH CAMBRIDGESHIRE","county":"CAMBRIDGESHIRE","ppdCategoryType":"Standard","recordStatus":"Addition","latitude":52.288101,"longitude":0.123593,"postcodeStart":"CB24 8","postcode":["CB24","8UU"]}
{"price":77500,"dateOfTransfer":"1996-03-15T00:00:00","postcodeFull":"CB24 8TX","propertyType":"Detached","oldOrNew":"Established","duration":"Freehold","paon":"356","saon":"","street":"HIGH STREET","locality":"COTTENHAM","townOrCity":"CAMBRIDGE","district":"SOUTH CAMBRIDGESHIRE","county":"CAMBRIDGESHIRE","ppdCategoryType":"Standard","recordStatus":"Addition","latitude":52.283972,"longitude":0.123555,"postcodeStart":"CB24 8","postcode":["CB24","8TX"]}
{"price":49000,"dateOfTransfer":"1996-08-20T00:00:00","postcodeFull":"CB24 8XH","propertyType":"Terraced","oldOrNew":"Established","duration":"Freehold","paon":"4","saon":"","street":"MOORES COURT","locality":"COTTENHAM","townOrCity":"CAMBRIDGE","district":"SOUTH CAMBRIDGESHIRE","county":"CAMBRIDGESHIRE","ppdCategoryType":"Standard","recordStatus":"Addition","latitude":52.292662,"longitude":0.125996,"postcodeStart":"CB24 8","postcode":["CB24","8XH"]}
{"price":36000,"dateOfTransfer":"1996-08-14T00:00:00","postcodeFull":"CB24 8QN","propertyType":"Flat/Maisonette/Townhouse","oldOrNew":"Established","duration":"Leasehold","paon":"9","saon":"","street":"SAMES COURT","locality":"COTTENHAM","townOrCity":"CAMBRIDGE","district":"SOUTH CAMBRIDGESHIRE","county":"CAMBRIDGESHIRE","ppdCategoryType":"Standard","recordStatus":"Addition","latitude":52.292726,"longitude":0.128434,"postcodeStart":"CB24 8","postcode":["CB24","8QN"]}
{"price":170000,"dateOfTransfer":"1996-06-21T00:00:00","postcodeFull":"CB24 8SD","propertyType":"Detached","oldOrNew":"Established","duration":"Freehold","paon":"109","saon":"","street":"HIGH STREET","locality":"COTTENHAM","townOrCity":"CAMBRIDGE","district":"SOUTH CAMBRIDGESHIRE","county":"CAMBRIDGESHIRE","ppdCategoryType":"Standard","recordStatus":"Addition","latitude":52.292334,"longitude":0.128224,"postcodeStart":"CB24 8","postcode":["CB24","8SD"]}
{"price":82500,"dateOfTransfer":"1996-08-09T00:00:00","postcodeFull":"CB24 8TQ","propertyType":"Semi-detached","oldOrNew":"Established","duration":"Freehold","paon":"17","saon":"","street":"PELHAM WAY","locality":"COTTENHAM","townOrCity":"CAMBRIDGE","district":"SOUTH CAMBRIDGESHIRE","county":"CAMBRIDGESHIRE","ppdCategoryType":"Standard","recordStatus":"Addition","latitude":52.284499,"longitude":0.119389,"postcodeStart":"CB24 8","postcode":["CB24","8TQ"]}
{"price":54000,"dateOfTransfer":"1996-12-06T00:00:00","postcodeFull":"CB24 8TQ","propertyType":"Terraced","oldOrNew":"Established","duration":"Freehold","paon":"61","saon":"","street":"PELHAM WAY","locality":"COTTENHAM","townOrCity":"CAMBRIDGE","district":"SOUTH CAMBRIDGESHIRE","county":"CAMBRIDGESHIRE","ppdCategoryType":"Standard","recordStatus":"Addition","latitude":52.284499,"longitude":0.119389,"postcodeStart":"CB24 8","postcode":["CB24","8TQ"]}
{"price":37600,"dateOfTransfer":"1996-05-24T00:00:00","postcodeFull":"CB24 8RS","propertyType":"Terraced","oldOrNew":"Established","duration":"Leasehold","paon":"10","saon":"","street":"BEAGLE COURT","locality":"COTTENHAM","townOrCity":"CAMBRIDGE","district":"SOUTH CAMBRIDGESHIRE","county":"CAMBRIDGESHIRE","ppdCategoryType":"Standard","recordStatus":"Addition","latitude":52.287835,"longitude":0.125384,"postcodeStart":"CB24 8","postcode":["CB24","8RS"]}
{"price":83500,"dateOfTransfer":"1996-12-20T00:00:00","postcodeFull":"CB24 8RB","propertyType":"Detached","oldOrNew":"Established","duration":"Freehold","paon":"18","saon":"","street":"ROOKS STREET","locality":"COTTENHAM","townOrCity":"CAMBRIDGE","district":"SOUTH CAMBRIDGESHIRE","county":"CAMBRIDGESHIRE","ppdCategoryType":"Standard","recordStatus":"Addition","latitude":52.288514,"longitude":0.129203,"postcodeStart":"CB24 8","postcode":["CB24","8RB"]}
{"price":60000,"dateOfTransfer":"1996-11-18T00:00:00","postcodeFull":"CB24 8SP","propertyType":"Detached","oldOrNew":"Established","duration":"Freehold","paon":"10","saon":"","street":"TWENTYPENCE ROAD","locality":"COTTENHAM","townOrCity":"CAMBRIDGE","district":"SOUTH CAMBRIDGESHIRE","county":"CAMBRIDGESHIRE","ppdCategoryType":"Standard","recordStatus":"Addition","latitude":52.299886,"longitude":0.13724,"postcodeStart":"CB24 8","postcode":["CB24","8SP"]}
{"price":50000,"dateOfTransfer":"1996-08-23T00:00:00","postcodeFull":"CB24 8RH","propertyType":"Detached","oldOrNew":"Established","duration":"Freehold","paon":"105","saon":"","street":"COOLIDGE GARDENS","locality":"COTTENHAM","townOrCity":"CAMBRIDGE","district":"SOUTH CAMBRIDGESHIRE","county":"CAMBRIDGESHIRE","ppdCategoryType":"Standard","recordStatus":"Addition","latitude":52.286011,"longitude":0.132789,"postcodeStart":"CB24 8","postcode":["CB24","8RH"]}
{"price":145000,"dateOfTransfer":"1996-10-18T00:00:00","postcodeFull":"CB24 8TW","propertyType":"Detached","oldOrNew":"Established","duration":"Freehold","paon":"36","saon":"","street":"OAKINGTON ROAD","locality":"COTTENHAM","townOrCity":"CAMBRIDGE","district":"SOUTH CAMBRIDGESHIRE","county":"CAMBRIDGESHIRE","ppdCategoryType":"Standard","recordStatus":"Addition","latitude":52.282354,"longitude":0.114654,"postcodeStart":"CB24 8","postcode":["CB24","8TW"]}
{"price":20000,"dateOfTransfer":"1996-12-23T00:00:00","postcodeFull":"CB24 8QR","propertyType":"Detached","oldOrNew":"Established","duration":"Freehold","paon":"26","saon":"","street":"LYLES ROAD","locality":"COTTENHAM","townOrCity":"CAMBRIDGE","district":"SOUTH CAMBRIDGESHIRE","county":"CAMBRIDGESHIRE","ppdCategoryType":"Standard","recordStatus":"Addition","latitude":52.286304,"longitude":0.123537,"postcodeStart":"CB24 8","postcode":["CB24","8QR"]}
{"price":38750,"dateOfTransfer":"1996-06-28T00:00:00","postcodeFull":"CB24 8SD","propertyType":"Flat/Maisonette/Townhouse","oldOrNew":"Established","duration":"Leasehold","paon":"94","saon":"","street":"HIGH STREET","locality":"COTTENHAM","townOrCity":"CAMBRIDGE","district":"SOUTH CAMBRIDGESHIRE","county":"CAMBRIDGESHIRE","ppdCategoryType":"Standard","recordStatus":"Addition","latitude":52.292334,"longitude":0.128224,"postcodeStart":"CB24 8","postcode":["CB24","8SD"]}
{"price":60000,"dateOfTransfer":"1996-07-05T00:00:00","postcodeFull":"CB24 8QP","propertyType":"Detached","oldOrNew":"Established","duration":"Freehold","paon":"239","saon":"","street":"HIGH STREET","locality":"COTTENHAM","townOrCity":"CAMBRIDGE","district":"SOUTH CAMBRIDGESHIRE","county":"CAMBRIDGESHIRE","ppdCategoryType":"Standard","recordStatus":"Addition","latitude":52.286847,"longitude":0.12617,"postcodeStart":"CB24 8","postcode":["CB24","8QP"]}
{"price":55000,"dateOfTransfer":"1996-10-25T00:00:00","postcodeFull":"CB24 8QS","propertyType":"Semi-detached","oldOrNew":"Established","duration":"Freehold","paon":"30","saon":"","street":"DENMARK ROAD","locality":"COTTENHAM","townOrCity":"CAMBRIDGE","district":"SOUTH CAMBRIDGESHIRE","county":"CAMBRIDGESHIRE","ppdCategoryType":"Standard","recordStatus":"Addition","latitude":52.285706,"longitude":0.127267,"postcodeStart":"CB24 8","postcode":["CB24","8QS"]}
{"price":67500,"dateOfTransfer":"1996-02-28T00:00:00","postcodeFull":"CB24 8TF","propertyType":"Semi-detached","oldOrNew":"Established","duration":"Freehold","paon":"22","saon":"","street":"VICTORY WAY","locality":"COTTENHAM","townOrCity":"CAMBRIDGE","district":"SOUTH CAMBRIDGESHIRE","county":"CAMBRIDGESHIRE","ppdCategoryType":"Standard","recordStatus":"Addition","latitude":52.288921,"longitude":0.119996,"postcodeStart":"CB24 8","postcode":["CB24","8TF"]}
{"price":59000,"dateOfTransfer":"1996-03-15T00:00:00","postcodeFull":"CB24 8TS","propertyType":"Terraced","oldOrNew":"Established","duration":"Freehold","paon":"60","saon":"","street":"WILKIN WALK","locality":"COTTENHAM","townOrCity":"CAMBRIDGE","district":"SOUTH CAMBRIDGESHIRE","county":"CAMBRIDGESHIRE","ppdCategoryType":"Standard","recordStatus":"Addition","latitude":52.285547,"longitude":0.121096,"postcodeStart":"CB24 8","postcode":["CB24","8TS"]}
{"price":51000,"dateOfTransfer":"1996-01-31T00:00:00","postcodeFull":"CB24 8QZ","propertyType":"Terraced","oldOrNew":"Established","duration":"Freehold","paon":"15","saon":"","street":"ROOKS STREET","locality":"COTTENHAM","townOrCity":"CAMBRIDGE","district":"SOUTH CAMBRIDGESHIRE","county":"CAMBRIDGESHIRE","ppdCategoryType":"Standard","recordStatus":"Addition","latitude":52.288605,"longitude":0.129571,"postcodeStart":"CB24 8","postcode":["CB24","8QZ"]}
{"price":205000,"dateOfTransfer":"1996-05-15T00:00:00","postcodeFull":"CB24 8TJ","propertyType":"Detached","oldOrNew":"Established","duration":"Freehold","paon":"113","saon":"","street":"RAMPTON ROAD","locality":"COTTENHAM","townOrCity":"CAMBRIDGE","district":"SOUTH CAMBRIDGESHIRE","county":"CAMBRIDGESHIRE","ppdCategoryType":"Standard","recordStatus":"Addition","latitude":52.28609,"longitude":0.112882,"postcodeStart":"CB24 8","postcode":["CB24","8TJ"]}
{"price":59500,"dateOfTransfer":"1996-04-12T00:00:00","postcodeFull":"CB24 8QY","propertyType":"Detached","oldOrNew":"Established","duration":"Freehold","paon":"29","saon":"","street":"MARGETT STREET","locality":"COTTENHAM","townOrCity":"CAMBRIDGE","district":"SOUTH CAMBRIDGESHIRE","county":"CAMBRIDGESHIRE","ppdCategoryType":"Standard","recordStatus":"Addition","latitude":52.289028,"longitude":0.127567,"postcodeStart":"CB24 8","postcode":["CB24","8QY"]}
{"price":127500,"dateOfTransfer":"1996-12-30T00:00:00","postcodeFull":"CB24 8QX","propertyType":"Detached","oldOrNew":"Established","duration":"Freehold","paon":"48","saon":"","street":"CORBETT STREET","locality":"COTTENHAM","townOrCity":"CAMBRIDGE","district":"SOUTH CAMBRIDGESHIRE","county":"CAMBRIDGESHIRE","ppdCategoryType":"Standard","recordStatus":"Addition","latitude":52.288046,"longitude":0.127489,"postcodeStart":"CB24 8","postcode":["CB24","8QX"]}
{"price":90000,"dateOfTransfer":"1996-02-09T00:00:00","postcodeFull":"CB24 8TJ","propertyType":"Detached","oldOrNew":"Established","duration":"Freehold","paon":"80","saon":"","street":"RAMPTON ROAD","locality":"COTTENHAM","townOrCity":"CAMBRIDGE","district":"SOUTH CAMBRIDGESHIRE","county":"CAMBRIDGESHIRE","ppdCategoryType":"Standard","recordStatus":"Addition","latitude":52.28609,"longitude":0.112882,"postcodeStart":"CB24 8","postcode":["CB24","8TJ"]}
{"price":56000,"dateOfTransfer":"1996-11-15T00:00:00","postcodeFull":"CB24 8TY","propertyType":"Terraced","oldOrNew":"Established","duration":"Freehold","paon":"11","saon":"","street":"PELHAM CLOSE","locality":"COTTENHAM","townOrCity":"CAMBRIDGE","district":"SOUTH CAMBRIDGESHIRE","county":"CAMBRIDGESHIRE","ppdCategoryType":"Standard","recordStatus":"Addition","latitude":52.285123,"longitude":0.120694,"postcodeStart":"CB24 8","postcode":["CB24","8TY"]}
{"price":119000,"dateOfTransfer":"1996-10-11T00:00:00","postcodeFull":"CB24 8QD","propertyType":"Detached","oldOrNew":"Established","duration":"Freehold","paon":"80","saon":"","street":"KING STREET","locality":"RAMPTON","townOrCity":"CAMBRIDGE","district":"SOUTH CAMBRIDGESHIRE","county":"CAMBRIDGESHIRE","ppdCategoryType":"Standard","recordStatus":"Addition","latitude":52.290965,"longitude":0.086863,"postcodeStart":"CB24 8","postcode":["CB24","8QD"]}
{"price":69995,"dateOfTransfer":"1996-06-13T00:00:00","postcodeFull":"CB24 8RB","propertyType":"Semi-detached","oldOrNew":"Established","duration":"Freehold","paon":"34","saon":"","street":"ROOKS STREET","locality":"COTTENHAM","townOrCity":"CAMBRIDGE","district":"SOUTH CAMBRIDGESHIRE","county":"CAMBRIDGESHIRE","ppdCategoryType":"Standard","recordStatus":"Addition","latitude":52.288514,"longitude":0.129203,"postcodeStart":"CB24 8","postcode":["CB24","8RB"]}
{"price":35000,"dateOfTransfer":"1996-02-23T00:00:00","postcodeFull":"CB24 8QU","propertyType":"Flat/Maisonette/Townhouse","oldOrNew":"Established","duration":"Leasehold","paon":"1B","saon":"","street":"TELEGRAPH STREET","locality":"COTTENHAM","townOrCity":"CAMBRIDGE","district":"SOUTH CAMBRIDGESHIRE","county":"CAMBRIDGESHIRE","ppdCategoryType":"Standard","recordStatus":"Addition","latitude":52.28713,"longitude":0.12711,"postcodeStart":"CB24 8","postcode":["CB24","8QU"]}
{"price":65000,"dateOfTransfer":"1996-02-28T00:00:00","postcodeFull":"CB24 8RG","propertyType":"Terraced","oldOrNew":"Established","duration":"Freehold","paon":"27","saon":"","street":"BEACH ROAD","locality":"COTTENHAM","townOrCity":"CAMBRIDGE","district":"SOUTH CAMBRIDGESHIRE","county":"CAMBRIDGESHIRE","ppdCategoryType":"Standard","recordStatus":"Addition","latitude":52.285509,"longitude":0.131077,"postcodeStart":"CB24 8","postcode":["CB24","8RG"]}
{"price":113000,"dateOfTransfer":"1996-07-22T00:00:00","postcodeFull":"CB24 8RG","propertyType":"Detached","oldOrNew":"Established","duration":"Freehold","paon":"51","saon":"","street":"BEACH ROAD","locality":"COTTENHAM","townOrCity":"CAMBRIDGE","district":"SOUTH CAMBRIDGESHIRE","county":"CAMBRIDGESHIRE","ppdCategoryType":"Standard","recordStatus":"Addition","latitude":52.285509,"longitude":0.131077,"postcodeStart":"CB24 8","postcode":["CB24","8RG"]}
{"price":105000,"dateOfTransfer":"1996-03-20T00:00:00","postcodeFull":"CB24 8QZ","propertyType":"Detached","oldOrNew":"Established","duration":"Freehold","paon":"35A","saon":"","street":"ROOKS STREET","locality":"COTTENHAM","townOrCity":"CAMBRIDGE","district":"SOUTH CAMBRIDGESHIRE","county":"CAMBRIDGESHIRE","ppdCategoryType":"Standard","recordStatus":"Addition","latitude":52.288605,"longitude":0.129571,"postcodeStart":"CB24 8","postcode":["CB24","8QZ"]}
{"price":59500,"dateOfTransfer":"1996-10-25T00:00:00","postcodeFull":"CB24 8RB","propertyType":"Terraced","oldOrNew":"Established","duration":"Freehold","paon":"44","saon":"","street":"ROOKS STREET","locality":"COTTENHAM","townOrCity":"CAMBRIDGE","district":"SOUTH CAMBRIDGESHIRE","county":"CAMBRIDGESHIRE","ppdCategoryType":"Standard","recordStatus":"Addition","latitude":52.288514,"longitude":0.129203,"postcodeStart":"CB24 8","postcode":["CB24","8RB"]}
{"price":58500,"dateOfTransfer":"1996-07-12T00:00:00","postcodeFull":"CB24 8TS","propertyType":"Terraced","oldOrNew":"Established","duration":"Freehold","paon":"2","saon":"","street":"WILKIN WALK","locality":"COTTENHAM","townOrCity":"CAMBRIDGE","district":"SOUTH CAMBRIDGESHIRE","county":"CAMBRIDGESHIRE","ppdCategoryType":"Standard","recordStatus":"Addition","latitude":52.285547,"longitude":0.121096,"postcodeStart":"CB24 8","postcode":["CB24","8TS"]}
{"price":60000,"dateOfTransfer":"1996-04-19T00:00:00","postcodeFull":"CB24 8SD","propertyType":"Semi-detached","oldOrNew":"Established","duration":"Freehold","paon":"90","saon":"","street":"HIGH STREET","locality":"COTTENHAM","townOrCity":"CAMBRIDGE","district":"SOUTH CAMBRIDGESHIRE","county":"CAMBRIDGESHIRE","ppdCategoryType":"Standard","recordStatus":"Addition","latitude":52.292334,"longitude":0.128224,"postcodeStart":"CB24 8","postcode":["CB24","8SD"]}
{"price":65000,"dateOfTransfer":"1996-04-02T00:00:00","postcodeFull":"CB24 8RB","propertyType":"Semi-detached","oldOrNew":"Established","duration":"Freehold","paon":"36","saon":"","street":"ROOKS STREET","locality":"COTTENHAM","townOrCity":"CAMBRIDGE","district":"SOUTH CAMBRIDGESHIRE","county":"CAMBRIDGESHIRE","ppdCategoryType":"Standard","recordStatus":"Addition","latitude":52.288514,"longitude":0.129203,"postcodeStart":"CB24 8","postcode":["CB24","8RB"]}
{"price":55000,"dateOfTransfer":"1996-11-29T00:00:00","postcodeFull":"CB24 8RB","propertyType":"Terraced","oldOrNew":"Established","duration":"Freehold","paon":"114","saon":"","street":"ROOKS STREET","locality":"COTTENHAM","townOrCity":"CAMBRIDGE","district":"SOUTH CAMBRIDGESHIRE","county":"CAMBRIDGESHIRE","ppdCategoryType":"Standard","recordStatus":"Addition","latitude":52.288514,"longitude":0.129203,"postcodeStart":"CB24 8","postcode":["CB24","8RB"]}
{"price":24000,"dateOfTransfer":"1996-10-15T00:00:00","postcodeFull":"CB24 8QA","propertyType":"Flat/Maisonette/Townhouse","oldOrNew":"Established","duration":"Leasehold","paon":"1A","saon":"","street":"CHURCH END","locality":"RAMPTON","townOrCity":"CAMBRIDGE","district":"SOUTH CAMBRIDGESHIRE","county":"CAMBRIDGESHIRE","ppdCategoryType":"Standard","recordStatus":"Addition","latitude":52.291277,"longitude":0.092558,"postcodeStart":"CB24 8","postcode":["CB24","8QA"]}
{"price":62500,"dateOfTransfer":"1996-11-22T00:00:00","postcodeFull":"CB24 8TY","propertyType":"Terraced","oldOrNew":"Established","duration":"Freehold","paon":"25","saon":"","street":"PELHAM CLOSE","locality":"COTTENHAM","townOrCity":"CAMBRIDGE","district":"SOUTH CAMBRIDGESHIRE","county":"CAMBRIDGESHIRE","ppdCategoryType":"Standard","recordStatus":"Addition","latitude":52.285123,"longitude":0.120694,"postcodeStart":"CB24 8","postcode":["CB24","8TY"]}
{"price":170000,"dateOfTransfer":"1996-09-18T00:00:00","postcodeFull":"CB24 8TX","propertyType":"Detached","oldOrNew":"Established","duration":"Freehold","paon":"332","saon":"","street":"HIGH STREET","locality":"COTTENHAM","townOrCity":"CAMBRIDGE","district":"SOUTH CAMBRIDGESHIRE","county":"CAMBRIDGESHIRE","ppdCategoryType":"Standard","recordStatus":"Addition","latitude":52.283972,"longitude":0.123555,"postcodeStart":"CB24 8","postcode":["CB24","8TX"]}
{"price":58000,"dateOfTransfer":"1996-01-12T00:00:00","postcodeFull":"CB24 8TR","propertyType":"Semi-detached","oldOrNew":"Established","duration":"Freehold","paon":"67","saon":"","street":"HARLESTONES ROAD","locality":"COTTENHAM","townOrCity":"CAMBRIDGE","district":"SOUTH CAMBRIDGESHIRE","county":"CAMBRIDGESHIRE","ppdCategoryType":"Standard","recordStatus":"Addition","latitude":52.285882,"longitude":0.121992,"postcodeStart":"CB24 8","postcode":["CB24","8TR"]}
{"price":128500,"dateOfTransfer":"1996-09-13T00:00:00","postcodeFull":"CB24 8RF","propertyType":"Detached","oldOrNew":"Established","duration":"Freehold","paon":"7","saon":"","street":"NEW ROAD","locality":"COTTENHAM","townOrCity":"CAMBRIDGE","district":"SOUTH CAMBRIDGESHIRE","county":"CAMBRIDGESHIRE","ppdCategoryType":"Standard","recordStatus":"Addition","latitude":52.287814,"longitude":0.131527,"postcodeStart":"CB24 8","postcode":["CB24","8RF"]}
{"price":60000,"dateOfTransfer":"1996-08-09T00:00:00","postcodeFull":"CB24 8TY","propertyType":"Terraced","oldOrNew":"Established","duration":"Freehold","paon":"24","saon":"","street":"PELHAM CLOSE","locality":"COTTENHAM","townOrCity":"CAMBRIDGE","district":"SOUTH CAMBRIDGESHIRE","county":"CAMBRIDGESHIRE","ppdCategoryType":"Standard","recordStatus":"Addition","latitude":52.285123,"longitude":0.120694,"postcodeStart":"CB24 8","postcode":["CB24","8TY"]}
{"price":120000,"dateOfTransfer":"1996-03-22T00:00:00","postcodeFull":"CB24 8TA","propertyType":"Semi-detached","oldOrNew":"Established","duration":"Freehold","paon":"34","saon":"","street":"LAMBS LANE","locality":"COTTENHAM","townOrCity":"CAMBRIDGE","district":"SOUTH CAMBRIDGESHIRE","county":"CAMBRIDGESHIRE","ppdCategoryType":"Standard","recordStatus":"Addition","latitude":52.286954,"longitude":0.119902,"postcodeStart":"CB24 8","postcode":["CB24","8TA"]}
{"price":82500,"dateOfTransfer":"1996-10-25T00:00:00","postcodeFull":"CB24 8TE","propertyType":"Detached","oldOrNew":"Established","duration":"Freehold","paon":"7","saon":"","street":"CROWLANDS","locality":"COTTENHAM","townOrCity":"CAMBRIDGE","district":"SOUTH CAMBRIDGESHIRE","county":"CAMBRIDGESHIRE","ppdCategoryType":"Standard","recordStatus":"Addition","latitude":52.288824,"longitude":0.121912,"postcodeStart":"CB24 8","postcode":["CB24","8TE"]}
{"price":38250,"dateOfTransfer":"1996-12-09T00:00:00","postcodeFull":"CB24 8QW","propertyType":"Flat/Maisonette/Townhouse","oldOrNew":"Established","duration":"Leasehold","paon":"35","saon":"","street":"FRANKLIN GARDENS","locality":"COTTENHAM","townOrCity":"CAMBRIDGE","district":"SOUTH CAMBRIDGESHIRE","county":"CAMBRIDGESHIRE","ppdCategoryType":"Standard","recordStatus":"Addition","latitude":52.287212,"longitude":0.123507,"postcodeStart":"CB24 8","postcode":["CB24","8QW"]}
{"price":54500,"dateOfTransfer":"1996-12-16T00:00:00","postcodeFull":"CB24 8TS","propertyType":"Terraced","oldOrNew":"Established","duration":"Freehold","paon":"50","saon":"","street":"WILKIN WALK","locality":"COTTENHAM","townOrCity":"CAMBRIDGE","district":"SOUTH CAMBRIDGESHIRE","county":"CAMBRIDGESHIRE","ppdCategoryType":"Standard","recordStatus":"Addition","latitude":52.285547,"longitude":0.121096,"postcodeStart":"CB24 8","postcode":["CB24","8TS"]}
{"price":102000,"dateOfTransfer":"1996-07-24T00:00:00","postcodeFull":"CB24 8QX","propertyType":"Detached","oldOrNew":"Established","duration":"Freehold","paon":"19","saon":"","street":"CORBETT STREET","locality":"COTTENHAM","townOrCity":"CAMBRIDGE","district":"SOUTH CAMBRIDGESHIRE","county":"CAMBRIDGESHIRE","ppdCategoryType":"Standard","recordStatus":"Addition","latitude":52.288046,"longitude":0.127489,"postcodeStart":"CB24 8","postcode":["CB24","8QX"]}
{"price":175000,"dateOfTransfer":"1996-07-17T00:00:00","postcodeFull":"CB24 8TX","propertyType":"Detached","oldOrNew":"Established","duration":"Freehold","paon":"300","saon":"","street":"HIGH STREET","locality":"COTTENHAM","townOrCity":"CAMBRIDGE","district":"SOUTH CAMBRIDGESHIRE","county":"CAMBRIDGESHIRE","ppdCategoryType":"Standard","recordStatus":"Addition","latitude":52.283972,"longitude":0.123555,"postcodeStart":"CB24 8","postcode":["CB24","8TX"]}
{"price":73500,"dateOfTransfer":"1996-08-14T00:00:00","postcodeFull":"CB24 8QZ","propertyType":"Semi-detached","oldOrNew":"Established","duration":"Freehold","paon":"37","saon":"","street":"ROOKS STREET","locality":"COTTENHAM","townOrCity":"CAMBRIDGE","district":"SOUTH CAMBRIDGESHIRE","county":"CAMBRIDGESHIRE","ppdCategoryType":"Standard","recordStatus":"Addition","latitude":52.288605,"longitude":0.129571,"postcodeStart":"CB24 8","postcode":["CB24","8QZ"]}
{"price":85000,"dateOfTransfer":"1996-04-03T00:00:00","postcodeFull":"CB24 8TB","propertyType":"Detached","oldOrNew":"Established","duration":"Freehold","paon":"7","saon":"","street":"LAMBS LANE","locality":"COTTENHAM","townOrCity":"CAMBRIDGE","district":"SOUTH CAMBRIDGESHIRE","county":"CAMBRIDGESHIRE","ppdCategoryType":"Standard","recordStatus":"Addition","latitude":52.286892,"longitude":0.120689,"postcodeStart":"CB24 8","postcode":["CB24","8TB"]}
{"price":135000,"dateOfTransfer":"1996-06-05T00:00:00","postcodeFull":"CB24 8UF","propertyType":"Detached","oldOrNew":"Established","duration":"Freehold","paon":"31","saon":"","street":"HISTON ROAD","locality":"COTTENHAM","townOrCity":"CAMBRIDGE","district":"SOUTH CAMBRIDGESHIRE","county":"CAMBRIDGESHIRE","ppdCategoryType":"Standard","recordStatus":"Addition","latitude":52.279778,"longitude":0.120731,"postcodeStart":"CB24 8","postcode":["CB24","8UF"]}
{"price":52950,"dateOfTransfer":"1996-09-13T00:00:00","postcodeFull":"CB24 8QT","propertyType":"Semi-detached","oldOrNew":"Established","duration":"Freehold","paon":"5","saon":"","street":"THE STABLES","locality":"COTTENHAM","townOrCity":"CAMBRIDGE","district":"SOUTH CAMBRIDGESHIRE","county":"CAMBRIDGESHIRE","ppdCategoryType":"Standard","recordStatus":"Addition","latitude":52.290347,"longitude":0.127689,"postcodeStart":"CB24 8","postcode":["CB24","8QT"]}
{"price":120000,"dateOfTransfer":"1996-07-29T00:00:00","postcodeFull":"CB24 8QX","propertyType":"Detached","oldOrNew":"Established","duration":"Freehold","paon":"23","saon":"","street":"CORBETT STREET","locality":"COTTENHAM","townOrCity":"CAMBRIDGE","district":"SOUTH CAMBRIDGESHIRE","county":"CAMBRIDGESHIRE","ppdCategoryType":"Standard","recordStatus":"Addition","latitude":52.288046,"longitude":0.127489,"postcodeStart":"CB24 8","postcode":["CB24","8QX"]}
{"price":69500,"dateOfTransfer":"1996-11-29T00:00:00","postcodeFull":"CB24 8UU","propertyType":"Semi-detached","oldOrNew":"Established","duration":"Freehold","paon":"2","saon":"","street":"GOODE CLOSE","locality":"COTTENHAM","townOrCity":"CAMBRIDGE","district":"SOUTH CAMBRIDGESHIRE","county":"CAMBRIDGESHIRE","ppdCategoryType":"Standard","recordStatus":"Addition","latitude":52.288101,"longitude":0.123593,"postcodeStart":"CB24 8","postcode":["CB24","8UU"]}
{"price":102000,"dateOfTransfer":"1996-03-14T00:00:00","postcodeFull":"CB24 8SA","propertyType":"Semi-detached","oldOrNew":"Established","duration":"Freehold","paon":"30","saon":"","street":"HIGH STREET","locality":"COTTENHAM","townOrCity":"CAMBRIDGE","district":"SOUTH CAMBRIDGESHIRE","county":"CAMBRIDGESHIRE","ppdCategoryType":"Standard","recordStatus":"Addition","latitude":52.295107,"longitude":0.130484,"postcodeStart":"CB24 8","postcode":["CB24","8SA"]}
{"price":64000,"dateOfTransfer":"1996-07-31T00:00:00","postcodeFull":"CB24 8TS","propertyType":"Terraced","oldOrNew":"Established","duration":"Freehold","paon":"26","saon":"","street":"WILKIN WALK","locality":"COTTENHAM","townOrCity":"CAMBRIDGE","district":"SOUTH CAMBRIDGESHIRE","county":"CAMBRIDGESHIRE","ppdCategoryType":"Standard","recordStatus":"Addition","latitude":52.285547,"longitude":0.121096,"postcodeStart":"CB24 8","postcode":["CB24","8TS"]}
{"price":37000,"dateOfTransfer":"1996-05-30T00:00:00","postcodeFull":"CB24 8RS","propertyType":"Flat/Maisonette/Townhouse","oldOrNew":"Established","duration":"Leasehold","paon":"1","saon":"","street":"BEAGLE COURT","locality":"COTTENHAM","townOrCity":"CAMBRIDGE","district":"SOUTH CAMBRIDGESHIRE","county":"CAMBRIDGESHIRE","ppdCategoryType":"Standard","recordStatus":"Addition","latitude":52.287835,"longitude":0.125384,"postcodeStart":"CB24 8","postcode":["CB24","8RS"]}
{"price":87500,"dateOfTransfer":"1996-01-25T00:00:00","postcodeFull":"CB24 8TE","propertyType":"Detached","oldOrNew":"Established","duration":"Freehold","paon":"9","saon":"","street":"CROWLANDS","locality":"COTTENHAM","townOrCity":"CAMBRIDGE","district":"SOUTH CAMBRIDGESHIRE","county":"CAMBRIDGESHIRE","ppdCategoryType":"Standard","recordStatus":"Addition","latitude":52.288824,"longitude":0.121912,"postcodeStart":"CB24 8","postcode":["CB24","8TE"]}
{"price":55000,"dateOfTransfer":"1996-10-25T00:00:00","postcodeFull":"CB24 8XH","propertyType":"Terraced","oldOrNew":"Established","duration":"Freehold","paon":"17","saon":"","street":"MOORES COURT","locality":"COTTENHAM","townOrCity":"CAMBRIDGE","district":"SOUTH CAMBRIDGESHIRE","county":"CAMBRIDGESHIRE","ppdCategoryType":"Standard","recordStatus":"Addition","latitude":52.292662,"longitude":0.125996,"postcodeStart":"CB24 8","postcode":["CB24","8XH"]}
{"price":79950,"dateOfTransfer":"1996-08-07T00:00:00","postcodeFull":"CB24 8TZ","propertyType":"Detached","oldOrNew":"Established","duration":"Freehold","paon":"10","saon":"","street":"LACKS CLOSE","locality":"COTTENHAM","townOrCity":"CAMBRIDGE","district":"SOUTH CAMBRIDGESHIRE","county":"CAMBRIDGESHIRE","ppdCategoryType":"Standard","recordStatus":"Addition","latitude":52.285312,"longitude":0.123695,"postcodeStart":"CB24 8","postcode":["CB24","8TZ"]}
{"price":44000,"dateOfTransfer":"1996-08-02T00:00:00","postcodeFull":"CB24 8RS","propertyType":"Terraced","oldOrNew":"Established","duration":"Leasehold","paon":"6","saon":"","street":"BEAGLE COURT","locality":"COTTENHAM","townOrCity":"CAMBRIDGE","district":"SOUTH CAMBRIDGESHIRE","county":"CAMBRIDGESHIRE","ppdCategoryType":"Standard","recordStatus":"Addition","latitude":52.287835,"longitude":0.125384,"postcodeStart":"CB24 8","postcode":["CB24","8RS"]}
{"price":59950,"dateOfTransfer":"1996-02-21T00:00:00","postcodeFull":"CB24 8SA","propertyType":"Terraced","oldOrNew":"Established","duration":"Freehold","paon":"65","saon":"","street":"HIGH STREET","locality":"COTTENHAM","townOrCity":"CAMBRIDGE","district":"SOUTH CAMBRIDGESHIRE","county":"CAMBRIDGESHIRE","ppdCategoryType":"Standard","recordStatus":"Addition","latitude":52.295107,"longitude":0.130484,"postcodeStart":"CB24 8","postcode":["CB24","8SA"]}
{"price":47000,"dateOfTransfer":"1996-02-21T00:00:00","postcodeFull":"CB24 8QS","propertyType":"Detached","oldOrNew":"Established","duration":"Freehold","paon":"56","saon":"","street":"DENMARK ROAD","locality":"COTTENHAM","townOrCity":"CAMBRIDGE","district":"SOUTH CAMBRIDGESHIRE","county":"CAMBRIDGESHIRE","ppdCategoryType":"Standard","recordStatus":"Addition","latitude":52.285706,"longitude":0.127267,"postcodeStart":"CB24 8","postcode":["CB24","8QS"]}
{"price":120000,"dateOfTransfer":"1996-11-11T00:00:00","postcodeFull":"CB24 8RU","propertyType":"Detached","oldOrNew":"Established","duration":"Freehold","paon":"5","saon":"","street":"CUNDELL DRIVE","locality":"COTTENHAM","townOrCity":"CAMBRIDGE","district":"SOUTH CAMBRIDGESHIRE","county":"CAMBRIDGESHIRE","ppdCategoryType":"Standard","recordStatus":"Addition","latitude":52.287238,"longitude":0.128596,"postcodeStart":"CB24 8","postcode":["CB24","8RU"]}
{"price":122000,"dateOfTransfer":"1996-04-30T00:00:00","postcodeFull":"CB24 8QA","propertyType":"Detached","oldOrNew":"Established","duration":"Freehold","paon":"11","saon":"","street":"CHURCH END","locality":"RAMPTON","townOrCity":"CAMBRIDGE","district":"SOUTH CAMBRIDGESHIRE","county":"CAMBRIDGESHIRE","ppdCategoryType":"Standard","recordStatus":"Addition","latitude":52.291277,"longitude":0.092558,"postcodeStart":"CB24 8","postcode":["CB24","8QA"]}
{"price":95000,"dateOfTransfer":"1996-08-16T00:00:00","postcodeFull":"CB24 8TA","propertyType":"Detached","oldOrNew":"Established","duration":"Freehold","paon":"86","saon":"","street":"LAMBS LANE","locality":"COTTENHAM","townOrCity":"CAMBRIDGE","district":"SOUTH CAMBRIDGESHIRE","county":"CAMBRIDGESHIRE","ppdCategoryType":"Standard","recordStatus":"Addition","latitude":52.286954,"longitude":0.119902,"postcodeStart":"CB24 8","postcode":["CB24","8TA"]}
{"price":128000,"dateOfTransfer":"1996-06-07T00:00:00","postcodeFull":"CB24 8QZ","propertyType":"Detached","oldOrNew":"Established","duration":"Freehold","paon":"35B","saon":"","street":"ROOKS STREET","locality":"COTTENHAM","townOrCity":"CAMBRIDGE","district":"SOUTH CAMBRIDGESHIRE","county":"CAMBRIDGESHIRE","ppdCategoryType":"Standard","recordStatus":"Addition","latitude":52.288605,"longitude":0.129571,"postcodeStart":"CB24 8","postcode":["CB24","8QZ"]}
{"price":90500,"dateOfTransfer":"1996-11-29T00:00:00","postcodeFull":"CB24 8UN","propertyType":"Detached","oldOrNew":"Established","duration":"Freehold","paon":"2","saon":"","street":"ELLIS CLOSE","locality":"COTTENHAM","townOrCity":"CAMBRIDGE","district":"SOUTH CAMBRIDGESHIRE","county":"CAMBRIDGESHIRE","ppdCategoryType":"Standard","recordStatus":"Addition","latitude":52.282458,"longitude":0.118881,"postcodeStart":"CB24 8","postcode":["CB24","8UN"]}
{"price":54500,"dateOfTransfer":"1996-05-03T00:00:00","postcodeFull":"CB24 8RQ","propertyType":"Semi-detached","oldOrNew":"Established","duration":"Freehold","paon":"89","saon":"","street":"COOLIDGE GARDENS","locality":"COTTENHAM","townOrCity":"CAMBRIDGE","district":"SOUTH CAMBRIDGESHIRE","county":"CAMBRIDGESHIRE","ppdCategoryType":"Standard","recordStatus":"Addition","latitude":52.287065,"longitude":0.132195,"postcodeStart":"CB24 8","postcode":["CB24","8RQ"]}
{"price":136500,"dateOfTransfer":"1996-07-31T00:00:00","postcodeFull":"CB24 8QD","propertyType":"Detached","oldOrNew":"Established","duration":"Freehold","paon":"46","saon":"","street":"KING STREET","locality":"RAMPTON","townOrCity":"CAMBRIDGE","district":"SOUTH CAMBRIDGESHIRE","county":"CAMBRIDGESHIRE","ppdCategoryType":"Standard","recordStatus":"Addition","latitude":52.290965,"longitude":0.086863,"postcodeStart":"CB24 8","postcode":["CB24","8QD"]}
{"price":66600,"dateOfTransfer":"1996-09-20T00:00:00","postcodeFull":"CB24 8TY","propertyType":"Semi-detached","oldOrNew":"Established","duration":"Freehold","paon":"46","saon":"","street":"PELHAM CLOSE","locality":"COTTENHAM","townOrCity":"CAMBRIDGE","district":"SOUTH CAMBRIDGESHIRE","county":"CAMBRIDGESHIRE","ppdCategoryType":"Standard","recordStatus":"Addition","latitude":52.285123,"longitude":0.120694,"postcodeStart":"CB24 8","postcode":["CB24","8TY"]}
{"price":185000,"dateOfTransfer":"1996-05-03T00:00:00","postcodeFull":"CB24 8QY","propertyType":"Detached","oldOrNew":"New build","duration":"Freehold","paon":"20","saon":"","street":"MARGETT STREET","locality":"COTTENHAM","townOrCity":"CAMBRIDGE","district":"SOUTH CAMBRIDGESHIRE","county":"CAMBRIDGESHIRE","ppdCategoryType":"Standard","recordStatus":"Addition","latitude":52.289028,"longitude":0.127567,"postcodeStart":"CB24 8","postcode":["CB24","8QY"]}
{"price":65000,"dateOfTransfer":"1996-07-29T00:00:00","postcodeFull":"CB24 8TY","propertyType":"Terraced","oldOrNew":"Established","duration":"Freehold","paon":"19","saon":"","street":"PELHAM CLOSE","locality":"COTTENHAM","townOrCity":"CAMBRIDGE","district":"SOUTH CAMBRIDGESHIRE","county":"CAMBRIDGESHIRE","ppdCategoryType":"Standard","recordStatus":"Addition","latitude":52.285123,"longitude":0.120694,"postcodeStart":"CB24 8","postcode":["CB24","8TY"]}
{"price":101750,"dateOfTransfer":"1996-07-01T00:00:00","postcodeFull":"CB24 8SB","propertyType":"Detached","oldOrNew":"Established","duration":"Freehold","paon":"19","saon":"","street":"MALES CLOSE","locality":"COTTENHAM","townOrCity":"CAMBRIDGE","district":"SOUTH CAMBRIDGESHIRE","county":"CAMBRIDGESHIRE","ppdCategoryType":"Standard","recordStatus":"Addition","latitude":52.292789,"longitude":0.12744,"postcodeStart":"CB24 8","postcode":["CB24","8SB"]}
{"price":75000,"dateOfTransfer":"1996-06-20T00:00:00","postcodeFull":"CB24 8TQ","propertyType":"Semi-detached","oldOrNew":"Established","duration":"Freehold","paon":"73","saon":"","street":"PELHAM WAY","locality":"COTTENHAM","townOrCity":"CAMBRIDGE","district":"SOUTH CAMBRIDGESHIRE","county":"CAMBRIDGESHIRE","ppdCategoryType":"Standard","recordStatus":"Addition","latitude":52.284499,"longitude":0.119389,"postcodeStart":"CB24 8","postcode":["CB24","8TQ"]}
{"price":65000,"dateOfTransfer":"1996-01-19T00:00:00","postcodeFull":"CB24 8SP","propertyType":"Semi-detached","oldOrNew":"Established","duration":"Freehold","paon":"15","saon":"","street":"TWENTYPENCE ROAD","locality":"COTTENHAM","townOrCity":"CAMBRIDGE","district":"SOUTH CAMBRIDGESHIRE","county":"CAMBRIDGESHIRE","ppdCategoryType":"Standard","recordStatus":"Addition","latitude":52.299886,"longitude":0.13724,"postcodeStart":"CB24 8","postcode":["CB24","8SP"]}
{"price":150000,"dateOfTransfer":"1996-10-18T00:00:00","postcodeFull":"CB24 8UD","propertyType":"Detached","oldOrNew":"Established","duration":"Freehold","paon":"22","saon":"","street":"HISTON ROAD","locality":"COTTENHAM","townOrCity":"CAMBRIDGE","district":"SOUTH CAMBRIDGESHIRE","county":"CAMBRIDGESHIRE","ppdCategoryType":"Standard","recordStatus":"Addition","latitude":52.279541,"longitude":0.119607,"postcodeStart":"CB24 8","postcode":["CB24","8UD"]}
{"price":47000,"dateOfTransfer":"1996-08-09T00:00:00","postcodeFull":"CB24 8TD","propertyType":"Terraced","oldOrNew":"Established","duration":"Freehold","paon":"3","saon":"","street":"LAMBS ROW","locality":"COTTENHAM","townOrCity":"CAMBRIDGE","district":"SOUTH CAMBRIDGESHIRE","county":"CAMBRIDGESHIRE","ppdCategoryType":"Standard","recordStatus":"Addition","latitude":52.288594,"longitude":0.122678,"postcodeStart":"CB24 8","postcode":["CB24","8TD"]}
{"price":128000,"dateOfTransfer":"1996-12-05T00:00:00","postcodeFull":"CB24 8RB","propertyType":"Detached","oldOrNew":"Established","duration":"Freehold","paon":"28","saon":"","street":"ROOKS STREET","locality":"COTTENHAM","townOrCity":"CAMBRIDGE","district":"SOUTH CAMBRIDGESHIRE","county":"CAMBRIDGESHIRE","ppdCategoryType":"Standard","recordStatus":"Addition","latitude":52.288514,"longitude":0.129203,"postcodeStart":"CB24 8","postcode":["CB24","8RB"]}
{"price":82500,"dateOfTransfer":"1996-05-24T00:00:00","postcodeFull":"CB24 8SJ","propertyType":"Detached","oldOrNew":"Established","duration":"Freehold","paon":"2","saon":"","street":"IVATT STREET","locality":"COTTENHAM","townOrCity":"CAMBRIDGE","district":"SOUTH CAMBRIDGESHIRE","county":"CAMBRIDGESHIRE","ppdCategoryType":"Standard","recordStatus":"Addition","latitude":52.294597,"longitude":0.128726,"postcodeStart":"CB24 8","postcode":["CB24","8SJ"]}
{"price":59000,"dateOfTransfer":"1996-02-16T00:00:00","postcodeFull":"CB24 8QY","propertyType":"Semi-detached","oldOrNew":"Established","duration":"Freehold","paon":"55","saon":"","street":"MARGETT STREET","locality":"COTTENHAM","townOrCity":"CAMBRIDGE","district":"SOUTH CAMBRIDGESHIRE","county":"CAMBRIDGESHIRE","ppdCategoryType":"Standard","recordStatus":"Addition","latitude":52.289028,"longitude":0.127567,"postcodeStart":"CB24 8","postcode":["CB24","8QY"]}
{"price":78000,"dateOfTransfer":"1996-08-05T00:00:00","postcodeFull":"CB24 8UF","propertyType":"Detached","oldOrNew":"Established","duration":"Freehold","paon":"15","saon":"","street":"HISTON ROAD","locality":"COTTENHAM","townOrCity":"CAMBRIDGE","district":"SOUTH CAMBRIDGESHIRE","county":"CAMBRIDGESHIRE","ppdCategoryType":"Standard","recordStatus":"Addition","latitude":52.279778,"longitude":0.120731,"postcodeStart":"CB24 8","postcode":["CB24","8UF"]}
{"price":55000,"dateOfTransfer":"1996-05-30T00:00:00","postcodeFull":"CB24 8TS","propertyType":"Terraced","oldOrNew":"Established","duration":"Freehold","paon":"34","saon":"","street":"WILKIN WALK","locality":"COTTENHAM","townOrCity":"CAMBRIDGE","district":"SOUTH CAMBRIDGESHIRE","county":"CAMBRIDGESHIRE","ppdCategoryType":"Standard","recordStatus":"Addition","latitude":52.285547,"longitude":0.121096,"postcodeStart":"CB24 8","postcode":["CB24","8TS"]}
{"price":37000,"dateOfTransfer":"1996-11-15T00:00:00","postcodeFull":"CB24 8RX","propertyType":"Terraced","oldOrNew":"Established","duration":"Freehold","paon":"165","saon":"","street":"HIGH STREET","locality":"COTTENHAM","townOrCity":"CAMBRIDGE","district":"SOUTH CAMBRIDGESHIRE","county":"CAMBRIDGESHIRE","ppdCategoryType":"Standard","recordStatus":"Addition","latitude":52.290007,"longitude":0.125471,"postcodeStart":"CB24 8","postcode":["CB24","8RX"]}
{"price":127000,"dateOfTransfer":"1996-11-01T00:00:00","postcodeFull":"CB24 8UH","propertyType":"Detached","oldOrNew":"Established","duration":"Freehold","paon":"39","saon":"","street":"DUNSTAL FIELD","locality":"COTTENHAM","townOrCity":"CAMBRIDGE","district":"SOUTH CAMBRIDGESHIRE","county":"CAMBRIDGESHIRE","ppdCategoryType":"Standard","recordStatus":"Addition","latitude":52.280653,"longitude":0.123237,"postcodeStart":"CB24 8","postcode":["CB24","8UH"]}
{"price":160000,"dateOfTransfer":"1996-09-09T00:00:00","postcodeFull":"CB24 8UQ","propertyType":"Detached","oldOrNew":"Established","duration":"Freehold","paon":"93","saon":"","street":"HISTON ROAD","locality":"COTTENHAM","townOrCity":"CAMBRIDGE","district":"SOUTH CAMBRIDGESHIRE","county":"CAMBRIDGESHIRE","ppdCategoryType":"Standard","recordStatus":"Addition","latitude":52.276137,"longitude":0.117876,"postcodeStart":"CB24 8","postcode":["CB24","8UQ"]}
{"price":130000,"dateOfTransfer":"1996-09-27T00:00:00","postcodeFull":"CB24 8TB","propertyType":"Detached","oldOrNew":"Established","duration":"Freehold","paon":"47A","saon":"","street":"LAMBS LANE","locality":"COTTENHAM","townOrCity":"CAMBRIDGE","district":"SOUTH CAMBRIDGESHIRE","county":"CAMBRIDGESHIRE","ppdCategoryType":"Standard","recordStatus":"Addition","latitude":52.286892,"longitude":0.120689,"postcodeStart":"CB24 8","postcode":["CB24","8TB"]}
{"price":115000,"dateOfTransfer":"1996-08-20T00:00:00","postcodeFull":"CB24 8SA","propertyType":"Detached","oldOrNew":"Established","duration":"Freehold","paon":"35","saon":"","street":"HIGH STREET","locality":"COTTENHAM","townOrCity":"CAMBRIDGE","district":"SOUTH CAMBRIDGESHIRE","county":"CAMBRIDGESHIRE","ppdCategoryType":"Standard","recordStatus":"Addition","latitude":52.295107,"longitude":0.130484,"postcodeStart":"CB24 8","postcode":["CB24","8SA"]}
{"price":110000,"dateOfTransfer":"1996-09-25T00:00:00","postcodeFull":"CB24 8TB","propertyType":"Detached","oldOrNew":"Established","duration":"Freehold","paon":"71A","saon":"","street":"LAMBS LANE","locality":"COTTENHAM","townOrCity":"CAMBRIDGE","district":"SOUTH CAMBRIDGESHIRE","county":"CAMBRIDGESHIRE","ppdCategoryType":"Standard","recordStatus":"Addition","latitude":52.286892,"longitude":0.120689,"postcodeStart":"CB24 8","postcode":["CB24","8TB"]}
{"price":57500,"dateOfTransfer":"1996-01-12T00:00:00","postcodeFull":"CB24 8UN","propertyType":"Semi-detached","oldOrNew":"Established","duration":"Freehold","paon":"16","saon":"","street":"ELLIS CLOSE","locality":"COTTENHAM","townOrCity":"CAMBRIDGE","district":"SOUTH CAMBRIDGESHIRE","county":"CAMBRIDGESHIRE","ppdCategoryType":"Standard","recordStatus":"Addition","latitude":52.282458,"longitude":0.118881,"postcodeStart":"CB24 8","postcode":["CB24","8UN"]}
{"price":127500,"dateOfTransfer":"1996-07-17T00:00:00","postcodeFull":"CB24 8RB","propertyType":"Detached","oldOrNew":"Established","duration":"Freehold","paon":"104","saon":"","street":"ROOKS STREET","locality":"COTTENHAM","townOrCity":"CAMBRIDGE","district":"SOUTH CAMBRIDGESHIRE","county":"CAMBRIDGESHIRE","ppdCategoryType":"Standard","recordStatus":"Addition","latitude":52.288514,"longitude":0.129203,"postcodeStart":"CB24 8","postcode":["CB24","8RB"]}
{"price":164000,"dateOfTransfer":"1996-03-27T00:00:00","postcodeFull":"CB24 8UQ","propertyType":"Detached","oldOrNew":"Established","duration":"Freehold","paon":"135","saon":"","street":"HISTON ROAD","locality":"COTTENHAM","townOrCity":"CAMBRIDGE","district":"SOUTH CAMBRIDGESHIRE","county":"CAMBRIDGESHIRE","ppdCategoryType":"Standard","recordStatus":"Addition","latitude":52.276137,"longitude":0.117876,"postcodeStart":"CB24 8","postcode":["CB24","8UQ"]}
{"price":86500,"dateOfTransfer":"1996-03-28T00:00:00","postcodeFull":"CB24 8TA","propertyType":"Detached","oldOrNew":"Established","duration":"Freehold","paon":"28","saon":"","street":"LAMBS LANE","locality":"COTTENHAM","townOrCity":"CAMBRIDGE","district":"SOUTH CAMBRIDGESHIRE","county":"CAMBRIDGESHIRE","ppdCategoryType":"Standard","recordStatus":"Addition","latitude":52.286954,"longitude":0.119902,"postcodeStart":"CB24 8","postcode":["CB24","8TA"]}
{"price":80000,"dateOfTransfer":"1996-11-29T00:00:00","postcodeFull":"CB24 8UF","propertyType":"Semi-detached","oldOrNew":"Established","duration":"Freehold","paon":"63","saon":"","street":"HISTON ROAD","locality":"COTTENHAM","townOrCity":"CAMBRIDGE","district":"SOUTH CAMBRIDGESHIRE","county":"CAMBRIDGESHIRE","ppdCategoryType":"Standard","recordStatus":"Addition","latitude":52.279778,"longitude":0.120731,"postcodeStart":"CB24 8","postcode":["CB24","8UF"]}
{"price":130000,"dateOfTransfer":"1996-12-20T00:00:00","postcodeFull":"CB24 8TX","propertyType":"Detached","oldOrNew":"Established","duration":"Freehold","paon":"318","saon":"","street":"HIGH STREET","locality":"COTTENHAM","townOrCity":"CAMBRIDGE","district":"SOUTH CAMBRIDGESHIRE","county":"CAMBRIDGESHIRE","ppdCategoryType":"Standard","recordStatus":"Addition","latitude":52.283972,"longitude":0.123555,"postcodeStart":"CB24 8","postcode":["CB24","8TX"]}
{"price":58500,"dateOfTransfer":"1996-05-24T00:00:00","postcodeFull":"CB24 8RJ","propertyType":"Semi-detached","oldOrNew":"Established","duration":"Freehold","paon":"82","saon":"","street":"COOLIDGE GARDENS","locality":"COTTENHAM","townOrCity":"CAMBRIDGE","district":"SOUTH CAMBRIDGESHIRE","county":"CAMBRIDGESHIRE","ppdCategoryType":"Standard","recordStatus":"Addition","latitude":52.286663,"longitude":0.133055,"postcodeStart":"CB24 8","postcode":["CB24","8RJ"]}
{"price":60000,"dateOfTransfer":"1996-08-15T00:00:00","postcodeFull":"CB24 8TF","propertyType":"Terraced","oldOrNew":"Established","duration":"Freehold","paon":"16","saon":"","street":"VICTORY WAY","locality":"COTTENHAM","townOrCity":"CAMBRIDGE","district":"SOUTH CAMBRIDGESHIRE","county":"CAMBRIDGESHIRE","ppdCategoryType":"Standard","recordStatus":"Addition","latitude":52.288921,"longitude":0.119996,"postcodeStart":"CB24 8","postcode":["CB24","8TF"]}
{"price":54000,"dateOfTransfer":"1996-06-28T00:00:00","postcodeFull":"CB24 8TY","propertyType":"Terraced","oldOrNew":"Established","duration":"Freehold","paon":"12","saon":"","street":"PELHAM CLOSE","locality":"COTTENHAM","townOrCity":"CAMBRIDGE","district":"SOUTH CAMBRIDGESHIRE","county":"CAMBRIDGESHIRE","ppdCategoryType":"Standard","recordStatus":"Addition","latitude":52.285123,"longitude":0.120694,"postcodeStart":"CB24 8","postcode":["CB24","8TY"]}
{"price":48500,"dateOfTransfer":"1996-09-30T00:00:00","postcodeFull":"CB24 8QX","propertyType":"Terraced","oldOrNew":"Established","duration":"Freehold","paon":"30","saon":"","street":"CORBETT STREET","locality":"COTTENHAM","townOrCity":"CAMBRIDGE","district":"SOUTH CAMBRIDGESHIRE","county":"CAMBRIDGESHIRE","ppdCategoryType":"Standard","recordStatus":"Addition","latitude":52.288046,"longitude":0.127489,"postcodeStart":"CB24 8","postcode":["CB24","8QX"]}
{"price":148500,"dateOfTransfer":"1996-07-24T00:00:00","postcodeFull":"CB24 8QZ","propertyType":"Detached","oldOrNew":"Established","duration":"Freehold","paon":"85","saon":"","street":"ROOKS STREET","locality":"COTTENHAM","townOrCity":"CAMBRIDGE","district":"SOUTH CAMBRIDGESHIRE","county":"CAMBRIDGESHIRE","ppdCategoryType":"Standard","recordStatus":"Addition","latitude":52.288605,"longitude":0.129571,"postcodeStart":"CB24 8","postcode":["CB24","8QZ"]}
{"price":55000,"dateOfTransfer":"1996-04-03T00:00:00","postcodeFull":"CB24 8TB","propertyType":"Terraced","oldOrNew":"Established","duration":"Freehold","paon":"63","saon":"","street":"LAMBS LANE","locality":"COTTENHAM","townOrCity":"CAMBRIDGE","district":"SOUTH CAMBRIDGESHIRE","county":"CAMBRIDGESHIRE","ppdCategoryType":"Standard","recordStatus":"Addition","latitude":52.286892,"longitude":0.120689,"postcodeStart":"CB24 8","postcode":["CB24","8TB"]}
{"price":128000,"dateOfTransfer":"1996-10-16T00:00:00","postcodeFull":"CB24 8UH","propertyType":"Detached","oldOrNew":"Established","duration":"Freehold","paon":"30","saon":"","street":"DUNSTAL FIELD","locality":"COTTENHAM","townOrCity":"CAMBRIDGE","district":"SOUTH CAMBRIDGESHIRE","county":"CAMBRIDGESHIRE","ppdCategoryType":"Standard","recordStatus":"Addition","latitude":52.280653,"longitude":0.123237,"postcodeStart":"CB24 8","postcode":["CB24","8UH"]}
{"price":89000,"dateOfTransfer":"1996-10-11T00:00:00","postcodeFull":"CB24 8QD","propertyType":"Detached","oldOrNew":"Established","duration":"Freehold","paon":"71","saon":"","street":"KING STREET","locality":"RAMPTON","townOrCity":"CAMBRIDGE","district":"SOUTH CAMBRIDGESHIRE","county":"CAMBRIDGESHIRE","ppdCategoryType":"Standard","recordStatus":"Addition","latitude":52.290965,"longitude":0.086863,"postcodeStart":"CB24 8","postcode":["CB24","8QD"]}
{"price":59950,"dateOfTransfer":"1996-01-15T00:00:00","postcodeFull":"CB24 8TJ","propertyType":"Semi-detached","oldOrNew":"Established","duration":"Freehold","paon":"95","saon":"","street":"RAMPTON ROAD","locality":"COTTENHAM","townOrCity":"CAMBRIDGE","district":"SOUTH CAMBRIDGESHIRE","county":"CAMBRIDGESHIRE","ppdCategoryType":"Standard","recordStatus":"Addition","latitude":52.28609,"longitude":0.112882,"postcodeStart":"CB24 8","postcode":["CB24","8TJ"]}
{"price":97000,"dateOfTransfer":"1997-11-24T00:00:00","postcodeFull":"CB24 8QY","propertyType":"Detached","oldOrNew":"Established","duration":"Freehold","paon":"49","saon":"","street":"MARGETT STREET","locality":"COTTENHAM","townOrCity":"CAMBRIDGE","district":"SOUTH CAMBRIDGESHIRE","county":"CAMBRIDGESHIRE","ppdCategoryType":"Standard","recordStatus":"Addition","latitude":52.289028,"longitude":0.127567,"postcodeStart":"CB24 8","postcode":["CB24","8QY"]}
{"price":71500,"dateOfTransfer":"1997-08-15T00:00:00","postcodeFull":"CB24 8TZ","propertyType":"Terraced","oldOrNew":"Established","duration":"Freehold","paon":"7","saon":"","street":"LACKS CLOSE","locality":"COTTENHAM","townOrCity":"CAMBRIDGE","district":"SOUTH CAMBRIDGESHIRE","county":"CAMBRIDGESHIRE","ppdCategoryType":"Standard","recordStatus":"Addition","latitude":52.285312,"longitude":0.123695,"postcodeStart":"CB24 8","postcode":["CB24","8TZ"]}
{"price":59000,"dateOfTransfer":"1997-06-20T00:00:00","postcodeFull":"CB24 8TY","propertyType":"Terraced","oldOrNew":"Established","duration":"Freehold","paon":"5","saon":"","street":"PELHAM CLOSE","locality":"COTTENHAM","townOrCity":"CAMBRIDGE","district":"SOUTH CAMBRIDGESHIRE","county":"CAMBRIDGESHIRE","ppdCategoryType":"Standard","recordStatus":"Addition","latitude":52.285123,"longitude":0.120694,"postcodeStart":"CB24 8","postcode":["CB24","8TY"]}
{"price":108000,"dateOfTransfer":"1997-09-25T00:00:00","postcodeFull":"CB24 8RZ","propertyType":"Semi-detached","oldOrNew":"New build","duration":"Freehold","paon":"258","saon":"","street":"HIGH STREET","locality":"COTTENHAM","townOrCity":"CAMBRIDGE","district":"SOUTH CAMBRIDGESHIRE","county":"CAMBRIDGESHIRE","ppdCategoryType":"Standard","recordStatus":"Addition","latitude":52.286983,"longitude":0.125121,"postcodeStart":"CB24 8","postcode":["CB24","8RZ"]}
{"price":190000,"dateOfTransfer":"1997-07-29T00:00:00","postcodeFull":"CB24 8TX","propertyType":"Detached","oldOrNew":"Established","duration":"Freehold","paon":"294","saon":"","street":"HIGH STREET","locality":"COTTENHAM","townOrCity":"CAMBRIDGE","district":"SOUTH CAMBRIDGESHIRE","county":"CAMBRIDGESHIRE","ppdCategoryType":"Standard","recordStatus":"Addition","latitude":52.283972,"longitude":0.123555,"postcodeStart":"CB24 8","postcode":["CB24","8TX"]}
{"price":52950,"dateOfTransfer":"1997-10-15T00:00:00","postcodeFull":"CB24 8QP","propertyType":"Flat/Maisonette/Townhouse","oldOrNew":"Established","duration":"Leasehold","paon":"223A","saon":"","street":"HIGH STREET","locality":"COTTENHAM","townOrCity":"CAMBRIDGE","district":"SOUTH CAMBRIDGESHIRE","county":"CAMBRIDGESHIRE","ppdCategoryType":"Standard","recordStatus":"Addition","latitude":52.286847,"longitude":0.12617,"postcodeStart":"CB24 8","postcode":["CB24","8QP"]}
{"price":189500,"dateOfTransfer":"1997-11-05T00:00:00","postcodeFull":"CB24 8DB","propertyType":"Detached","oldOrNew":"Established","duration":"Freehold","paon":"2","saon":"","street":"ELM BARNS","locality":"COTTENHAM","townOrCity":"CAMBRIDGE","district":"SOUTH CAMBRIDGESHIRE","county":"CAMBRIDGESHIRE","ppdCategoryType":"Standard","recordStatus":"Addition","latitude":52.282048,"longitude":0.123187,"postcodeStart":"CB24 8","postcode":["CB24","8DB"]}
{"price":121950,"dateOfTransfer":"1997-11-28T00:00:00","postcodeFull":"CB24 8QJ","propertyType":"Detached","oldOrNew":"Established","duration":"Freehold","paon":"3","saon":"","street":"ORCHARD END","locality":"RAMPTON","townOrCity":"CAMBRIDGE","district":"SOUTH CAMBRIDGESHIRE","county":"CAMBRIDGESHIRE","ppdCategoryType":"Standard","recordStatus":"Addition","latitude":52.291389,"longitude":0.085694,"postcodeStart":"CB24 8","postcode":["CB24","8QJ"]}
{"price":65000,"dateOfTransfer":"1997-06-06T00:00:00","postcodeFull":"CB24 8SP","propertyType":"Semi-detached","oldOrNew":"Established","duration":"Freehold","paon":"13","saon":"","street":"TWENTYPENCE ROAD","locality":"COTTENHAM","townOrCity":"CAMBRIDGE","district":"SOUTH CAMBRIDGESHIRE","county":"CAMBRIDGESHIRE","ppdCategoryType":"Standard","recordStatus":"Addition","latitude":52.299886,"longitude":0.13724,"postcodeStart":"CB24 8","postcode":["CB24","8SP"]}
{"price":48000,"dateOfTransfer":"1997-09-05T00:00:00","postcodeFull":"CB24 8RS","propertyType":"Flat/Maisonette/Townhouse","oldOrNew":"Established","duration":"Leasehold","paon":"4","saon":"","street":"BEAGLE COURT","locality":"COTTENHAM","townOrCity":"CAMBRIDGE","district":"SOUTH CAMBRIDGESHIRE","county":"CAMBRIDGESHIRE","ppdCategoryType":"Standard","recordStatus":"Addition","latitude":52.287835,"longitude":0.125384,"postcodeStart":"CB24 8","postcode":["CB24","8RS"]}
{"price":65000,"dateOfTransfer":"1997-07-21T00:00:00","postcodeFull":"CB24 8TS","propertyType":"Terraced","oldOrNew":"Established","duration":"Freehold","paon":"21","saon":"","street":"WILKIN WALK","locality":"COTTENHAM","townOrCity":"CAMBRIDGE","district":"SOUTH CAMBRIDGESHIRE","county":"CAMBRIDGESHIRE","ppdCategoryType":"Standard","recordStatus":"Addition","latitude":52.285547,"longitude":0.121096,"postcodeStart":"CB24 8","postcode":["CB24","8TS"]}
{"price":84000,"dateOfTransfer":"1997-12-03T00:00:00","postcodeFull":"CB24 8UR","propertyType":"Semi-detached","oldOrNew":"Established","duration":"Freehold","paon":"3","saon":"","street":"TOWER CLOSE","locality":"COTTENHAM","townOrCity":"CAMBRIDGE","district":"SOUTH CAMBRIDGESHIRE","county":"CAMBRIDGESHIRE","ppdCategoryType":"Standard","recordStatus":"Addition","latitude":52.285226,"longitude":0.117474,"postcodeStart":"CB24 8","postcode":["CB24","8UR"]}
{"price":43500,"dateOfTransfer":"1997-06-23T00:00:00","postcodeFull":"CB24 8TT","propertyType":"Semi-detached","oldOrNew":"New build","duration":"Leasehold","paon":"52","saon":"","street":"STEVENS CLOSE","locality":"COTTENHAM","townOrCity":"CAMBRIDGE","district":"SOUTH CAMBRIDGESHIRE","county":"CAMBRIDGESHIRE","ppdCategoryType":"Standard","recordStatus":"Addition","latitude":52.289276,"longitude":0.120775,"postcodeStart":"CB24 8","postcode":["CB24","8TT"]}
{"price":167000,"dateOfTransfer":"1997-10-20T00:00:00","postcodeFull":"CB24 8DB","propertyType":"Detached","oldOrNew":"Established","duration":"Freehold","paon":"1","saon":"","street":"ELM BARNS","locality":"COTTENHAM","townOrCity":"CAMBRIDGE","district":"SOUTH CAMBRIDGESHIRE","county":"CAMBRIDGESHIRE","ppdCategoryType":"Standard","recordStatus":"Addition","latitude":52.282048,"longitude":0.123187,"postcodeStart":"CB24 8","postcode":["CB24","8DB"]}
{"price":137750,"dateOfTransfer":"1997-04-09T00:00:00","postcodeFull":"CB24 8UW","propertyType":"Semi-detached","oldOrNew":"Established","duration":"Freehold","paon":"2","saon":"","street":"CROSS KEYS COURT","locality":"COTTENHAM","townOrCity":"CAMBRIDGE","district":"SOUTH CAMBRIDGESHIRE","county":"CAMBRIDGESHIRE","ppdCategoryType":"Standard","recordStatus":"Addition","latitude":52.283501,"longitude":0.120866,"postcodeStart":"CB24 8","postcode":["CB24","8UW"]}
{"price":125000,"dateOfTransfer":"1997-09-24T00:00:00","postcodeFull":"CB24 8UH","propertyType":"Detached","oldOrNew":"Established","duration":"Freehold","paon":"35","saon":"","street":"DUNSTAL FIELD","locality":"COTTENHAM","townOrCity":"CAMBRIDGE","district":"SOUTH CAMBRIDGESHIRE","county":"CAMBRIDGESHIRE","ppdCategoryType":"Standard","recordStatus":"Addition","latitude":52.280653,"longitude":0.123237,"postcodeStart":"CB24 8","postcode":["CB24","8UH"]}
{"price":52000,"dateOfTransfer":"1997-07-21T00:00:00","postcodeFull":"CB24 8QT","propertyType":"Terraced","oldOrNew":"Established","duration":"Freehold","paon":"2","saon":"","street":"THE STABLES","locality":"COTTENHAM","townOrCity":"CAMBRIDGE","district":"SOUTH CAMBRIDGESHIRE","county":"CAMBRIDGESHIRE","ppdCategoryType":"Standard","recordStatus":"Addition","latitude":52.290347,"longitude":0.127689,"postcodeStart":"CB24 8","postcode":["CB24","8QT"]}
{"price":92750,"dateOfTransfer":"1997-06-20T00:00:00","postcodeFull":"CB24 8SF","propertyType":"Detached","oldOrNew":"New build","duration":"Freehold","paon":"4","saon":"","street":"COURTYARD WAY","locality":"COTTENHAM","townOrCity":"CAMBRIDGE","district":"SOUTH CAMBRIDGESHIRE","county":"CAMBRIDGESHIRE","ppdCategoryType":"Standard","recordStatus":"Addition","latitude":52.293093,"longitude":0.125988,"postcodeStart":"CB24 8","postcode":["CB24","8SF"]}
