{"price":64500,"dateOfTransfer":"1995-12-05T00:00:00","postcodeFull":"CF62 7TE","propertyType":"Semi-detached","oldOrNew":"Established","duration":"Freehold","paon":"12","saon":"","street":"CLEDWEN CLOSE","locality":"BARRY","townOrCity":"BARRY","district":"VALE OF GLAMORGAN","county":"SOUTH GLAMORGAN","ppdCategoryType":"Standard","recordStatus":"Addition","latitude":51.408068,"longitude":-3.296199,"postcodeStart":"CF62 7","postcode":["CF62","7TE"]}
{"price":81000,"dateOfTransfer":"1995-09-01T00:00:00","postcodeFull":"CF62 7EP","propertyType":"Detached","oldOrNew":"Established","duration":"Freehold","paon":"35","saon":"","street":"PORTHKERRY ROAD","locality":"BARRY","townOrCity":"BARRY","district":"VALE OF GLAMORGAN","county":"SOUTH GLAMORGAN","ppdCategoryType":"Standard","recordStatus":"Addition","latitude":51.400165,"longitude":-3.285464,"postcodeStart":"CF62 7","postcode":["CF62","7EP"]}
{"price":30750,"dateOfTransfer":"1995-05-05T00:00:00","postcodeFull":"CF62 7EE","propertyType":"Semi-detached","oldOrNew":"Established","duration":"Freehold","paon":"73","saon":"","street":"QUEEN STREET","locality":"BARRY","townOrCity":"BARRY","district":"VALE OF GLAMORGAN","county":"SOUTH GLAMORGAN","ppdCategoryType":"Standard","recordStatus":"Addition","latitude":51.399962,"longitude":-3.284312,"postcodeStart":"CF62 7","postcode":["CF62","7EE"]}
{"price":30000,"dateOfTransfer":"1995-11-10T00:00:00","postcodeFull":"CF62 7ER","propertyType":"Terraced","oldOrNew":"Established","duration":"Freehold","paon":"70","saon":"","street":"PORTHKERRY ROAD","locality":"BARRY","townOrCity":"BARRY","district":"THE VALE OF GLAMORGAN","county":"THE VALE OF GLAMORGAN","ppdCategoryType":"Standard","recordStatus":"Addition","latitude":51.401719,"longitude":-3.283225,"postcodeStart":"CF62 7","postcode":["CF62","7ER"]}
{"price":65950,"dateOfTransfer":"1995-05-19T00:00:00","postcodeFull":"CF62 7LQ","propertyType":"Semi-detached","oldOrNew":"Established","duration":"Freehold","paon":"95","saon":"","street":"PONTYPRIDD ROAD","locality":"BARRY","townOrCity":"BARRY","district":"VALE OF GLAMORGAN","county":"SOUTH GLAMORGAN","ppdCategoryType":"Standard","recordStatus":"Addition","latitude":51.405266,"longitude":-3.293503,"postcodeStart":"CF62 7","postcode":["CF62","7LQ"]}
{"price":51500,"dateOfTransfer":"1995-08-11T00:00:00","postcodeFull":"CF62 7ES","propertyType":"Terraced","oldOrNew":"Established","duration":"Freehold","paon":"13","saon":"","street":"WENVOE TERRACE","locality":"BARRY","townOrCity":"BARRY","district":"THE VALE OF GLAMORGAN","county":"THE VALE OF GLAMORGAN","ppdCategoryType":"Standard","recordStatus":"Addition","latitude":51.402204,"longitude":-3.284101,"postcodeStart":"CF62 7","postcode":["CF62","7ES"]}
{"price":39250,"dateOfTransfer":"1995-01-27T00:00:00","postcodeFull":"CF62 7FN","propertyType":"Terraced","oldOrNew":"Established","duration":"Freehold","paon":"16","saon":"","street":"FERN DRIVE","locality":"BARRY","townOrCity":"BARRY","district":"VALE OF GLAMORGAN","county":"SOUTH GLAMORGAN","ppdCategoryType":"Standard","recordStatus":"Addition","latitude":51.407313,"longitude":-3.283957,"postcodeStart":"CF62 7","postcode":["CF62","7FN"]}
{"price":54000,"dateOfTransfer":"1995-05-19T00:00:00","postcodeFull":"CF62 7HR","propertyType":"Semi-detached","oldOrNew":"Established","duration":"Freehold","paon":"180","saon":"","street":"JENNER ROAD","locality":"BARRY","townOrCity":"BARRY","district":"VALE OF GLAMORGAN","county":"SOUTH GLAMORGAN","ppdCategoryType":"Standard","recordStatus":"Addition","latitude":51.402571,"longitude":-3.286742,"postcodeStart":"CF62 7","postcode":["CF62","7HR"]}
{"price":38000,"dateOfTransfer":"1995-04-07T00:00:00","postcodeFull":"CF62 7EG","propertyType":"Terraced","oldOrNew":"Established","duration":"Freehold","paon":"133","saon":"","street":"QUEEN STREET","locality":"BARRY","townOrCity":"BARRY","district":"VALE OF GLAMORGAN","county":"SOUTH GLAMORGAN","ppdCategoryType":"Standard","recordStatus":"Addition","latitude":51.40171,"longitude":-3.2816,"postcodeStart":"CF62 7","postcode":["CF62","7EG"]}
{"price":50000,"dateOfTransfer":"1995-12-10T00:00:00","postcodeFull":"CF62 7LS","propertyType":"Semi-detached","oldOrNew":"Established","duration":"Freehold","paon":"42","saon":"","street":"PONTYPRIDD ROAD","locality":"BARRY","townOrCity":"BARRY","district":"VALE OF GLAMORGAN","county":"SOUTH GLAMORGAN","ppdCategoryType":"Standard","recordStatus":"Addition","latitude":51.405656,"longitude":-3.293141,"postcodeStart":"CF62 7","postcode":["CF62","7LS"]}
{"price":39000,"dateOfTransfer":"1995-10-13T00:00:00","postcodeFull":"CF62 7PW","propertyType":"Terraced","oldOrNew":"Established","duration":"Freehold","paon":"44","saon":"","street":"SEVERN AVENUE","locality":"BARRY","townOrCity":"BARRY","district":"VALE OF GLAMORGAN","county":"SOUTH GLAMORGAN","ppdCategoryType":"Standard","recordStatus":"Addition","latitude":51.406691,"longitude":-3.287376,"postcodeStart":"CF62 7","postcode":["CF62","7PW"]}
{"price":33000,"dateOfTransfer":"1995-07-28T00:00:00","postcodeFull":"CF62 7AD","propertyType":"Terraced","oldOrNew":"Established","duration":"Freehold","paon":"44","saon":"","street":"BROAD STREET","locality":"BARRY","townOrCity":"BARRY","district":"VALE OF GLAMORGAN","county":"SOUTH GLAMORGAN","ppdCategoryType":"Standard","recordStatus":"Addition","latitude":51.40047,"longitude":-3.281465,"postcodeStart":"CF62 7","postcode":["CF62","7AD"]}
{"price":33000,"dateOfTransfer":"1995-09-29T00:00:00","postcodeFull":"CF62 7HG","propertyType":"Flat/Maisonette/Townhouse","oldOrNew":"Established","duration":"Leasehold","paon":"26","saon":"","street":"JENNER ROAD","locality":"BARRY","townOrCity":"BARRY","district":"VALE OF GLAMORGAN","county":"SOUTH GLAMORGAN","ppdCategoryType":"Standard","recordStatus":"Addition","latitude":51.40646,"longitude":-3.281345,"postcodeStart":"CF62 7","postcode":["CF62","7HG"]}
{"price":46000,"dateOfTransfer":"1995-06-02T00:00:00","postcodeFull":"CF62 7AD","propertyType":"Terraced","oldOrNew":"Established","duration":"Freehold","paon":"49","saon":"","street":"BROAD STREET","locality":"BARRY","townOrCity":"BARRY","district":"VALE OF GLAMORGAN","county":"SOUTH GLAMORGAN","ppdCategoryType":"Standard","recordStatus":"Addition","latitude":51.40047,"longitude":-3.281465,"postcodeStart":"CF62 7","postcode":["CF62","7AD"]}
{"price":46000,"dateOfTransfer":"1995-04-12T00:00:00","postcodeFull":"CF62 7TL","propertyType":"Semi-detached","oldOrNew":"Established","duration":"Freehold","paon":"6","saon":"","street":"TEIFI DRIVE","locality":"BARRY","townOrCity":"BARRY","district":"VALE OF GLAMORGAN","county":"SOUTH GLAMORGAN","ppdCategoryType":"Standard","recordStatus":"Addition","latitude":51.408191,"longitude":-3.291645,"postcodeStart":"CF62 7","postcode":["CF62","7TL"]}
{"price":40000,"dateOfTransfer":"1995-05-05T00:00:00","postcodeFull":"CF62 7HZ","propertyType":"Terraced","oldOrNew":"Established","duration":"Freehold","paon":"28","saon":"","street":"DUDLEY PLACE","locality":"BARRY","townOrCity":"BARRY","district":"VALE OF GLAMORGAN","county":"SOUTH GLAMORGAN","ppdCategoryType":"Standard","recordStatus":"Addition","latitude":51.402214,"longitude":-3.285668,"postcodeStart":"CF62 7","postcode":["CF62","7HZ"]}
{"price":32500,"dateOfTransfer":"1995-05-26T00:00:00","postcodeFull":"CF62 7JD","propertyType":"Flat/Maisonette/Townhouse","oldOrNew":"Established","duration":"Leasehold","paon":"1","saon":"","street":"RUTHEN TERRACE","locality":"BARRY","townOrCity":"BARRY","district":"VALE OF GLAMORGAN","county":"SOUTH GLAMORGAN","ppdCategoryType":"Standard","recordStatus":"Addition","latitude":51.406505,"longitude":-3.282194,"postcodeStart":"CF62 7","postcode":["CF62","7JD"]}
{"price":46000,"dateOfTransfer":"1995-01-13T00:00:00","postcodeFull":"CF62 7HS","propertyType":"Semi-detached","oldOrNew":"Established","duration":"Freehold","paon":"133","saon":"","street":"JENNER ROAD","locality":"BARRY","townOrCity":"BARRY","district":"VALE OF GLAMORGAN","county":"SOUTH GLAMORGAN","ppdCategoryType":"Standard","recordStatus":"Addition","latitude":51.402471,"longitude":-3.286006,"postcodeStart":"CF62 7","postcode":["CF62","7HS"]}
{"price":69000,"dateOfTransfer":"1995-03-31T00:00:00","postcodeFull":"CF62 7LW","propertyType":"Semi-detached","oldOrNew":"Established","duration":"Freehold","paon":"133","saon":"","street":"PONTYPRIDD ROAD","locality":"BARRY","townOrCity":"BARRY","district":"VALE OF GLAMORGAN","county":"SOUTH GLAMORGAN","ppdCategoryType":"Standard","recordStatus":"Addition","latitude":51.407859,"longitude":-3.298882,"postcodeStart":"CF62 7","postcode":["CF62","7LW"]}
{"price":40500,"dateOfTransfer":"1995-04-21T00:00:00","postcodeFull":"CF62 7HX","propertyType":"Semi-detached","oldOrNew":"Established","duration":"Freehold","paon":"35","saon":"","street":"GADLYS ROAD WEST","locality":"BARRY","townOrCity":"BARRY","district":"VALE OF GLAMORGAN","county":"SOUTH GLAMORGAN","ppdCategoryType":"Standard","recordStatus":"Addition","latitude":51.404166,"longitude":-3.282287,"postcodeStart":"CF62 7","postcode":["CF62","7HX"]}
{"price":71000,"dateOfTransfer":"1995-09-28T00:00:00","postcodeFull":"CF62 7TG","propertyType":"Terraced","oldOrNew":"Established","duration":"Freehold","paon":"3","saon":"","street":"HEOL SIRHWI","locality":"BARRY","townOrCity":"BARRY","district":"VALE OF GLAMORGAN","county":"SOUTH GLAMORGAN","ppdCategoryType":"Standard","recordStatus":"Addition","latitude":51.409443,"longitude":-3.294685,"postcodeStart":"CF62 7","postcode":["CF62","7TG"]}
{"price":68300,"dateOfTransfer":"1995-07-31T00:00:00","postcodeFull":"CF62 7BJ","propertyType":"Semi-detached","oldOrNew":"Established","duration":"Freehold","paon":"13","saon":"","street":"CLOS CEFNI","locality":"BARRY","townOrCity":"BARRY","district":"VALE OF GLAMORGAN","county":"SOUTH GLAMORGAN","ppdCategoryType":"Standard","recordStatus":"Addition","latitude":51.410692,"longitude":-3.293153,"postcodeStart":"CF62 7","postcode":["CF62","7BJ"]}
{"price":63000,"dateOfTransfer":"1995-03-17T00:00:00","postcodeFull":"CF62 7DR","propertyType":"Detached","oldOrNew":"Established","duration":"Freehold","paon":"10","saon":"","street":"SENNI CLOSE","locality":"BARRY","townOrCity":"BARRY","district":"VALE OF GLAMORGAN","county":"SOUTH GLAMORGAN","ppdCategoryType":"Standard","recordStatus":"Addition","latitude":51.409595,"longitude":-3.292317,"postcodeStart":"CF62 7","postcode":["CF62","7DR"]}
{"price":25000,"dateOfTransfer":"1995-10-27T00:00:00","postcodeFull":"CF62 7EJ","propertyType":"Terraced","oldOrNew":"Established","duration":"Freehold","paon":"1","saon":"","street":"PRINCES STREET","locality":"BARRY","townOrCity":"BARRY","district":"VALE OF GLAMORGAN","county":"SOUTH GLAMORGAN","ppdCategoryType":"Standard","recordStatus":"Addition","latitude":51.401859,"longitude":-3.28195,"postcodeStart":"CF62 7","postcode":["CF62","7EJ"]}
{"price":65500,"dateOfTransfer":"1995-02-03T00:00:00","postcodeFull":"CF62 7QU","propertyType":"Detached","oldOrNew":"Established","duration":"Freehold","paon":"19","saon":"","street":"TAF CLOSE","locality":"BARRY","townOrCity":"BARRY","district":"VALE OF GLAMORGAN","county":"SOUTH GLAMORGAN","ppdCategoryType":"Standard","recordStatus":"Addition","latitude":51.409861,"longitude":-3.291059,"postcodeStart":"CF62 7","postcode":["CF62","7QU"]}
{"price":34500,"dateOfTransfer":"1995-10-31T00:00:00","postcodeFull":"CF62 7RJ","propertyType":"Terraced","oldOrNew":"Established","duration":"Leasehold","paon":"14","saon":"","street":"WELFORD STREET","locality":"BARRY","townOrCity":"BARRY","district":"VALE OF GLAMORGAN","county":"SOUTH GLAMORGAN","ppdCategoryType":"Standard","recordStatus":"Addition","latitude":51.396478,"longitude":-3.287175,"postcodeStart":"CF62 7","postcode":["CF62","7RJ"]}
{"price":78000,"dateOfTransfer":"1995-06-28T00:00:00","postcodeFull":"CF62 7EZ","propertyType":"Semi-detached","oldOrNew":"Established","duration":"Freehold","paon":"40","saon":"","street":"CONWAY DRIVE","locality":"BARRY","townOrCity":"BARRY","district":"VALE OF GLAMORGAN","county":"SOUTH GLAMORGAN","ppdCategoryType":"Standard","recordStatus":"Addition","latitude":51.410117,"longitude":-3.292303,"postcodeStart":"CF62 7","postcode":["CF62","7EZ"]}
{"price":58500,"dateOfTransfer":"1995-12-13T00:00:00","postcodeFull":"CF62 7UG","propertyType":"Semi-detached","oldOrNew":"Established","duration":"Freehold","paon":"1","saon":"","street":"BAIRD RISE","locality":"BARRY","townOrCity":"BARRY","district":"VALE OF GLAMORGAN","county":"SOUTH GLAMORGAN","ppdCategoryType":"Standard","recordStatus":"Addition","latitude":51.407268,"longitude":-3.282331,"postcodeStart":"CF62 7","postcode":["CF62","7UG"]}
{"price":67500,"dateOfTransfer":"1995-07-07T00:00:00","postcodeFull":"CF62 7QU","propertyType":"Semi-detached","oldOrNew":"Established","duration":"Freehold","paon":"24","saon":"","street":"TAF CLOSE","locality":"BARRY","townOrCity":"BARRY","district":"VALE OF GLAMORGAN","county":"SOUTH GLAMORGAN","ppdCategoryType":"Standard","recordStatus":"Addition","latitude":51.409861,"longitude":-3.291059,"postcodeStart":"CF62 7","postcode":["CF62","7QU"]}
{"price":18500,"dateOfTransfer":"1995-07-11T00:00:00","postcodeFull":"CF62 7EL","propertyType":"Terraced","oldOrNew":"Established","duration":"Freehold","paon":"43","saon":"","street":"PRINCES STREET","locality":"BARRY","townOrCity":"BARRY","district":"VALE OF GLAMORGAN","county":"SOUTH GLAMORGAN","ppdCategoryType":"Standard","recordStatus":"Addition","latitude":51.401097,"longitude":-3.283337,"postcodeStart":"CF62 7","postcode":["CF62","7EL"]}
{"price":32000,"dateOfTransfer":"1995-11-03T00:00:00","postcodeFull":"CF62 7EF","propertyType":"Terraced","oldOrNew":"Established","duration":"Freehold","paon":"115","saon":"","street":"QUEEN STREET","locality":"BARRY","townOrCity":"BARRY","district":"VALE OF GLAMORGAN","county":"SOUTH GLAMORGAN","ppdCategoryType":"Standard","recordStatus":"Addition","latitude":51.400875,"longitude":-3.283115,"postcodeStart":"CF62 7","postcode":["CF62","7EF"]}
{"price":66000,"dateOfTransfer":"1995-04-27T00:00:00","postcodeFull":"CF62 7BH","propertyType":"Semi-detached","oldOrNew":"Established","duration":"Freehold","paon":"15","saon":"","street":"DOVEY CLOSE","locality":"BARRY","townOrCity":"BARRY","district":"VALE OF GLAMORGAN","county":"SOUTH GLAMORGAN","ppdCategoryType":"Standard","recordStatus":"Addition","latitude":51.410375,"longitude":-3.293331,"postcodeStart":"CF62 7","postcode":["CF62","7BH"]}
{"price":49495,"dateOfTransfer":"1995-05-26T00:00:00","postcodeFull":"CF62 7HS","propertyType":"Terraced","oldOrNew":"Established","duration":"Freehold","paon":"109","saon":"","street":"JENNER ROAD","locality":"BARRY","townOrCity":"BARRY","district":"VALE OF GLAMORGAN","county":"SOUTH GLAMORGAN","ppdCategoryType":"Standard","recordStatus":"Addition","latitude":51.402471,"longitude":-3.286006,"postcodeStart":"CF62 7","postcode":["CF62","7HS"]}
{"price":59250,"dateOfTransfer":"1995-01-27T00:00:00","postcodeFull":"CF62 7FL","propertyType":"Semi-detached","oldOrNew":"Established","duration":"Freehold","paon":"22","saon":"","street":"THE HEATHERS","locality":"BARRY","townOrCity":"BARRY","district":"VALE OF GLAMORGAN","county":"SOUTH GLAMORGAN","ppdCategoryType":"Standard","recordStatus":"Addition","latitude":51.407879,"longitude":-3.284016,"postcodeStart":"CF62 7","postcode":["CF62","7FL"]}
{"price":30250,"dateOfTransfer":"1995-07-07T00:00:00","postcodeFull":"CF62 7NH","propertyType":"Flat/Maisonette/Townhouse","oldOrNew":"Established","duration":"Leasehold","paon":"21","saon":"","street":"ST BRANNOCKS CLOSE","locality":"BARRY","townOrCity":"BARRY","district":"VALE OF GLAMORGAN","county":"SOUTH GLAMORGAN","ppdCategoryType":"Standard","recordStatus":"Addition","latitude":51.407012,"longitude":-3.293294,"postcodeStart":"CF62 7","postcode":["CF62","7NH"]}
{"price":70000,"dateOfTransfer":"1995-02-03T00:00:00","postcodeFull":"CF62 7TF","propertyType":"Semi-detached","oldOrNew":"Established","duration":"Freehold","paon":"25","saon":"","street":"WYE CLOSE","locality":"BARRY","townOrCity":"BARRY","district":"VALE OF GLAMORGAN","county":"SOUTH GLAMORGAN","ppdCategoryType":"Standard","recordStatus":"Addition","latitude":51.408565,"longitude":-3.294344,"postcodeStart":"CF62 7","postcode":["CF62","7TF"]}
{"price":65500,"dateOfTransfer":"1995-04-28T00:00:00","postcodeFull":"CF62 7TG","propertyType":"Terraced","oldOrNew":"Established","duration":"Freehold","paon":"40","saon":"","street":"HEOL SIRHWI","locality":"BARRY","townOrCity":"BARRY","district":"VALE OF GLAMORGAN","county":"SOUTH GLAMORGAN","ppdCategoryType":"Standard","recordStatus":"Addition","latitude":51.409443,"longitude":-3.294685,"postcodeStart":"CF62 7","postcode":["CF62","7TG"]}
{"price":38500,"dateOfTransfer":"1995-08-11T00:00:00","postcodeFull":"CF62 7EL","propertyType":"Terraced","oldOrNew":"Established","duration":"Freehold","paon":"79","saon":"","street":"PRINCES STREET","locality":"BARRY","townOrCity":"BARRY","district":"VALE OF GLAMORGAN","county":"SOUTH GLAMORGAN","ppdCategoryType":"Standard","recordStatus":"Addition","latitude":51.401097,"longitude":-3.283337,"postcodeStart":"CF62 7","postcode":["CF62","7EL"]}
{"price":80500,"dateOfTransfer":"1995-12-05T00:00:00","postcodeFull":"CF62 7HB","propertyType":"Semi-detached","oldOrNew":"Established","duration":"Freehold","paon":"4","saon":"","street":"RHEIDOL DRIVE","locality":"BARRY","townOrCity":"BARRY","district":"VALE OF GLAMORGAN","county":"SOUTH GLAMORGAN","ppdCategoryType":"Standard","recordStatus":"Addition","latitude":51.408233,"longitude":-3.295098,"postcodeStart":"CF62 7","postcode":["CF62","7HB"]}
{"price":41500,"dateOfTransfer":"1995-02-10T00:00:00","postcodeFull":"CF62 7ER","propertyType":"Terraced","oldOrNew":"Established","duration":"Freehold","paon":"90","saon":"","street":"PORTHKERRY ROAD","locality":"BARRY","townOrCity":"BARRY","district":"VALE OF GLAMORGAN","county":"SOUTH GLAMORGAN","ppdCategoryType":"Standard","recordStatus":"Addition","latitude":51.401719,"longitude":-3.283225,"postcodeStart":"CF62 7","postcode":["CF62","7ER"]}
{"price":21000,"dateOfTransfer":"1995-07-07T00:00:00","postcodeFull":"CF62 7EG","propertyType":"Terraced","oldOrNew":"Established","duration":"Freehold","paon":"128","saon":"","street":"QUEEN STREET","locality":"BARRY","townOrCity":"BARRY","district":"VALE OF GLAMORGAN","county":"SOUTH GLAMORGAN","ppdCategoryType":"Standard","recordStatus":"Addition","latitude":51.40171,"longitude":-3.2816,"postcodeStart":"CF62 7","postcode":["CF62","7EG"]}
{"price":75000,"dateOfTransfer":"1995-08-25T00:00:00","postcodeFull":"CF62 7XL","propertyType":"Terraced","oldOrNew":"Established","duration":"Freehold","paon":"9","saon":"","street":"USK WAY","locality":"BARRY","townOrCity":"BARRY","district":"VALE OF GLAMORGAN","county":"SOUTH GLAMORGAN","ppdCategoryType":"Standard","recordStatus":"Addition","latitude":51.410518,"longitude":-3.290158,"postcodeStart":"CF62 7","postcode":["CF62","7XL"]}
{"price":40000,"dateOfTransfer":"1995-08-25T00:00:00","postcodeFull":"CF62 7DR","propertyType":"Semi-detached","oldOrNew":"Established","duration":"Freehold","paon":"4","saon":"","street":"SENNI CLOSE","locality":"BARRY","townOrCity":"BARRY","district":"VALE OF GLAMORGAN","county":"SOUTH GLAMORGAN","ppdCategoryType":"Standard","recordStatus":"Addition","latitude":51.409595,"longitude":-3.292317,"postcodeStart":"CF62 7","postcode":["CF62","7DR"]}
{"price":34000,"dateOfTransfer":"1995-09-02T00:00:00","postcodeFull":"CF62 7EL","propertyType":"Terraced","oldOrNew":"Established","duration":"Freehold","paon":"73","saon":"","street":"PRINCES STREET","locality":"BARRY","townOrCity":"BARRY","district":"VALE OF GLAMORGAN","county":"SOUTH GLAMORGAN","ppdCategoryType":"Standard","recordStatus":"Addition","latitude":51.401097,"longitude":-3.283337,"postcodeStart":"CF62 7","postcode":["CF62","7EL"]}
{"price":70500,"dateOfTransfer":"1995-01-06T00:00:00","postcodeFull":"CF62 7TG","propertyType":"Terraced","oldOrNew":"Established","duration":"Freehold","paon":"35","saon":"","street":"HEOL SIRHWI","locality":"BARRY","townOrCity":"BARRY","district":"VALE OF GLAMORGAN","county":"SOUTH GLAMORGAN","ppdCategoryType":"Standard","recordStatus":"Addition","latitude":51.409443,"longitude":-3.294685,"postcodeStart":"CF62 7","postcode":["CF62","7TG"]}
{"price":59000,"dateOfTransfer":"1995-10-27T00:00:00","postcodeFull":"CF62 7NL","propertyType":"Semi-detached","oldOrNew":"Established","duration":"Freehold","paon":"2","saon":"","street":"CROSSFIELD ROAD","locality":"BARRY","townOrCity":"BARRY","district":"VALE OF GLAMORGAN","county":"SOUTH GLAMORGAN","ppdCategoryType":"Standard","recordStatus":"Addition","latitude":51.403634,"longitude":-3.288957,"postcodeStart":"CF62 7","postcode":["CF62","7NL"]}
{"price":46000,"dateOfTransfer":"1995-02-03T00:00:00","postcodeFull":"CF62 7FL","propertyType":"Terraced","oldOrNew":"Established","duration":"Freehold","paon":"27","saon":"","street":"THE HEATHERS","locality":"BARRY","townOrCity":"BARRY","district":"VALE OF GLAMORGAN","county":"SOUTH GLAMORGAN","ppdCategoryType":"Standard","recordStatus":"Addition","latitude":51.407879,"longitude":-3.284016,"postcodeStart":"CF62 7","postcode":["CF62","7FL"]}
{"price":60000,"dateOfTransfer":"1995-05-05T00:00:00","postcodeFull":"CF62 7NF","propertyType":"Semi-detached","oldOrNew":"Established","duration":"Freehold","paon":"14","saon":"","street":"LIDMORE ROAD","locality":"BARRY","townOrCity":"BARRY","district":"VALE OF GLAMORGAN","county":"SOUTH GLAMORGAN","ppdCategoryType":"Standard","recordStatus":"Addition","latitude":51.406181,"longitude":-3.292005,"postcodeStart":"CF62 7","postcode":["CF62","7NF"]}
{"price":42500,"dateOfTransfer":"1995-11-24T00:00:00","postcodeFull":"CF62 7FL","propertyType":"Terraced","oldOrNew":"Established","duration":"Freehold","paon":"35","saon":"","street":"THE HEATHERS","locality":"BARRY","townOrCity":"BARRY","district":"VALE OF GLAMORGAN","county":"SOUTH GLAMORGAN","ppdCategoryType":"Standard","recordStatus":"Addition","latitude":51.407879,"longitude":-3.284016,"postcodeStart":"CF62 7","postcode":["CF62","7FL"]}
{"price":27500,"dateOfTransfer":"1995-05-12T00:00:00","postcodeFull":"CF62 7EW","propertyType":"Terraced","oldOrNew":"Established","duration":"Freehold","paon":"32","saon":"","street":"TRINITY STREET","locality":"BARRY","townOrCity":"BARRY","district":"VALE OF GLAMORGAN","county":"SOUTH GLAMORGAN","ppdCategoryType":"Standard","recordStatus":"Addition","latitude":51.403099,"longitude":-3.28197,"postcodeStart":"CF62 7","postcode":["CF62","7EW"]}
{"price":46000,"dateOfTransfer":"1995-02-02T00:00:00","postcodeFull":"CF62 7NP","propertyType":"Flat/Maisonette/Townhouse","oldOrNew":"Established","duration":"Leasehold","paon":"HOWARD COURT","saon":"FLAT 18","street":"PONTYPRIDD ROAD","locality":"BARRY","townOrCity":"BARRY","district":"VALE OF GLAMORGAN","county":"SOUTH GLAMORGAN","ppdCategoryType":"Standard","recordStatus":"Addition","latitude":51.40305,"longitude":-3.288955,"postcodeStart":"CF62 7","postcode":["CF62","7NP"]}
{"price":31000,"dateOfTransfer":"1995-02-27T00:00:00","postcodeFull":"CF62 7FG","propertyType":"Flat/Maisonette/Townhouse","oldOrNew":"Established","duration":"Leasehold","paon":"5","saon":"","street":"PLAS CLEDDAU","locality":"BARRY","townOrCity":"BARRY","district":"VALE OF GLAMORGAN","county":"SOUTH GLAMORGAN","ppdCategoryType":"Standard","recordStatus":"Addition","latitude":51.408209,"longitude":-3.289916,"postcodeStart":"CF62 7","postcode":["CF62","7FG"]}
{"price":55000,"dateOfTransfer":"1995-09-01T00:00:00","postcodeFull":"CF62 7EB","propertyType":"Terraced","oldOrNew":"Established","duration":"Freehold","paon":"26","saon":"","street":"HIGH STREET","locality":"","townOrCity":"BARRY","district":"THE VALE OF GLAMORGAN","county":"THE VALE OF GLAMORGAN","ppdCategoryType":"Standard","recordStatus":"Addition","latitude":51.400583,"longitude":-3.282614,"postcodeStart":"CF62 7","postcode":["CF62","7EB"]}
{"price":40000,"dateOfTransfer":"1995-04-07T00:00:00","postcodeFull":"CF62 7DS","propertyType":"Terraced","oldOrNew":"Established","duration":"Freehold","paon":"108","saon":"","street":"HIGH STREET","locality":"BARRY","townOrCity":"BARRY","district":"VALE OF GLAMORGAN","county":"SOUTH GLAMORGAN","ppdCategoryType":"Standard","recordStatus":"Addition","latitude":51.40057,"longitude":-3.282111,"postcodeStart":"CF62 7","postcode":["CF62","7DS"]}
{"price":36000,"dateOfTransfer":"1995-01-27T00:00:00","postcodeFull":"CF62 7RG","propertyType":"Semi-detached","oldOrNew":"Established","duration":"Freehold","paon":"6","saon":"","street":"CLIFTON STREET","locality":"BARRY","townOrCity":"BARRY","district":"VALE OF GLAMORGAN","county":"SOUTH GLAMORGAN","ppdCategoryType":"Standard","recordStatus":"Addition","latitude":51.39621,"longitude":-3.2878,"postcodeStart":"CF62 7","postcode":["CF62","7RG"]}
{"price":78000,"dateOfTransfer":"1995-11-30T00:00:00","postcodeFull":"CF62 7NH","propertyType":"Detached","oldOrNew":"Established","duration":"Freehold","paon":"4","saon":"","street":"ST BRANNOCKS CLOSE","locality":"BARRY","townOrCity":"BARRY","district":"VALE OF GLAMORGAN","county":"SOUTH GLAMORGAN","ppdCategoryType":"Standard","recordStatus":"Addition","latitude":51.407012,"longitude":-3.293294,"postcodeStart":"CF62 7","postcode":["CF62","7NH"]}
{"price":19000,"dateOfTransfer":"1995-11-07T00:00:00","postcodeFull":"CF62 7DT","propertyType":"Terraced","oldOrNew":"Established","duration":"Freehold","paon":"124","saon":"","street":"HIGH STREET","locality":"","townOrCity":"BARRY","district":"THE VALE OF GLAMORGAN","county":"THE VALE OF GLAMORGAN","ppdCategoryType":"Standard","recordStatus":"Addition","latitude":51.401177,"longitude":-3.280967,"postcodeStart":"CF62 7","postcode":["CF62","7DT"]}
{"price":62000,"dateOfTransfer":"1995-12-01T00:00:00","postcodeFull":"CF62 7LW","propertyType":"Terraced","oldOrNew":"Established","duration":"Leasehold","paon":"137","saon":"","street":"PONTYPRIDD ROAD","locality":"BARRY","townOrCity":"BARRY","district":"VALE OF GLAMORGAN","county":"SOUTH GLAMORGAN","ppdCategoryType":"Standard","recordStatus":"Addition","latitude":51.407859,"longitude":-3.298882,"postcodeStart":"CF62 7","postcode":["CF62","7LW"]}
{"price":88000,"dateOfTransfer":"1995-07-31T00:00:00","postcodeFull":"CF62 7BH","propertyType":"Detached","oldOrNew":"Established","duration":"Freehold","paon":"17","saon":"","street":"DOVEY CLOSE","locality":"BARRY","townOrCity":"BARRY","district":"VALE OF GLAMORGAN","county":"SOUTH GLAMORGAN","ppdCategoryType":"Standard","recordStatus":"Addition","latitude":51.410375,"longitude":-3.293331,"postcodeStart":"CF62 7","postcode":["CF62","7BH"]}
{"price":13000,"dateOfTransfer":"1995-10-26T00:00:00","postcodeFull":"CF62 7DT","propertyType":"Terraced","oldOrNew":"Established","duration":"Freehold","paon":"120","saon":"","street":"HIGH STREET","locality":"BARRY","townOrCity":"BARRY","district":"VALE OF GLAMORGAN","county":"SOUTH GLAMORGAN","ppdCategoryType":"Standard","recordStatus":"Addition","latitude":51.401177,"longitude":-3.280967,"postcodeStart":"CF62 7","postcode":["CF62","7DT"]}
{"price":31000,"dateOfTransfer":"1995-09-06T00:00:00","postcodeFull":"CF62 7DU","propertyType":"Terraced","oldOrNew":"Established","duration":"Freehold","paon":"63","saon":"","street":"HIGH STREET","locality":"BARRY","townOrCity":"BARRY","district":"VALE OF GLAMORGAN","county":"SOUTH GLAMORGAN","ppdCategoryType":"Standard","recordStatus":"Addition","latitude":51.40141,"longitude":-3.281074,"postcodeStart":"CF62 7","postcode":["CF62","7DU"]}
{"price":29500,"dateOfTransfer":"1995-12-08T00:00:00","postcodeFull":"CF62 7EQ","propertyType":"Terraced","oldOrNew":"Established","duration":"Freehold","paon":"135","saon":"","street":"PORTHKERRY ROAD","locality":"BARRY","townOrCity":"BARRY","district":"VALE OF GLAMORGAN","county":"SOUTH GLAMORGAN","ppdCategoryType":"Standard","recordStatus":"Addition","latitude":51.401969,"longitude":-3.283347,"postcodeStart":"CF62 7","postcode":["CF62","7EQ"]}
{"price":42000,"dateOfTransfer":"1995-10-09T00:00:00","postcodeFull":"CF62 7JB","propertyType":"Semi-detached","oldOrNew":"Established","duration":"Freehold","paon":"5","saon":"","street":"GLANMOR CRESCENT","locality":"BARRY","townOrCity":"BARRY","district":"VALE OF GLAMORGAN","county":"SOUTH GLAMORGAN","ppdCategoryType":"Standard","recordStatus":"Addition","latitude":51.405812,"longitude":-3.283095,"postcodeStart":"CF62 7","postcode":["CF62","7JB"]}
{"price":57500,"dateOfTransfer":"1995-08-01T00:00:00","postcodeFull":"CF62 7QU","propertyType":"Detached","oldOrNew":"Established","duration":"Freehold","paon":"7","saon":"","street":"TAF CLOSE","locality":"BARRY","townOrCity":"BARRY","district":"VALE OF GLAMORGAN","county":"SOUTH GLAMORGAN","ppdCategoryType":"Standard","recordStatus":"Addition","latitude":51.409861,"longitude":-3.291059,"postcodeStart":"CF62 7","postcode":["CF62","7QU"]}
{"price":18000,"dateOfTransfer":"1995-07-31T00:00:00","postcodeFull":"CF62 7EU","propertyType":"Terraced","oldOrNew":"Established","duration":"Freehold","paon":"ALEXANDER WRIGHT HOUSE","saon":"","street":"TRINITY STREET","locality":"","townOrCity":"BARRY","district":"THE VALE OF GLAMORGAN","county":"THE VALE OF GLAMORGAN","ppdCategoryType":"Standard","recordStatus":"Addition","latitude":51.402444,"longitude":-3.281031,"postcodeStart":"CF62 7","postcode":["CF62","7EU"]}
{"price":39000,"dateOfTransfer":"1995-05-26T00:00:00","postcodeFull":"CF62 7TL","propertyType":"Semi-detached","oldOrNew":"Established","duration":"Freehold","paon":"12","saon":"","street":"TEIFI DRIVE","locality":"BARRY","townOrCity":"BARRY","district":"VALE OF GLAMORGAN","county":"SOUTH GLAMORGAN","ppdCategoryType":"Standard","recordStatus":"Addition","latitude":51.408191,"longitude":-3.291645,"postcodeStart":"CF62 7","postcode":["CF62","7TL"]}
{"price":37500,"dateOfTransfer":"1995-03-10T00:00:00","postcodeFull":"CF62 7BZ","propertyType":"Semi-detached","oldOrNew":"Established","duration":"Freehold","paon":"8","saon":"","street":"HEOL PANTYCELYN","locality":"BARRY","townOrCity":"BARRY","district":"VALE OF GLAMORGAN","county":"SOUTH GLAMORGAN","ppdCategoryType":"Standard","recordStatus":"Addition","latitude":51.403884,"longitude":-3.281762,"postcodeStart":"CF62 7","postcode":["CF62","7BZ"]}
{"price":40500,"dateOfTransfer":"1995-08-11T00:00:00","postcodeFull":"CF62 7HL","propertyType":"Terraced","oldOrNew":"Established","duration":"Freehold","paon":"122","saon":"","street":"JENNER ROAD","locality":"BARRY","townOrCity":"BARRY","district":"VALE OF GLAMORGAN","county":"SOUTH GLAMORGAN","ppdCategoryType":"Standard","recordStatus":"Addition","latitude":51.40384,"longitude":-3.284995,"postcodeStart":"CF62 7","postcode":["CF62","7HL"]}
{"price":71000,"dateOfTransfer":"1995-10-19T00:00:00","postcodeFull":"CF62 7TG","propertyType":"Terraced","oldOrNew":"Established","duration":"Freehold","paon":"3","saon":"","street":"HEOL SIRHWI","locality":"BARRY","townOrCity":"BARRY","district":"VALE OF GLAMORGAN","county":"SOUTH GLAMORGAN","ppdCategoryType":"Standard","recordStatus":"Addition","latitude":51.409443,"longitude":-3.294685,"postcodeStart":"CF62 7","postcode":["CF62","7TG"]}
{"price":57000,"dateOfTransfer":"1995-02-17T00:00:00","postcodeFull":"CF62 7EZ","propertyType":"Semi-detached","oldOrNew":"Established","duration":"Freehold","paon":"44","saon":"","street":"CONWAY DRIVE","locality":"BARRY","townOrCity":"BARRY","district":"VALE OF GLAMORGAN","county":"SOUTH GLAMORGAN","ppdCategoryType":"Standard","recordStatus":"Addition","latitude":51.410117,"longitude":-3.292303,"postcodeStart":"CF62 7","postcode":["CF62","7EZ"]}
{"price":64000,"dateOfTransfer":"1995-11-24T00:00:00","postcodeFull":"CF62 7QU","propertyType":"Detached","oldOrNew":"Established","duration":"Freehold","paon":"1","saon":"","street":"TAF CLOSE","locality":"BARRY","townOrCity":"BARRY","district":"VALE OF GLAMORGAN","county":"SOUTH GLAMORGAN","ppdCategoryType":"Standard","recordStatus":"Addition","latitude":51.409861,"longitude":-3.291059,"postcodeStart":"CF62 7","postcode":["CF62","7QU"]}
{"price":46250,"dateOfTransfer":"1995-01-16T00:00:00","postcodeFull":"CF62 7UG","propertyType":"Semi-detached","oldOrNew":"Established","duration":"Freehold","paon":"4","saon":"","street":"BAIRD RISE","locality":"BARRY","townOrCity":"BARRY","district":"VALE OF GLAMORGAN","county":"SOUTH GLAMORGAN","ppdCategoryType":"Standard","recordStatus":"Addition","latitude":51.407268,"longitude":-3.282331,"postcodeStart":"CF62 7","postcode":["CF62","7UG"]}
{"price":22000,"dateOfTransfer":"1995-09-15T00:00:00","postcodeFull":"CF62 7DU","propertyType":"Terraced","oldOrNew":"Established","duration":"Freehold","paon":"56","saon":"","street":"HIGH STREET","locality":"BARRY","townOrCity":"BARRY","district":"VALE OF GLAMORGAN","county":"SOUTH GLAMORGAN","ppdCategoryType":"Standard","recordStatus":"Addition","latitude":51.40141,"longitude":-3.281074,"postcodeStart":"CF62 7","postcode":["CF62","7DU"]}
{"price":40000,"dateOfTransfer":"1995-01-16T00:00:00","postcodeFull":"CF62 7AB","propertyType":"Terraced","oldOrNew":"Established","duration":"Freehold","paon":"18","saon":"","street":"BROAD STREET","locality":"BARRY","townOrCity":"BARRY","district":"VALE OF GLAMORGAN","county":"SOUTH GLAMORGAN","ppdCategoryType":"Standard","recordStatus":"Addition","latitude":51.399472,"longitude":-3.283148,"postcodeStart":"CF62 7","postcode":["CF62","7AB"]}
{"price":39500,"dateOfTransfer":"1995-12-01T00:00:00","postcodeFull":"CF62 7BX","propertyType":"Semi-detached","oldOrNew":"Established","duration":"Freehold","paon":"9","saon":"","street":"COLLEGE PLACE","locality":"BARRY","townOrCity":"BARRY","district":"VALE OF GLAMORGAN","county":"SOUTH GLAMORGAN","ppdCategoryType":"Standard","recordStatus":"Addition","latitude":51.404415,"longitude":-3.279261,"postcodeStart":"CF62 7","postcode":["CF62","7BX"]}
{"price":104000,"dateOfTransfer":"1996-09-27T00:00:00","postcodeFull":"CF62 7LJ","propertyType":"Detached","oldOrNew":"Established","duration":"Freehold","paon":"18","saon":"","street":"ELAN CLOSE","locality":"BARRY","townOrCity":"BARRY","district":"THE VALE OF GLAMORGAN","county":"THE VALE OF GLAMORGAN","ppdCategoryType":"Standard","recordStatus":"Addition","latitude":51.411753,"longitude":-3.289056,"postcodeStart":"CF62 7","postcode":["CF62","7LJ"]}
{"price":27500,"dateOfTransfer":"1996-05-24T00:00:00","postcodeFull":"CF62 7EQ","propertyType":"Terraced","oldOrNew":"Established","duration":"Freehold","paon":"89","saon":"","street":"PORTHKERRY ROAD","locality":"BARRY","townOrCity":"BARRY","district":"THE VALE OF GLAMORGAN","county":"THE VALE OF GLAMORGAN","ppdCategoryType":"Standard","recordStatus":"Addition","latitude":51.401969,"longitude":-3.283347,"postcodeStart":"CF62 7","postcode":["CF62","7EQ"]}
{"price":56500,"dateOfTransfer":"1996-11-08T00:00:00","postcodeFull":"CF62 7RL","propertyType":"Semi-detached","oldOrNew":"Established","duration":"Freehold","paon":"20","saon":"","street":"PARK AVENUE","locality":"BARRY","townOrCity":"BARRY","district":"THE VALE OF GLAMORGAN","county":"THE VALE OF GLAMORGAN","ppdCategoryType":"Standard","recordStatus":"Addition","latitude":51.395299,"longitude":-3.287224,"postcodeStart":"CF62 7","postcode":["CF62","7RL"]}
{"price":52750,"dateOfTransfer":"1996-09-27T00:00:00","postcodeFull":"CF62 7JQ","propertyType":"Terraced","oldOrNew":"New build","duration":"Freehold","paon":"11","saon":"","street":"BLACKBERRY DRIVE","locality":"BARRY","townOrCity":"BARRY","district":"THE VALE OF GLAMORGAN","county":"THE VALE OF GLAMORGAN","ppdCategoryType":"Standard","recordStatus":"Addition","latitude":51.410381,"longitude":-3.288745,"postcodeStart":"CF62 7","postcode":["CF62","7JQ"]}
{"price":22500,"dateOfTransfer":"1996-02-02T00:00:00","postcodeFull":"CF62 7DU","propertyType":"Terraced","oldOrNew":"Established","duration":"Freehold","paon":"46","saon":"","street":"HIGH STREET","locality":"BARRY","townOrCity":"BARRY","district":"VALE OF GLAMORGAN","county":"SOUTH GLAMORGAN","ppdCategoryType":"Standard","recordStatus":"Addition","latitude":51.40141,"longitude":-3.281074,"postcodeStart":"CF62 7","postcode":["CF62","7DU"]}
{"price":69500,"dateOfTransfer":"1996-04-12T00:00:00","postcodeFull":"CF62 7TG","propertyType":"Terraced","oldOrNew":"Established","duration":"Freehold","paon":"11","saon":"","street":"HEOL SIRHWI","locality":"BARRY","townOrCity":"BARRY","district":"THE VALE OF GLAMORGAN","county":"THE VALE OF GLAMORGAN","ppdCategoryType":"Standard","recordStatus":"Addition","latitude":51.409443,"longitude":-3.294685,"postcodeStart":"CF62 7","postcode":["CF62","7TG"]}
{"price":31000,"dateOfTransfer":"1996-12-12T00:00:00","postcodeFull":"CF62 7JH","propertyType":"Terraced","oldOrNew":"Established","duration":"Freehold","paon":"6","saon":"","street":"WINCHESTER CLOSE","locality":"BARRY","townOrCity":"BARRY","district":"THE VALE OF GLAMORGAN","county":"THE VALE OF GLAMORGAN","ppdCategoryType":"Standard","recordStatus":"Addition","latitude":51.406458,"longitude":-3.284796,"postcodeStart":"CF62 7","postcode":["CF62","7JH"]}
{"price":37300,"dateOfTransfer":"1996-04-19T00:00:00","postcodeFull":"CF62 7JF","propertyType":"Terraced","oldOrNew":"Established","duration":"Freehold","paon":"30","saon":"","street":"CLAUDE ROAD","locality":"BARRY","townOrCity":"BARRY","district":"THE VALE OF GLAMORGAN","county":"THE VALE OF GLAMORGAN","ppdCategoryType":"Standard","recordStatus":"Addition","latitude":51.40669,"longitude":-3.283364,"postcodeStart":"CF62 7","postcode":["CF62","7JF"]}
{"price":51000,"dateOfTransfer":"1996-06-20T00:00:00","postcodeFull":"CF62 7HL","propertyType":"Terraced","oldOrNew":"Established","duration":"Freehold","paon":"132","saon":"","street":"JENNER ROAD","locality":"BARRY","townOrCity":"BARRY","district":"THE VALE OF GLAMORGAN","county":"THE VALE OF GLAMORGAN","ppdCategoryType":"Standard","recordStatus":"Addition","latitude":51.40384,"longitude":-3.284995,"postcodeStart":"CF62 7","postcode":["CF62","7HL"]}
{"price":25000,"dateOfTransfer":"1996-04-17T00:00:00","postcodeFull":"CF62 7DS","propertyType":"Terraced","oldOrNew":"Established","duration":"Freehold","paon":"98","saon":"","street":"HIGH STREET","locality":"","townOrCity":"BARRY","district":"THE VALE OF GLAMORGAN","county":"THE VALE OF GLAMORGAN","ppdCategoryType":"Standard","recordStatus":"Addition","latitude":51.40057,"longitude":-3.282111,"postcodeStart":"CF62 7","postcode":["CF62","7DS"]}
{"price":54000,"dateOfTransfer":"1996-04-01T00:00:00","postcodeFull":"CF62 7LQ","propertyType":"Detached","oldOrNew":"Established","duration":"Leasehold","paon":"83","saon":"","street":"PONTYPRIDD ROAD","locality":"BARRY","townOrCity":"BARRY","district":"THE VALE OF GLAMORGAN","county":"THE VALE OF GLAMORGAN","ppdCategoryType":"Standard","recordStatus":"Addition","latitude":51.405266,"longitude":-3.293503,"postcodeStart":"CF62 7","postcode":["CF62","7LQ"]}
{"price":20000,"dateOfTransfer":"1996-05-31T00:00:00","postcodeFull":"CF62 7EF","propertyType":"Terraced","oldOrNew":"New build","duration":"Freehold","paon":"41","saon":"","street":"QUEEN STREET","locality":"BARRY","townOrCity":"BARRY","district":"THE VALE OF GLAMORGAN","county":"THE VALE OF GLAMORGAN","ppdCategoryType":"Standard","recordStatus":"Addition","latitude":51.400875,"longitude":-3.283115,"postcodeStart":"CF62 7","postcode":["CF62","7EF"]}
{"price":20500,"dateOfTransfer":"1996-09-18T00:00:00","postcodeFull":"CF62 7DT","propertyType":"Terraced","oldOrNew":"Established","duration":"Freehold","paon":"124","saon":"","street":"HIGH STREET","locality":"","townOrCity":"BARRY","district":"THE VALE OF GLAMORGAN","county":"THE VALE OF GLAMORGAN","ppdCategoryType":"Standard","recordStatus":"Addition","latitude":51.401177,"longitude":-3.280967,"postcodeStart":"CF62 7","postcode":["CF62","7DT"]}
{"price":41375,"dateOfTransfer":"1996-03-01T00:00:00","postcodeFull":"CF62 7DR","propertyType":"Semi-detached","oldOrNew":"Established","duration":"Freehold","paon":"4","saon":"","street":"SENNI CLOSE","locality":"BARRY","townOrCity":"BARRY","district":"VALE OF GLAMORGAN","county":"SOUTH GLAMORGAN","ppdCategoryType":"Standard","recordStatus":"Addition","latitude":51.409595,"longitude":-3.292317,"postcodeStart":"CF62 7","postcode":["CF62","7DR"]}
{"price":41000,"dateOfTransfer":"1996-12-06T00:00:00","postcodeFull":"CF62 7DR","propertyType":"Semi-detached","oldOrNew":"Established","duration":"Freehold","paon":"6","saon":"","street":"SENNI CLOSE","locality":"BARRY","townOrCity":"BARRY","district":"THE VALE OF GLAMORGAN","county":"THE VALE OF GLAMORGAN","ppdCategoryType":"Standard","recordStatus":"Addition","latitude":51.409595,"longitude":-3.292317,"postcodeStart":"CF62 7","postcode":["CF62","7DR"]}
{"price":45000,"dateOfTransfer":"1996-06-28T00:00:00","postcodeFull":"CF62 7DR","propertyType":"Semi-detached","oldOrNew":"Established","duration":"Freehold","paon":"5","saon":"","street":"SENNI CLOSE","locality":"BARRY","townOrCity":"BARRY","district":"THE VALE OF GLAMORGAN","county":"THE VALE OF GLAMORGAN","ppdCategoryType":"Standard","recordStatus":"Addition","latitude":51.409595,"longitude":-3.292317,"postcodeStart":"CF62 7","postcode":["CF62","7DR"]}
{"price":79500,"dateOfTransfer":"1996-03-22T00:00:00","postcodeFull":"CF62 7BJ","propertyType":"Semi-detached","oldOrNew":"Established","duration":"Freehold","paon":"8","saon":"","street":"CLOS CEFNI","locality":"BARRY","townOrCity":"BARRY","district":"THE VALE OF GLAMORGAN","county":"THE VALE OF GLAMORGAN","ppdCategoryType":"Standard","recordStatus":"Addition","latitude":51.410692,"longitude":-3.293153,"postcodeStart":"CF62 7","postcode":["CF62","7BJ"]}
{"price":53000,"dateOfTransfer":"1996-09-13T00:00:00","postcodeFull":"CF62 7AG","propertyType":"Terraced","oldOrNew":"Established","duration":"Freehold","paon":"69","saon":"","street":"BROAD STREET","locality":"BARRY","townOrCity":"BARRY","district":"THE VALE OF GLAMORGAN","county":"THE VALE OF GLAMORGAN","ppdCategoryType":"Standard","recordStatus":"Addition","latitude":51.401947,"longitude":-3.277984,"postcodeStart":"CF62 7","postcode":["CF62","7AG"]}
{"price":45000,"dateOfTransfer":"1996-09-27T00:00:00","postcodeFull":"CF62 7ET","propertyType":"Detached","oldOrNew":"Established","duration":"Freehold","paon":"48","saon":"","street":"WENVOE TERRACE","locality":"BARRY","townOrCity":"BARRY","district":"THE VALE OF GLAMORGAN","county":"THE VALE OF GLAMORGAN","ppdCategoryType":"Standard","recordStatus":"Addition","latitude":51.402484,"longitude":-3.283189,"postcodeStart":"CF62 7","postcode":["CF62","7ET"]}
{"price":51000,"dateOfTransfer":"1996-12-19T00:00:00","postcodeFull":"CF62 7HL","propertyType":"Terraced","oldOrNew":"Established","duration":"Freehold","paon":"138","saon":"","street":"JENNER ROAD","locality":"BARRY","townOrCity":"BARRY","district":"THE VALE OF GLAMORGAN","county":"THE VALE OF GLAMORGAN","ppdCategoryType":"Standard","recordStatus":"Addition","latitude":51.40384,"longitude":-3.284995,"postcodeStart":"CF62 7","postcode":["CF62","7HL"]}
{"price":32000,"dateOfTransfer":"1996-07-19T00:00:00","postcodeFull":"CF62 7EU","propertyType":"Terraced","oldOrNew":"Established","duration":"Freehold","paon":"6","saon":"","street":"TRINITY STREET","locality":"BARRY","townOrCity":"BARRY","district":"THE VALE OF GLAMORGAN","county":"THE VALE OF GLAMORGAN","ppdCategoryType":"Standard","recordStatus":"Addition","latitude":51.402444,"longitude":-3.281031,"postcodeStart":"CF62 7","postcode":["CF62","7EU"]}
{"price":27000,"dateOfTransfer":"1996-07-19T00:00:00","postcodeFull":"CF62 7RG","propertyType":"Terraced","oldOrNew":"Established","duration":"Freehold","paon":"22","saon":"","street":"CLIFTON STREET","locality":"BARRY","townOrCity":"BARRY","district":"THE VALE OF GLAMORGAN","county":"THE VALE OF GLAMORGAN","ppdCategoryType":"Standard","recordStatus":"Addition","latitude":51.39621,"longitude":-3.2878,"postcodeStart":"CF62 7","postcode":["CF62","7RG"]}
{"price":46000,"dateOfTransfer":"1996-07-26T00:00:00","postcodeFull":"CF62 7RJ","propertyType":"Terraced","oldOrNew":"Established","duration":"Leasehold","paon":"11","saon":"","street":"WELFORD STREET","locality":"BARRY","townOrCity":"BARRY","district":"THE VALE OF GLAMORGAN","county":"THE VALE OF GLAMORGAN","ppdCategoryType":"Standard","recordStatus":"Addition","latitude":51.396478,"longitude":-3.287175,"postcodeStart":"CF62 7","postcode":["CF62","7RJ"]}
{"price":40000,"dateOfTransfer":"1996-03-26T00:00:00","postcodeFull":"CF62 7AX","propertyType":"Terraced","oldOrNew":"Established","duration":"Freehold","paon":"20","saon":"","street":"PORTHKERRY ROAD","locality":"BARRY","townOrCity":"BARRY","district":"THE VALE OF GLAMORGAN","county":"THE VALE OF GLAMORGAN","ppdCategoryType":"Standard","recordStatus":"Addition","latitude":51.398288,"longitude":-3.287772,"postcodeStart":"CF62 7","postcode":["CF62","7AX"]}
{"price":29000,"dateOfTransfer":"1996-01-15T00:00:00","postcodeFull":"CF62 7ES","propertyType":"Terraced","oldOrNew":"Established","duration":"Freehold","paon":"42","saon":"","street":"WENVOE TERRACE","locality":"BARRY","townOrCity":"BARRY","district":"THE VALE OF GLAMORGAN","county":"THE VALE OF GLAMORGAN","ppdCategoryType":"Standard","recordStatus":"Addition","latitude":51.402204,"longitude":-3.284101,"postcodeStart":"CF62 7","postcode":["CF62","7ES"]}
{"price":69000,"dateOfTransfer":"1996-11-07T00:00:00","postcodeFull":"CF62 7LH","propertyType":"Semi-detached","oldOrNew":"Established","duration":"Freehold","paon":"10","saon":"","street":"ALWEN DRIVE","locality":"BARRY","townOrCity":"BARRY","district":"THE VALE OF GLAMORGAN","county":"THE VALE OF GLAMORGAN","ppdCategoryType":"Standard","recordStatus":"Addition","latitude":51.408426,"longitude":-3.293118,"postcodeStart":"CF62 7","postcode":["CF62","7LH"]}
{"price":37000,"dateOfTransfer":"1996-10-07T00:00:00","postcodeFull":"CF62 7AD","propertyType":"Terraced","oldOrNew":"Established","duration":"Freehold","paon":"40","saon":"","street":"BROAD STREET","locality":"","townOrCity":"BARRY","district":"THE VALE OF GLAMORGAN","county":"THE VALE OF GLAMORGAN","ppdCategoryType":"Standard","recordStatus":"Addition","latitude":51.40047,"longitude":-3.281465,"postcodeStart":"CF62 7","postcode":["CF62","7AD"]}
{"price":80000,"dateOfTransfer":"1996-08-23T00:00:00","postcodeFull":"CF62 7JN","propertyType":"Terraced","oldOrNew":"New build","duration":"Freehold","paon":"11","saon":"","street":"BRAMBLE AVENUE","locality":"BARRY","townOrCity":"BARRY","district":"THE VALE OF GLAMORGAN","county":"THE VALE OF GLAMORGAN","ppdCategoryType":"Standard","recordStatus":"Addition","latitude":51.409291,"longitude":-3.287262,"postcodeStart":"CF62 7","postcode":["CF62","7JN"]}
{"price":69950,"dateOfTransfer":"1996-03-01T00:00:00","postcodeFull":"CF62 7BD","propertyType":"Terraced","oldOrNew":"Established","duration":"Freehold","paon":"1","saon":"","street":"EAST VIEW TERRACE","locality":"BARRY","townOrCity":"BARRY","district":"THE VALE OF GLAMORGAN","county":"THE VALE OF GLAMORGAN","ppdCategoryType":"Standard","recordStatus":"Addition","latitude":51.397323,"longitude":-3.285603,"postcodeStart":"CF62 7","postcode":["CF62","7BD"]}
{"price":59950,"dateOfTransfer":"1996-10-25T00:00:00","postcodeFull":"CF62 7EP","propertyType":"Terraced","oldOrNew":"Established","duration":"Freehold","paon":"25","saon":"","street":"PORTHKERRY ROAD","locality":"BARRY","townOrCity":"BARRY","district":"THE VALE OF GLAMORGAN","county":"THE VALE OF GLAMORGAN","ppdCategoryType":"Standard","recordStatus":"Addition","latitude":51.400165,"longitude":-3.285464,"postcodeStart":"CF62 7","postcode":["CF62","7EP"]}
{"price":69950,"dateOfTransfer":"1996-12-20T00:00:00","postcodeFull":"CF62 7JQ","propertyType":"Detached","oldOrNew":"New build","duration":"Freehold","paon":"21","saon":"","street":"BLACKBERRY DRIVE","locality":"BARRY","townOrCity":"BARRY","district":"THE VALE OF GLAMORGAN","county":"THE VALE OF GLAMORGAN","ppdCategoryType":"Standard","recordStatus":"Addition","latitude":51.410381,"longitude":-3.288745,"postcodeStart":"CF62 7","postcode":["CF62","7JQ"]}
{"price":34000,"dateOfTransfer":"1996-07-25T00:00:00","postcodeFull":"CF62 7EG","propertyType":"Terraced","oldOrNew":"Established","duration":"Freehold","paon":"130","saon":"","street":"QUEEN STREET","locality":"BARRY","townOrCity":"BARRY","district":"THE VALE OF GLAMORGAN","county":"THE VALE OF GLAMORGAN","ppdCategoryType":"Standard","recordStatus":"Addition","latitude":51.40171,"longitude":-3.2816,"postcodeStart":"CF62 7","postcode":["CF62","7EG"]}
{"price":47500,"dateOfTransfer":"1996-12-13T00:00:00","postcodeFull":"CF62 7JN","propertyType":"Semi-detached","oldOrNew":"New build","duration":"Freehold","paon":"12","saon":"","street":"BRAMBLE AVENUE","locality":"BARRY","townOrCity":"BARRY","district":"THE VALE OF GLAMORGAN","county":"THE VALE OF GLAMORGAN","ppdCategoryType":"Standard","recordStatus":"Addition","latitude":51.409291,"longitude":-3.287262,"postcodeStart":"CF62 7","postcode":["CF62","7JN"]}
{"price":95500,"dateOfTransfer":"1996-11-01T00:00:00","postcodeFull":"CF62 7JN","propertyType":"Detached","oldOrNew":"New build","duration":"Freehold","paon":"2","saon":"","street":"BRAMBLE AVENUE","locality":"BARRY","townOrCity":"BARRY","district":"THE VALE OF GLAMORGAN","county":"THE VALE OF GLAMORGAN","ppdCategoryType":"Standard","recordStatus":"Addition","latitude":51.409291,"longitude":-3.287262,"postcodeStart":"CF62 7","postcode":["CF62","7JN"]}
{"price":41000,"dateOfTransfer":"1996-04-17T00:00:00","postcodeFull":"CF62 7FN","propertyType":"Terraced","oldOrNew":"Established","duration":"Freehold","paon":"14","saon":"","street":"FERN DRIVE","locality":"BARRY","townOrCity":"BARRY","district":"THE VALE OF GLAMORGAN","county":"THE VALE OF GLAMORGAN","ppdCategoryType":"Standard","recordStatus":"Addition","latitude":51.407313,"longitude":-3.283957,"postcodeStart":"CF62 7","postcode":["CF62","7FN"]}
{"price":80000,"dateOfTransfer":"1996-12-20T00:00:00","postcodeFull":"CF62 7BL","propertyType":"Detached","oldOrNew":"Established","duration":"Freehold","paon":"19","saon":"","street":"BRENIG CLOSE","locality":"BARRY","townOrCity":"BARRY","district":"THE VALE OF GLAMORGAN","county":"THE VALE OF GLAMORGAN","ppdCategoryType":"Standard","recordStatus":"Addition","latitude":51.41169,"longitude":-3.292362,"postcodeStart":"CF62 7","postcode":["CF62","7BL"]}
{"price":37000,"dateOfTransfer":"1996-12-20T00:00:00","postcodeFull":"CF62 7EG","propertyType":"Terraced","oldOrNew":"Established","duration":"Freehold","paon":"56","saon":"","street":"QUEEN STREET","locality":"BARRY","townOrCity":"BARRY","district":"THE VALE OF GLAMORGAN","county":"THE VALE OF GLAMORGAN","ppdCategoryType":"Standard","recordStatus":"Addition","latitude":51.40171,"longitude":-3.2816,"postcodeStart":"CF62 7","postcode":["CF62","7EG"]}
{"price":48000,"dateOfTransfer":"1996-07-12T00:00:00","postcodeFull":"CF62 7NP","propertyType":"Flat/Maisonette/Townhouse","oldOrNew":"Established","duration":"Leasehold","paon":"HOWARD COURT","saon":"FLAT 10","street":"PONTYPRIDD ROAD","locality":"BARRY","townOrCity":"BARRY","district":"THE VALE OF GLAMORGAN","county":"THE VALE OF GLAMORGAN","ppdCategoryType":"Standard","recordStatus":"Addition","latitude":51.40305,"longitude":-3.288955,"postcodeStart":"CF62 7","postcode":["CF62","7NP"]}
{"price":47250,"dateOfTransfer":"1996-09-13T00:00:00","postcodeFull":"CF62 7JN","propertyType":"Semi-detached","oldOrNew":"New build","duration":"Freehold","paon":"27","saon":"","street":"BRAMBLE AVENUE","locality":"BARRY","townOrCity":"BARRY","district":"THE VALE OF GLAMORGAN","county":"THE VALE OF GLAMORGAN","ppdCategoryType":"Standard","recordStatus":"Addition","latitude":51.409291,"longitude":-3.287262,"postcodeStart":"CF62 7","postcode":["CF62","7JN"]}
{"price":60000,"dateOfTransfer":"1996-11-29T00:00:00","postcodeFull":"CF62 7NG","propertyType":"Semi-detached","oldOrNew":"Established","duration":"Freehold","paon":"12","saon":"","street":"ST LYTHANS ROAD","locality":"BARRY","townOrCity":"BARRY","district":"THE VALE OF GLAMORGAN","county":"THE VALE OF GLAMORGAN","ppdCategoryType":"Standard","recordStatus":"Addition","latitude":51.406854,"longitude":-3.29132,"postcodeStart":"CF62 7","postcode":["CF62","7NG"]}
{"price":80000,"dateOfTransfer":"1996-07-19T00:00:00","postcodeFull":"CF62 7LG","propertyType":"Semi-detached","oldOrNew":"Established","duration":"Freehold","paon":"1","saon":"","street":"GLASLYN CLOSE","locality":"BARRY","townOrCity":"BARRY","district":"THE VALE OF GLAMORGAN","county":"THE VALE OF GLAMORGAN","ppdCategoryType":"Standard","recordStatus":"Addition","latitude":51.407269,"longitude":-3.293689,"postcodeStart":"CF62 7","postcode":["CF62","7LG"]}
{"price":39000,"dateOfTransfer":"1996-10-18T00:00:00","postcodeFull":"CF62 7EU","propertyType":"Terraced","oldOrNew":"Established","duration":"Freehold","paon":"5","saon":"","street":"TRINITY STREET","locality":"BARRY","townOrCity":"BARRY","district":"THE VALE OF GLAMORGAN","county":"THE VALE OF GLAMORGAN","ppdCategoryType":"Standard","recordStatus":"Addition","latitude":51.402444,"longitude":-3.281031,"postcodeStart":"CF62 7","postcode":["CF62","7EU"]}
{"price":89950,"dateOfTransfer":"1996-11-15T00:00:00","postcodeFull":"CF62 7JR","propertyType":"Detached","oldOrNew":"New build","duration":"Freehold","paon":"6","saon":"","street":"BLACKBERRY DRIVE","locality":"BARRY","townOrCity":"BARRY","district":"THE VALE OF GLAMORGAN","county":"THE VALE OF GLAMORGAN","ppdCategoryType":"Standard","recordStatus":"Addition","latitude":51.410649,"longitude":-3.288072,"postcodeStart":"CF62 7","postcode":["CF62","7JR"]}
{"price":67750,"dateOfTransfer":"1996-06-21T00:00:00","postcodeFull":"CF62 7JN","propertyType":"Detached","oldOrNew":"New build","duration":"Freehold","paon":"13","saon":"","street":"BRAMBLE AVENUE","locality":"BARRY","townOrCity":"BARRY","district":"THE VALE OF GLAMORGAN","county":"THE VALE OF GLAMORGAN","ppdCategoryType":"Standard","recordStatus":"Addition","latitude":51.409291,"longitude":-3.287262,"postcodeStart":"CF62 7","postcode":["CF62","7JN"]}
{"price":36500,"dateOfTransfer":"1996-07-11T00:00:00","postcodeFull":"CF62 7EE","propertyType":"Terraced","oldOrNew":"Established","duration":"Freehold","paon":"88","saon":"","street":"QUEEN STREET","locality":"BARRY","townOrCity":"BARRY","district":"THE VALE OF GLAMORGAN","county":"THE VALE OF GLAMORGAN","ppdCategoryType":"Standard","recordStatus":"Addition","latitude":51.399962,"longitude":-3.284312,"postcodeStart":"CF62 7","postcode":["CF62","7EE"]}
{"price":79250,"dateOfTransfer":"1996-08-02T00:00:00","postcodeFull":"CF62 7XL","propertyType":"Detached","oldOrNew":"Established","duration":"Freehold","paon":"44","saon":"","street":"USK WAY","locality":"BARRY","townOrCity":"BARRY","district":"THE VALE OF GLAMORGAN","county":"THE VALE OF GLAMORGAN","ppdCategoryType":"Standard","recordStatus":"Addition","latitude":51.410518,"longitude":-3.290158,"postcodeStart":"CF62 7","postcode":["CF62","7XL"]}
{"price":67000,"dateOfTransfer":"1996-06-27T00:00:00","postcodeFull":"CF62 7BL","propertyType":"Semi-detached","oldOrNew":"Established","duration":"Freehold","paon":"3","saon":"","street":"BRENIG CLOSE","locality":"BARRY","townOrCity":"BARRY","district":"THE VALE OF GLAMORGAN","county":"THE VALE OF GLAMORGAN","ppdCategoryType":"Standard","recordStatus":"Addition","latitude":51.41169,"longitude":-3.292362,"postcodeStart":"CF62 7","postcode":["CF62","7BL"]}
{"price":32450,"dateOfTransfer":"1996-03-29T00:00:00","postcodeFull":"CF62 7ES","propertyType":"Terraced","oldOrNew":"Established","duration":"Freehold","paon":"19","saon":"","street":"WENVOE TERRACE","locality":"BARRY","townOrCity":"BARRY","district":"THE VALE OF GLAMORGAN","county":"THE VALE OF GLAMORGAN","ppdCategoryType":"Standard","recordStatus":"Addition","latitude":51.402204,"longitude":-3.284101,"postcodeStart":"CF62 7","postcode":["CF62","7ES"]}
{"price":36000,"dateOfTransfer":"1996-05-10T00:00:00","postcodeFull":"CF62 7EG","propertyType":"Terraced","oldOrNew":"Established","duration":"Freehold","paon":"67","saon":"","street":"QUEEN STREET","locality":"BARRY","townOrCity":"BARRY","district":"THE VALE OF GLAMORGAN","county":"THE VALE OF GLAMORGAN","ppdCategoryType":"Standard","recordStatus":"Addition","latitude":51.40171,"longitude":-3.2816,"postcodeStart":"CF62 7","postcode":["CF62","7EG"]}
{"price":46000,"dateOfTransfer":"1996-08-28T00:00:00","postcodeFull":"CF62 7NP","propertyType":"Flat/Maisonette/Townhouse","oldOrNew":"Established","duration":"Leasehold","paon":"HOWARD COURT","saon":"FLAT 1","street":"PONTYPRIDD ROAD","locality":"BARRY","townOrCity":"BARRY","district":"THE VALE OF GLAMORGAN","county":"THE VALE OF GLAMORGAN","ppdCategoryType":"Standard","recordStatus":"Addition","latitude":51.40305,"longitude":-3.288955,"postcodeStart":"CF62 7","postcode":["CF62","7NP"]}
{"price":60000,"dateOfTransfer":"1996-11-29T00:00:00","postcodeFull":"CF62 7BL","propertyType":"Semi-detached","oldOrNew":"Established","duration":"Freehold","paon":"41","saon":"","street":"BRENIG CLOSE","locality":"BARRY","townOrCity":"BARRY","district":"THE VALE OF GLAMORGAN","county":"THE VALE OF GLAMORGAN","ppdCategoryType":"Standard","recordStatus":"Addition","latitude":51.41169,"longitude":-3.292362,"postcodeStart":"CF62 7","postcode":["CF62","7BL"]}
{"price":59000,"dateOfTransfer":"1996-03-01T00:00:00","postcodeFull":"CF62 7TE","propertyType":"Semi-detached","oldOrNew":"Established","duration":"Freehold","paon":"5","saon":"","street":"CLEDWEN CLOSE","locality":"BARRY","townOrCity":"BARRY","district":"VALE OF GLAMORGAN","county":"SOUTH GLAMORGAN","ppdCategoryType":"Standard","recordStatus":"Addition","latitude":51.408068,"longitude":-3.296199,"postcodeStart":"CF62 7","postcode":["CF62","7TE"]}
{"price":18500,"dateOfTransfer":"1996-01-12T00:00:00","postcodeFull":"CF62 7ER","propertyType":"Terraced","oldOrNew":"Established","duration":"Freehold","paon":"100","saon":"","street":"PORTHKERRY ROAD","locality":"BARRY","townOrCity":"BARRY","district":"VALE OF GLAMORGAN","county":"SOUTH GLAMORGAN","ppdCategoryType":"Standard","recordStatus":"Addition","latitude":51.401719,"longitude":-3.283225,"postcodeStart":"CF62 7","postcode":["CF62","7ER"]}
{"price":62450,"dateOfTransfer":"1996-10-04T00:00:00","postcodeFull":"CF62 7JQ","propertyType":"Semi-detached","oldOrNew":"New build","duration":"Freehold","paon":"17","saon":"","street":"BLACKBERRY DRIVE","locality":"BARRY","townOrCity":"BARRY","district":"THE VALE OF GLAMORGAN","county":"THE VALE OF GLAMORGAN","ppdCategoryType":"Standard","recordStatus":"Addition","latitude":51.410381,"longitude":-3.288745,"postcodeStart":"CF62 7","postcode":["CF62","7JQ"]}
{"price":47250,"dateOfTransfer":"1996-06-28T00:00:00","postcodeFull":"CF62 7JN","propertyType":"Semi-detached","oldOrNew":"New build","duration":"Freehold","paon":"23","saon":"","street":"BRAMBLE AVENUE","locality":"BARRY","townOrCity":"BARRY","district":"THE VALE OF GLAMORGAN","county":"THE VALE OF GLAMORGAN","ppdCategoryType":"Standard","recordStatus":"Addition","latitude":51.409291,"longitude":-3.287262,"postcodeStart":"CF62 7","postcode":["CF62","7JN"]}
{"price":75500,"dateOfTransfer":"1996-02-02T00:00:00","postcodeFull":"CF62 7XL","propertyType":"Detached","oldOrNew":"Established","duration":"Freehold","paon":"54","saon":"","street":"USK WAY","locality":"BARRY","townOrCity":"BARRY","district":"VALE OF GLAMORGAN","county":"SOUTH GLAMORGAN","ppdCategoryType":"Standard","recordStatus":"Addition","latitude":51.410518,"longitude":-3.290158,"postcodeStart":"CF62 7","postcode":["CF62","7XL"]}
{"price":35000,"dateOfTransfer":"1996-01-10T00:00:00","postcodeFull":"CF62 7EF","propertyType":"Semi-detached","oldOrNew":"Established","duration":"Freehold","paon":"106","saon":"","street":"QUEEN STREET","locality":"BARRY","townOrCity":"BARRY","district":"VALE OF GLAMORGAN","county":"SOUTH GLAMORGAN","ppdCategoryType":"Standard","recordStatus":"Addition","latitude":51.400875,"longitude":-3.283115,"postcodeStart":"CF62 7","postcode":["CF62","7EF"]}
{"price":94500,"dateOfTransfer":"1996-11-08T00:00:00","postcodeFull":"CF62 7JR","propertyType":"Detached","oldOrNew":"New build","duration":"Freehold","paon":"4","saon":"","street":"BLACKBERRY DRIVE","locality":"BARRY","townOrCity":"BARRY","district":"THE VALE OF GLAMORGAN","county":"THE VALE OF GLAMORGAN","ppdCategoryType":"Standard","recordStatus":"Addition","latitude":51.410649,"longitude":-3.288072,"postcodeStart":"CF62 7","postcode":["CF62","7JR"]}
{"price":43000,"dateOfTransfer":"1996-09-27T00:00:00","postcodeFull":"CF62 7HS","propertyType":"Semi-detached","oldOrNew":"Established","duration":"Freehold","paon":"115","saon":"","street":"JENNER ROAD","locality":"BARRY","townOrCity":"BARRY","district":"THE VALE OF GLAMORGAN","county":"THE VALE OF GLAMORGAN","ppdCategoryType":"Standard","recordStatus":"Addition","latitude":51.402471,"longitude":-3.286006,"postcodeStart":"CF62 7","postcode":["CF62","7HS"]}
{"price":62500,"dateOfTransfer":"1996-12-20T00:00:00","postcodeFull":"CF62 7JN","propertyType":"Semi-detached","oldOrNew":"New build","duration":"Freehold","paon":"31","saon":"","street":"BRAMBLE AVENUE","locality":"BARRY","townOrCity":"BARRY","district":"THE VALE OF GLAMORGAN","county":"THE VALE OF GLAMORGAN","ppdCategoryType":"Standard","recordStatus":"Addition","latitude":51.409291,"longitude":-3.287262,"postcodeStart":"CF62 7","postcode":["CF62","7JN"]}
{"price":47250,"dateOfTransfer":"1996-06-28T00:00:00","postcodeFull":"CF62 7JN","propertyType":"Semi-detached","oldOrNew":"New build","duration":"Freehold","paon":"29","saon":"","street":"BRAMBLE AVENUE","locality":"BARRY","townOrCity":"BARRY","district":"THE VALE OF GLAMORGAN","county":"THE VALE OF GLAMORGAN","ppdCategoryType":"Standard","recordStatus":"Addition","latitude":51.409291,"longitude":-3.287262,"postcodeStart":"CF62 7","postcode":["CF62","7JN"]}
{"price":53750,"dateOfTransfer":"1996-08-02T00:00:00","postcodeFull":"CF62 7NG","propertyType":"Semi-detached","oldOrNew":"Established","duration":"Leasehold","paon":"22","saon":"","street":"ST LYTHANS ROAD","locality":"BARRY","townOrCity":"BARRY","district":"THE VALE OF GLAMORGAN","county":"THE VALE OF GLAMORGAN","ppdCategoryType":"Standard","recordStatus":"Addition","latitude":51.406854,"longitude":-3.29132,"postcodeStart":"CF62 7","postcode":["CF62","7NG"]}
{"price":37000,"dateOfTransfer":"1996-04-22T00:00:00","postcodeFull":"CF62 7HT","propertyType":"Semi-detached","oldOrNew":"Established","duration":"Freehold","paon":"5","saon":"","street":"ALEXANDRA CRESCENT","locality":"BARRY","townOrCity":"BARRY","district":"THE VALE OF GLAMORGAN","county":"THE VALE OF GLAMORGAN","ppdCategoryType":"Standard","recordStatus":"Addition","latitude":51.405259,"longitude":-3.281024,"postcodeStart":"CF62 7","postcode":["CF62","7HT"]}
{"price":52500,"dateOfTransfer":"1996-07-26T00:00:00","postcodeFull":"CF62 7JN","propertyType":"Semi-detached","oldOrNew":"New build","duration":"Freehold","paon":"17","saon":"","street":"BRAMBLE AVENUE","locality":"BARRY","townOrCity":"BARRY","district":"THE VALE OF GLAMORGAN","county":"THE VALE OF GLAMORGAN","ppdCategoryType":"Standard","recordStatus":"Addition","latitude":51.409291,"longitude":-3.287262,"postcodeStart":"CF62 7","postcode":["CF62","7JN"]}
{"price":53000,"dateOfTransfer":"1996-08-13T00:00:00","postcodeFull":"CF62 7RJ","propertyType":"Terraced","oldOrNew":"Established","duration":"Freehold","paon":"7","saon":"","street":"WELFORD STREET","locality":"BARRY","townOrCity":"BARRY","district":"THE VALE OF GLAMORGAN","county":"THE VALE OF GLAMORGAN","ppdCategoryType":"Standard","recordStatus":"Addition","latitude":51.396478,"longitude":-3.287175,"postcodeStart":"CF62 7","postcode":["CF62","7RJ"]}
{"price":39000,"dateOfTransfer":"1996-11-22T00:00:00","postcodeFull":"CF62 7DR","propertyType":"Semi-detached","oldOrNew":"Established","duration":"Freehold","paon":"6","saon":"","street":"SENNI CLOSE","locality":"BARRY","townOrCity":"BARRY","district":"THE VALE OF GLAMORGAN","county":"THE VALE OF GLAMORGAN","ppdCategoryType":"Standard","recordStatus":"Addition","latitude":51.409595,"longitude":-3.292317,"postcodeStart":"CF62 7","postcode":["CF62","7DR"]}
{"price":21500,"dateOfTransfer":"1996-10-18T00:00:00","postcodeFull":"CF62 7DT","propertyType":"Terraced","oldOrNew":"Established","duration":"Freehold","paon":"127","saon":"FLAT","street":"HIGH STREET","locality":"BARRY","townOrCity":"BARRY","district":"THE VALE OF GLAMORGAN","county":"THE VALE OF GLAMORGAN","ppdCategoryType":"Standard","recordStatus":"Addition","latitude":51.401177,"longitude":-3.280967,"postcodeStart":"CF62 7","postcode":["CF62","7DT"]}
{"price":83250,"dateOfTransfer":"1996-09-26T00:00:00","postcodeFull":"CF62 7JR","propertyType":"Detached","oldOrNew":"New build","duration":"Freehold","paon":"8","saon":"","street":"BLACKBERRY DRIVE","locality":"BARRY","townOrCity":"BARRY","district":"THE VALE OF GLAMORGAN","county":"THE VALE OF GLAMORGAN","ppdCategoryType":"Standard","recordStatus":"Addition","latitude":51.410649,"longitude":-3.288072,"postcodeStart":"CF62 7","postcode":["CF62","7JR"]}
{"price":41000,"dateOfTransfer":"1996-11-29T00:00:00","postcodeFull":"CF62 7EL","propertyType":"Semi-detached","oldOrNew":"Established","duration":"Freehold","paon":"68","saon":"","street":"PRINCES STREET","locality":"BARRY","townOrCity":"BARRY","district":"THE VALE OF GLAMORGAN","county":"THE VALE OF GLAMORGAN","ppdCategoryType":"Standard","recordStatus":"Addition","latitude":51.401097,"longitude":-3.283337,"postcodeStart":"CF62 7","postcode":["CF62","7EL"]}
{"price":62750,"dateOfTransfer":"1996-07-08T00:00:00","postcodeFull":"CF62 7HR","propertyType":"Semi-detached","oldOrNew":"Established","duration":"Freehold","paon":"168","saon":"","street":"JENNER ROAD","locality":"BARRY","townOrCity":"BARRY","district":"THE VALE OF GLAMORGAN","county":"THE VALE OF GLAMORGAN","ppdCategoryType":"Standard","recordStatus":"Addition","latitude":51.402571,"longitude":-3.286742,"postcodeStart":"CF62 7","postcode":["CF62","7HR"]}
{"price":62950,"dateOfTransfer":"1996-09-27T00:00:00","postcodeFull":"CF62 7JQ","propertyType":"Semi-detached","oldOrNew":"New build","duration":"Freehold","paon":"15","saon":"","street":"BLACKBERRY DRIVE","locality":"BARRY","townOrCity":"BARRY","district":"THE VALE OF GLAMORGAN","county":"THE VALE OF GLAMORGAN","ppdCategoryType":"Standard","recordStatus":"Addition","latitude":51.410381,"longitude":-3.288745,"postcodeStart":"CF62 7","postcode":["CF62","7JQ"]}
{"price":94000,"dateOfTransfer":"1996-12-13T00:00:00","postcodeFull":"CF62 7BL","propertyType":"Detached","oldOrNew":"Established","duration":"Freehold","paon":"59","saon":"","street":"BRENIG CLOSE","locality":"BARRY","townOrCity":"BARRY","district":"THE VALE OF GLAMORGAN","county":"THE VALE OF GLAMORGAN","ppdCategoryType":"Standard","recordStatus":"Addition","latitude":51.41169,"longitude":-3.292362,"postcodeStart":"CF62 7","postcode":["CF62","7BL"]}
{"price":39000,"dateOfTransfer":"1996-09-19T00:00:00","postcodeFull":"CF62 7EJ","propertyType":"Terraced","oldOrNew":"Established","duration":"Freehold","paon":"18","saon":"","street":"PRINCES STREET","locality":"BARRY","townOrCity":"BARRY","district":"THE VALE OF GLAMORGAN","county":"THE VALE OF GLAMORGAN","ppdCategoryType":"Standard","recordStatus":"Addition","latitude":51.401859,"longitude":-3.28195,"postcodeStart":"CF62 7","postcode":["CF62","7EJ"]}
{"price":48000,"dateOfTransfer":"1996-09-16T00:00:00","postcodeFull":"CF62 7AQ","propertyType":"Terraced","oldOrNew":"Established","duration":"Freehold","paon":"8","saon":"","street":"HILDA STREET","locality":"BARRY","townOrCity":"BARRY","district":"THE VALE OF GLAMORGAN","county":"THE VALE OF GLAMORGAN","ppdCategoryType":"Standard","recordStatus":"Addition","latitude":51.40286,"longitude":-3.276744,"postcodeStart":"CF62 7","postcode":["CF62","7AQ"]}
{"price":40500,"dateOfTransfer":"1996-04-12T00:00:00","postcodeFull":"CF62 7EU","propertyType":"Terraced","oldOrNew":"Established","duration":"Freehold","paon":"1","saon":"","street":"TRINITY STREET","locality":"BARRY","townOrCity":"BARRY","district":"THE VALE OF GLAMORGAN","county":"THE VALE OF GLAMORGAN","ppdCategoryType":"Standard","recordStatus":"Addition","latitude":51.402444,"longitude":-3.281031,"postcodeStart":"CF62 7","postcode":["CF62","7EU"]}
{"price":69950,"dateOfTransfer":"1996-12-16T00:00:00","postcodeFull":"CF62 7JN","propertyType":"Detached","oldOrNew":"New build","duration":"Freehold","paon":"16","saon":"","street":"BRAMBLE AVENUE","locality":"BARRY","townOrCity":"BARRY","district":"THE VALE OF GLAMORGAN","county":"THE VALE OF GLAMORGAN","ppdCategoryType":"Standard","recordStatus":"Addition","latitude":51.409291,"longitude":-3.287262,"postcodeStart":"CF62 7","postcode":["CF62","7JN"]}
{"price":59995,"dateOfTransfer":"1996-06-28T00:00:00","postcodeFull":"CF62 7FL","propertyType":"Detached","oldOrNew":"Established","duration":"Freehold","paon":"43","saon":"","street":"THE HEATHERS","locality":"BARRY","townOrCity":"BARRY","district":"THE VALE OF GLAMORGAN","county":"THE VALE OF GLAMORGAN","ppdCategoryType":"Standard","recordStatus":"Addition","latitude":51.407879,"longitude":-3.284016,"postcodeStart":"CF62 7","postcode":["CF62","7FL"]}
{"price":56250,"dateOfTransfer":"1996-06-14T00:00:00","postcodeFull":"CF62 7AY","propertyType":"Semi-detached","oldOrNew":"Established","duration":"Freehold","paon":"19B","saon":"","street":"PORTHKERRY ROAD","locality":"BARRY","townOrCity":"BARRY","district":"THE VALE OF GLAMORGAN","county":"THE VALE OF GLAMORGAN","ppdCategoryType":"Standard","recordStatus":"Addition","latitude":51.399548,"longitude":-3.286068,"postcodeStart":"CF62 7","postcode":["CF62","7AY"]}
{"price":59950,"dateOfTransfer":"1996-04-26T00:00:00","postcodeFull":"CF62 7NE","propertyType":"Semi-detached","oldOrNew":"Established","duration":"Leasehold","paon":"9","saon":"","street":"LIDMORE ROAD","locality":"BARRY","townOrCity":"BARRY","district":"THE VALE OF GLAMORGAN","county":"THE VALE OF GLAMORGAN","ppdCategoryType":"Standard","recordStatus":"Addition","latitude":51.405979,"longitude":-3.292416,"postcodeStart":"CF62 7","postcode":["CF62","7NE"]}
{"price":37000,"dateOfTransfer":"1996-09-13T00:00:00","postcodeFull":"CF62 7LN","propertyType":"Semi-detached","oldOrNew":"Established","duration":"Leasehold","paon":"11","saon":"","street":"PONTYPRIDD ROAD","locality":"BARRY","townOrCity":"BARRY","district":"THE VALE OF GLAMORGAN","county":"THE VALE OF GLAMORGAN","ppdCategoryType":"Standard","recordStatus":"Addition","latitude":51.402259,"longitude":-3.288948,"postcodeStart":"CF62 7","postcode":["CF62","7LN"]}
{"price":40500,"dateOfTransfer":"1996-06-07T00:00:00","postcodeFull":"CF62 7ER","propertyType":"Terraced","oldOrNew":"Established","duration":"Freehold","paon":"108","saon":"","street":"PORTHKERRY ROAD","locality":"BARRY","townOrCity":"BARRY","district":"THE VALE OF GLAMORGAN","county":"THE VALE OF GLAMORGAN","ppdCategoryType":"Standard","recordStatus":"Addition","latitude":51.401719,"longitude":-3.283225,"postcodeStart":"CF62 7","postcode":["CF62","7ER"]}
{"price":53250,"dateOfTransfer":"1996-11-22T00:00:00","postcodeFull":"CF62 7JN","propertyType":"Semi-detached","oldOrNew":"New build","duration":"Freehold","paon":"10","saon":"","street":"BRAMBLE AVENUE","locality":"BARRY","townOrCity":"BARRY","district":"THE VALE OF GLAMORGAN","county":"THE VALE OF GLAMORGAN","ppdCategoryType":"Standard","recordStatus":"Addition","latitude":51.409291,"longitude":-3.287262,"postcodeStart":"CF62 7","postcode":["CF62","7JN"]}
{"price":47500,"dateOfTransfer":"1996-12-13T00:00:00","postcodeFull":"CF62 7JN","propertyType":"Semi-detached","oldOrNew":"New build","duration":"Freehold","paon":"14","saon":"","street":"BRAMBLE AVENUE","locality":"BARRY","townOrCity":"BARRY","district":"THE VALE OF GLAMORGAN","county":"THE VALE OF GLAMORGAN","ppdCategoryType":"Standard","recordStatus":"Addition","latitude":51.409291,"longitude":-3.287262,"postcodeStart":"CF62 7","postcode":["CF62","7JN"]}
{"price":47250,"dateOfTransfer":"1996-06-26T00:00:00","postcodeFull":"CF62 7JQ","propertyType":"Semi-detached","oldOrNew":"New build","duration":"Freehold","paon":"3","saon":"","street":"BLACKBERRY DRIVE","locality":"BARRY","townOrCity":"BARRY","district":"THE VALE OF GLAMORGAN","county":"THE VALE OF GLAMORGAN","ppdCategoryType":"Standard","recordStatus":"Addition","latitude":51.410381,"longitude":-3.288745,"postcodeStart":"CF62 7","postcode":["CF62","7JQ"]}
{"price":40500,"dateOfTransfer":"1996-08-23T00:00:00","postcodeFull":"CF62 7FN","propertyType":"Terraced","oldOrNew":"Established","duration":"Freehold","paon":"10","saon":"","street":"FERN DRIVE","locality":"BARRY","townOrCity":"BARRY","district":"THE VALE OF GLAMORGAN","county":"THE VALE OF GLAMORGAN","ppdCategoryType":"Standard","recordStatus":"Addition","latitude":51.407313,"longitude":-3.283957,"postcodeStart":"CF62 7","postcode":["CF62","7FN"]}
{"price":56000,"dateOfTransfer":"1996-06-12T00:00:00","postcodeFull":"CF62 7HB","propertyType":"Terraced","oldOrNew":"Established","duration":"Freehold","paon":"34","saon":"","street":"RHEIDOL DRIVE","locality":"BARRY","townOrCity":"BARRY","district":"THE VALE OF GLAMORGAN","county":"THE VALE OF GLAMORGAN","ppdCategoryType":"Standard","recordStatus":"Addition","latitude":51.408233,"longitude":-3.295098,"postcodeStart":"CF62 7","postcode":["CF62","7HB"]}
{"price":72500,"dateOfTransfer":"1996-09-24T00:00:00","postcodeFull":"CF62 7ED","propertyType":"Terraced","oldOrNew":"Established","duration":"Freehold","paon":"26","saon":"","street":"YORK PLACE","locality":"BARRY","townOrCity":"BARRY","district":"THE VALE OF GLAMORGAN","county":"THE VALE OF GLAMORGAN","ppdCategoryType":"Standard","recordStatus":"Addition","latitude":51.398901,"longitude":-3.28513,"postcodeStart":"CF62 7","postcode":["CF62","7ED"]}
{"price":69950,"dateOfTransfer":"1996-06-28T00:00:00","postcodeFull":"CF62 7JQ","propertyType":"Detached","oldOrNew":"New build","duration":"Freehold","paon":"7","saon":"","street":"BLACKBERRY DRIVE","locality":"BARRY","townOrCity":"BARRY","district":"THE VALE OF GLAMORGAN","county":"THE VALE OF GLAMORGAN","ppdCategoryType":"Standard","recordStatus":"Addition","latitude":51.410381,"longitude":-3.288745,"postcodeStart":"CF62 7","postcode":["CF62","7JQ"]}
{"price":37000,"dateOfTransfer":"1996-03-15T00:00:00","postcodeFull":"CF62 7EG","propertyType":"Terraced","oldOrNew":"Established","duration":"Freehold","paon":"54","saon":"","street":"QUEEN STREET","locality":"BARRY","townOrCity":"BARRY","district":"THE VALE OF GLAMORGAN","county":"THE VALE OF GLAMORGAN","ppdCategoryType":"Standard","recordStatus":"Addition","latitude":51.40171,"longitude":-3.2816,"postcodeStart":"CF62 7","postcode":["CF62","7EG"]}
{"price":96950,"dateOfTransfer":"1996-06-28T00:00:00","postcodeFull":"CF62 7JN","propertyType":"Detached","oldOrNew":"New build","duration":"Freehold","paon":"19","saon":"","street":"BRAMBLE AVENUE","locality":"BARRY","townOrCity":"BARRY","district":"THE VALE OF GLAMORGAN","county":"THE VALE OF GLAMORGAN","ppdCategoryType":"Standard","recordStatus":"Addition","latitude":51.409291,"longitude":-3.287262,"postcodeStart":"CF62 7","postcode":["CF62","7JN"]}
{"price":58950,"dateOfTransfer":"1996-06-14T00:00:00","postcodeFull":"CF62 7JN","propertyType":"Semi-detached","oldOrNew":"New build","duration":"Freehold","paon":"3","saon":"","street":"BRAMBLE AVENUE","locality":"BARRY","townOrCity":"BARRY","district":"THE VALE OF GLAMORGAN","county":"THE VALE OF GLAMORGAN","ppdCategoryType":"Standard","recordStatus":"Addition","latitude":51.409291,"longitude":-3.287262,"postcodeStart":"CF62 7","postcode":["CF62","7JN"]}
{"price":41500,"dateOfTransfer":"1996-09-30T00:00:00","postcodeFull":"CF62 7RH","propertyType":"Terraced","oldOrNew":"Established","duration":"Leasehold","paon":"16","saon":"","street":"CANON STREET","locality":"BARRY","townOrCity":"BARRY","district":"THE VALE OF GLAMORGAN","county":"THE VALE OF GLAMORGAN","ppdCategoryType":"Standard","recordStatus":"Addition","latitude":51.396843,"longitude":-3.287502,"postcodeStart":"CF62 7","postcode":["CF62","7RH"]}
{"price":76500,"dateOfTransfer":"1996-09-20T00:00:00","postcodeFull":"CF62 7LS","propertyType":"Detached","oldOrNew":"Established","duration":"Leasehold","paon":"62","saon":"","street":"PONTYPRIDD ROAD","locality":"BARRY","townOrCity":"BARRY","district":"THE VALE OF GLAMORGAN","county":"THE VALE OF GLAMORGAN","ppdCategoryType":"Standard","recordStatus":"Addition","latitude":51.405656,"longitude":-3.293141,"postcodeStart":"CF62 7","postcode":["CF62","7LS"]}
{"price":47000,"dateOfTransfer":"1996-08-30T00:00:00","postcodeFull":"CF62 7AD","propertyType":"Terraced","oldOrNew":"Established","duration":"Freehold","paon":"48","saon":"","street":"BROAD STREET","locality":"BARRY","townOrCity":"BARRY","district":"THE VALE OF GLAMORGAN","county":"THE VALE OF GLAMORGAN","ppdCategoryType":"Standard","recordStatus":"Addition","latitude":51.40047,"longitude":-3.281465,"postcodeStart":"CF62 7","postcode":["CF62","7AD"]}
{"price":30500,"dateOfTransfer":"1996-02-09T00:00:00","postcodeFull":"CF62 7HY","propertyType":"Terraced","oldOrNew":"Established","duration":"Freehold","paon":"55","saon":"","street":"DUDLEY PLACE","locality":"BARRY","townOrCity":"BARRY","district":"VALE OF GLAMORGAN","county":"SOUTH GLAMORGAN","ppdCategoryType":"Standard","recordStatus":"Addition","latitude":51.402302,"longitude":-3.284967,"postcodeStart":"CF62 7","postcode":["CF62","7HY"]}
{"price":55000,"dateOfTransfer":"1996-03-01T00:00:00","postcodeFull":"CF62 7RF","propertyType":"Terraced","oldOrNew":"Established","duration":"Leasehold","paon":"14","saon":"","street":"MISKIN STREET","locality":"BARRY","townOrCity":"BARRY","district":"VALE OF GLAMORGAN","county":"SOUTH GLAMORGAN","ppdCategoryType":"Standard","recordStatus":"Addition","latitude":51.395929,"longitude":-3.28726,"postcodeStart":"CF62 7","postcode":["CF62","7RF"]}
{"price":66000,"dateOfTransfer":"1996-07-12T00:00:00","postcodeFull":"CF62 7TG","propertyType":"Terraced","oldOrNew":"Established","duration":"Freehold","paon":"5","saon":"","street":"HEOL SIRHWI","locality":"BARRY","townOrCity":"BARRY","district":"THE VALE OF GLAMORGAN","county":"THE VALE OF GLAMORGAN","ppdCategoryType":"Standard","recordStatus":"Addition","latitude":51.409443,"longitude":-3.294685,"postcodeStart":"CF62 7","postcode":["CF62","7TG"]}
{"price":67950,"dateOfTransfer":"1996-06-28T00:00:00","postcodeFull":"CF62 7JN","propertyType":"Detached","oldOrNew":"New build","duration":"Freehold","paon":"21","saon":"","street":"BRAMBLE AVENUE","locality":"BARRY","townOrCity":"BARRY","district":"THE VALE OF GLAMORGAN","county":"THE VALE OF GLAMORGAN","ppdCategoryType":"Standard","recordStatus":"Addition","latitude":51.409291,"longitude":-3.287262,"postcodeStart":"CF62 7","postcode":["CF62","7JN"]}
{"price":39950,"dateOfTransfer":"1996-03-22T00:00:00","postcodeFull":"CF62 7TL","propertyType":"Semi-detached","oldOrNew":"Established","duration":"Freehold","paon":"14","saon":"","street":"TEIFI DRIVE","locality":"BARRY","townOrCity":"BARRY","district":"VALE OF GLAMORGAN","county":"SOUTH GLAMORGAN","ppdCategoryType":"Standard","recordStatus":"Addition","latitude":51.408191,"longitude":-3.291645,"postcodeStart":"CF62 7","postcode":["CF62","7TL"]}
{"price":89950,"dateOfTransfer":"1996-06-21T00:00:00","postcodeFull":"CF62 7JN","propertyType":"Detached","oldOrNew":"New build","duration":"Freehold","paon":"1","saon":"","street":"BRAMBLE AVENUE","locality":"BARRY","townOrCity":"BARRY","district":"THE VALE OF GLAMORGAN","county":"THE VALE OF GLAMORGAN","ppdCategoryType":"Standard","recordStatus":"Addition","latitude":51.409291,"longitude":-3.287262,"postcodeStart":"CF62 7","postcode":["CF62","7JN"]}
{"price":47250,"dateOfTransfer":"1996-09-27T00:00:00","postcodeFull":"CF62 7JN","propertyType":"Semi-detached","oldOrNew":"New build","duration":"Freehold","paon":"25","saon":"","street":"BRAMBLE AVENUE","locality":"BARRY","townOrCity":"BARRY","district":"THE VALE OF GLAMORGAN","county":"THE VALE OF GLAMORGAN","ppdCategoryType":"Standard","recordStatus":"Addition","latitude":51.409291,"longitude":-3.287262,"postcodeStart":"CF62 7","postcode":["CF62","7JN"]}
{"price":49000,"dateOfTransfer":"1996-11-29T00:00:00","postcodeFull":"CF62 7TL","propertyType":"Semi-detached","oldOrNew":"Established","duration":"Freehold","paon":"34","saon":"","street":"TEIFI DRIVE","locality":"BARRY","townOrCity":"BARRY","district":"THE VALE OF GLAMORGAN","county":"THE VALE OF GLAMORGAN","ppdCategoryType":"Standard","recordStatus":"Addition","latitude":51.408191,"longitude":-3.291645,"postcodeStart":"CF62 7","postcode":["CF62","7TL"]}
{"price":16000,"dateOfTransfer":"1996-04-26T00:00:00","postcodeFull":"CF62 7ER","propertyType":"Terraced","oldOrNew":"Established","duration":"Freehold","paon":"94","saon":"","street":"PORTHKERRY ROAD","locality":"BARRY","townOrCity":"BARRY","district":"THE VALE OF GLAMORGAN","county":"THE VALE OF GLAMORGAN","ppdCategoryType":"Standard","recordStatus":"Addition","latitude":51.401719,"longitude":-3.283225,"postcodeStart":"CF62 7","postcode":["CF62","7ER"]}
{"price":52950,"dateOfTransfer":"1996-10-18T00:00:00","postcodeFull":"CF62 7JN","propertyType":"Semi-detached","oldOrNew":"New build","duration":"Freehold","paon":"4","saon":"","street":"BRAMBLE AVENUE","locality":"BARRY","townOrCity":"BARRY","district":"THE VALE OF GLAMORGAN","county":"THE VALE OF GLAMORGAN","ppdCategoryType":"Standard","recordStatus":"Addition","latitude":51.409291,"longitude":-3.287262,"postcodeStart":"CF62 7","postcode":["CF62","7JN"]}
{"price":46950,"dateOfTransfer":"1996-06-26T00:00:00","postcodeFull":"CF62 7JQ","propertyType":"Terraced","oldOrNew":"New build","duration":"Freehold","paon":"5","saon":"","street":"BLACKBERRY DRIVE","locality":"BARRY","townOrCity":"BARRY","district":"THE VALE OF GLAMORGAN","county":"THE VALE OF GLAMORGAN","ppdCategoryType":"Standard","recordStatus":"Addition","latitude":51.410381,"longitude":-3.288745,"postcodeStart":"CF62 7","postcode":["CF62","7JQ"]}
{"price":66500,"dateOfTransfer":"1996-10-10T00:00:00","postcodeFull":"CF62 7TE","propertyType":"Semi-detached","oldOrNew":"Established","duration":"Freehold","paon":"27","saon":"","street":"CLEDWEN CLOSE","locality":"BARRY","townOrCity":"BARRY","district":"THE VALE OF GLAMORGAN","county":"THE VALE OF GLAMORGAN","ppdCategoryType":"Standard","recordStatus":"Addition","latitude":51.408068,"longitude":-3.296199,"postcodeStart":"CF62 7","postcode":["CF62","7TE"]}
{"price":50000,"dateOfTransfer":"1996-04-04T00:00:00","postcodeFull":"CF62 7FL","propertyType":"Detached","oldOrNew":"Established","duration":"Freehold","paon":"43","saon":"","street":"THE HEATHERS","locality":"BARRY","townOrCity":"BARRY","district":"THE VALE OF GLAMORGAN","county":"THE VALE OF GLAMORGAN","ppdCategoryType":"Standard","recordStatus":"Addition","latitude":51.407879,"longitude":-3.284016,"postcodeStart":"CF62 7","postcode":["CF62","7FL"]}
{"price":65995,"dateOfTransfer":"1996-12-20T00:00:00","postcodeFull":"CF62 7JN","propertyType":"Semi-detached","oldOrNew":"New build","duration":"Freehold","paon":"33","saon":"","street":"BRAMBLE AVENUE","locality":"BARRY","townOrCity":"BARRY","district":"THE VALE OF GLAMORGAN","county":"THE VALE OF GLAMORGAN","ppdCategoryType":"Standard","recordStatus":"Addition","latitude":51.409291,"longitude":-3.287262,"postcodeStart":"CF62 7","postcode":["CF62","7JN"]}
{"price":25000,"dateOfTransfer":"1996-12-31T00:00:00","postcodeFull":"CF62 7AG","propertyType":"Semi-detached","oldOrNew":"Established","duration":"Freehold","paon":"57","saon":"","street":"BROAD STREET","locality":"BARRY","townOrCity":"BARRY","district":"THE VALE OF GLAMORGAN","county":"THE VALE OF GLAMORGAN","ppdCategoryType":"Standard","recordStatus":"Addition","latitude":51.401947,"longitude":-3.277984,"postcodeStart":"CF62 7","postcode":["CF62","7AG"]}
{"price":50000,"dateOfTransfer":"1996-08-09T00:00:00","postcodeFull":"CF62 7UG","propertyType":"Semi-detached","oldOrNew":"Established","duration":"Freehold","paon":"8","saon":"","street":"BAIRD RISE","locality":"BARRY","townOrCity":"BARRY","district":"THE VALE OF GLAMORGAN","county":"THE VALE OF GLAMORGAN","ppdCategoryType":"Standard","recordStatus":"Addition","latitude":51.407268,"longitude":-3.282331,"postcodeStart":"CF62 7","postcode":["CF62","7UG"]}
{"price":20000,"dateOfTransfer":"1996-04-16T00:00:00","postcodeFull":"CF62 7EG","propertyType":"Terraced","oldOrNew":"Established","duration":"Freehold","paon":"64","saon":"","street":"QUEEN STREET","locality":"BARRY","townOrCity":"BARRY","district":"THE VALE OF GLAMORGAN","county":"THE VALE OF GLAMORGAN","ppdCategoryType":"Standard","recordStatus":"Addition","latitude":51.40171,"longitude":-3.2816,"postcodeStart":"CF62 7","postcode":["CF62","7EG"]}
{"price":122500,"dateOfTransfer":"1996-12-20T00:00:00","postcodeFull":"CF62 7JQ","propertyType":"Detached","oldOrNew":"New build","duration":"Freehold","paon":"19","saon":"","street":"BLACKBERRY DRIVE","locality":"BARRY","townOrCity":"BARRY","district":"THE VALE OF GLAMORGAN","county":"THE VALE OF GLAMORGAN","ppdCategoryType":"Standard","recordStatus":"Addition","latitude":51.410381,"longitude":-3.288745,"postcodeStart":"CF62 7","postcode":["CF62","7JQ"]}
{"price":20000,"dateOfTransfer":"1996-03-11T00:00:00","postcodeFull":"CF62 7EL","propertyType":"Terraced","oldOrNew":"Established","duration":"Freehold","paon":"66","saon":"","street":"PRINCES STREET","locality":"BARRY","townOrCity":"BARRY","district":"VALE OF GLAMORGAN","county":"SOUTH GLAMORGAN","ppdCategoryType":"Standard","recordStatus":"Addition","latitude":51.401097,"longitude":-3.283337,"postcodeStart":"CF62 7","postcode":["CF62","7EL"]}
{"price":80000,"dateOfTransfer":"1996-06-28T00:00:00","postcodeFull":"CF62 7TL","propertyType":"Detached","oldOrNew":"Established","duration":"Freehold","paon":"4","saon":"","street":"TEIFI DRIVE","locality":"BARRY","townOrCity":"BARRY","district":"THE VALE OF GLAMORGAN","county":"THE VALE OF GLAMORGAN","ppdCategoryType":"Standard","recordStatus":"Addition","latitude":51.408191,"longitude":-3.291645,"postcodeStart":"CF62 7","postcode":["CF62","7TL"]}
{"price":60000,"dateOfTransfer":"1996-05-03T00:00:00","postcodeFull":"CF62 7LW","propertyType":"Semi-detached","oldOrNew":"Established","duration":"Freehold","paon":"163","saon":"","street":"PONTYPRIDD ROAD","locality":"BARRY","townOrCity":"BARRY","district":"THE VALE OF GLAMORGAN","county":"THE VALE OF GLAMORGAN","ppdCategoryType":"Standard","recordStatus":"Addition","latitude":51.407859,"longitude":-3.298882,"postcodeStart":"CF62 7","postcode":["CF62","7LW"]}
{"price":66000,"dateOfTransfer":"1996-03-01T00:00:00","postcodeFull":"CF62 7LH","propertyType":"Semi-detached","oldOrNew":"Established","duration":"Freehold","paon":"4","saon":"","street":"ALWEN DRIVE","locality":"BARRY","townOrCity":"BARRY","district":"THE VALE OF GLAMORGAN","county":"THE VALE OF GLAMORGAN","ppdCategoryType":"Standard","recordStatus":"Addition","latitude":51.408426,"longitude":-3.293118,"postcodeStart":"CF62 7","postcode":["CF62","7LH"]}
{"price":41500,"dateOfTransfer":"1996-04-26T00:00:00","postcodeFull":"CF62 7RJ","propertyType":"Terraced","oldOrNew":"Established","duration":"Freehold","paon":"10","saon":"","street":"WELFORD STREET","locality":"BARRY","townOrCity":"BARRY","district":"THE VALE OF GLAMORGAN","county":"THE VALE OF GLAMORGAN","ppdCategoryType":"Standard","recordStatus":"Addition","latitude":51.396478,"longitude":-3.287175,"postcodeStart":"CF62 7","postcode":["CF62","7RJ"]}
{"price":43000,"dateOfTransfer":"1996-02-09T00:00:00","postcodeFull":"CF62 7JE","propertyType":"Semi-detached","oldOrNew":"Established","duration":"Freehold","paon":"17","saon":"","street":"CLAUDE ROAD","locality":"BARRY","townOrCity":"BARRY","district":"VALE OF GLAMORGAN","county":"SOUTH GLAMORGAN","ppdCategoryType":"Standard","recordStatus":"Addition","latitude":51.405779,"longitude":-3.284431,"postcodeStart":"CF62 7","postcode":["CF62","7JE"]}
{"price":52950,"dateOfTransfer":"1996-12-20T00:00:00","postcodeFull":"CF62 7JN","propertyType":"Semi-detached","oldOrNew":"New build","duration":"Freehold","paon":"6","saon":"","street":"BRAMBLE AVENUE","locality":"BARRY","townOrCity":"BARRY","district":"THE VALE OF GLAMORGAN","county":"THE VALE OF GLAMORGAN","ppdCategoryType":"Standard","recordStatus":"Addition","latitude":51.409291,"longitude":-3.287262,"postcodeStart":"CF62 7","postcode":["CF62","7JN"]}
{"price":32000,"dateOfTransfer":"1996-06-06T00:00:00","postcodeFull":"CF62 7AG","propertyType":"Terraced","oldOrNew":"Established","duration":"Freehold","paon":"71","saon":"","street":"BROAD STREET","locality":"BARRY","townOrCity":"BARRY","district":"THE VALE OF GLAMORGAN","county":"THE VALE OF GLAMORGAN","ppdCategoryType":"Standard","recordStatus":"Addition","latitude":51.401947,"longitude":-3.277984,"postcodeStart":"CF62 7","postcode":["CF62","7AG"]}
{"price":42000,"dateOfTransfer":"1996-02-23T00:00:00","postcodeFull":"CF62 7RH","propertyType":"Terraced","oldOrNew":"Established","duration":"Freehold","paon":"28","saon":"","street":"CANON STREET","locality":"BARRY","townOrCity":"BARRY","district":"THE VALE OF GLAMORGAN","county":"THE VALE OF GLAMORGAN","ppdCategoryType":"Standard","recordStatus":"Addition","latitude":51.396843,"longitude":-3.287502,"postcodeStart":"CF62 7","postcode":["CF62","7RH"]}
{"price":85000,"dateOfTransfer":"1996-08-16T00:00:00","postcodeFull":"CF62 7LR","propertyType":"Detached","oldOrNew":"Established","duration":"Leasehold","paon":"16","saon":"","street":"PONTYPRIDD ROAD","locality":"BARRY","townOrCity":"BARRY","district":"THE VALE OF GLAMORGAN","county":"THE VALE OF GLAMORGAN","ppdCategoryType":"Standard","recordStatus":"Addition","latitude":51.403824,"longitude":-3.290544,"postcodeStart":"CF62 7","postcode":["CF62","7LR"]}
{"price":89950,"dateOfTransfer":"1996-08-01T00:00:00","postcodeFull":"CF62 7JQ","propertyType":"Detached","oldOrNew":"New build","duration":"Freehold","paon":"9","saon":"","street":"BLACKBERRY DRIVE","locality":"BARRY","townOrCity":"BARRY","district":"THE VALE OF GLAMORGAN","county":"THE VALE OF GLAMORGAN","ppdCategoryType":"Standard","recordStatus":"Addition","latitude":51.410381,"longitude":-3.288745,"postcodeStart":"CF62 7","postcode":["CF62","7JQ"]}
{"price":21000,"dateOfTransfer":"1996-01-29T00:00:00","postcodeFull":"CF62 7PY","propertyType":"Terraced","oldOrNew":"Established","duration":"Freehold","paon":"1","saon":"","street":"AFAN CLOSE","locality":"BARRY","townOrCity":"BARRY","district":"VALE OF GLAMORGAN","county":"SOUTH GLAMORGAN","ppdCategoryType":"Standard","recordStatus":"Addition","latitude":51.406638,"longitude":-3.288079,"postcodeStart":"CF62 7","postcode":["CF62","7PY"]}
{"price":64500,"dateOfTransfer":"1996-07-11T00:00:00","postcodeFull":"CF62 7JG","propertyType":"Semi-detached","oldOrNew":"Established","duration":"Freehold","paon":"BRYNTEG","saon":"","street":"CLAUDE ROAD WEST","locality":"BARRY","townOrCity":"BARRY","district":"THE VALE OF GLAMORGAN","county":"THE VALE OF GLAMORGAN","ppdCategoryType":"Standard","recordStatus":"Addition","latitude":51.403514,"longitude":-3.286895,"postcodeStart":"CF62 7","postcode":["CF62","7JG"]}
{"price":69950,"dateOfTransfer":"1996-06-28T00:00:00","postcodeFull":"CF62 7JQ","propertyType":"Semi-detached","oldOrNew":"New build","duration":"Freehold","paon":"1","saon":"","street":"BLACKBERRY DRIVE","locality":"BARRY","townOrCity":"BARRY","district":"THE VALE OF GLAMORGAN","county":"THE VALE OF GLAMORGAN","ppdCategoryType":"Standard","recordStatus":"Addition","latitude":51.410381,"longitude":-3.288745,"postcodeStart":"CF62 7","postcode":["CF62","7JQ"]}
{"price":33000,"dateOfTransfer":"1996-10-14T00:00:00","postcodeFull":"CF62 7EX","propertyType":"Terraced","oldOrNew":"Established","duration":"Freehold","paon":"64","saon":"","street":"TRINITY STREET","locality":"BARRY","townOrCity":"BARRY","district":"THE VALE OF GLAMORGAN","county":"THE VALE OF GLAMORGAN","ppdCategoryType":"Standard","recordStatus":"Addition","latitude":51.403701,"longitude":-3.282849,"postcodeStart":"CF62 7","postcode":["CF62","7EX"]}
{"price":53250,"dateOfTransfer":"1996-11-15T00:00:00","postcodeFull":"CF62 7JN","propertyType":"Semi-detached","oldOrNew":"New build","duration":"Freehold","paon":"8","saon":"","street":"BRAMBLE AVENUE","locality":"BARRY","townOrCity":"BARRY","district":"THE VALE OF GLAMORGAN","county":"THE VALE OF GLAMORGAN","ppdCategoryType":"Standard","recordStatus":"Addition","latitude":51.409291,"longitude":-3.287262,"postcodeStart":"CF62 7","postcode":["CF62","7JN"]}
{"price":52750,"dateOfTransfer":"1996-11-15T00:00:00","postcodeFull":"CF62 7JQ","propertyType":"Semi-detached","oldOrNew":"New build","duration":"Freehold","paon":"13","saon":"","street":"BLACKBERRY DRIVE","locality":"BARRY","townOrCity":"BARRY","district":"THE VALE OF GLAMORGAN","county":"THE VALE OF GLAMORGAN","ppdCategoryType":"Standard","recordStatus":"Addition","latitude":51.410381,"longitude":-3.288745,"postcodeStart":"CF62 7","postcode":["CF62","7JQ"]}
{"price":76000,"dateOfTransfer":"1996-05-24T00:00:00","postcodeFull":"CF62 7NH","propertyType":"Detached","oldOrNew":"Established","duration":"Freehold","paon":"2","saon":"","street":"ST BRANNOCKS CLOSE","locality":"BARRY","townOrCity":"BARRY","district":"THE VALE OF GLAMORGAN","county":"THE VALE OF GLAMORGAN","ppdCategoryType":"Standard","recordStatus":"Addition","latitude":51.407012,"longitude":-3.293294,"postcodeStart":"CF62 7","postcode":["CF62","7NH"]}
{"price":63950,"dateOfTransfer":"1997-11-28T00:00:00","postcodeFull":"CF62 7JP","propertyType":"Semi-detached","oldOrNew":"New build","duration":"Freehold","paon":"18","saon":"","street":"THISTLE CLOSE","locality":"BARRY","townOrCity":"BARRY","district":"THE VALE OF GLAMORGAN","county":"THE VALE OF GLAMORGAN","ppdCategoryType":"Standard","recordStatus":"Addition","latitude":51.410222,"longitude":-3.287633,"postcodeStart":"CF62 7","postcode":["CF62","7JP"]}
{"price":48500,"dateOfTransfer":"1997-12-12T00:00:00","postcodeFull":"CF62 7JP","propertyType":"Semi-detached","oldOrNew":"New build","duration":"Freehold","paon":"7","saon":"","street":"THISTLE CLOSE","locality":"BARRY","townOrCity":"BARRY","district":"THE VALE OF GLAMORGAN","county":"THE VALE OF GLAMORGAN","ppdCategoryType":"Standard","recordStatus":"Addition","latitude":51.410222,"longitude":-3.287633,"postcodeStart":"CF62 7","postcode":["CF62","7JP"]}
{"price":55000,"dateOfTransfer":"1997-08-01T00:00:00","postcodeFull":"CF62 7QU","propertyType":"Detached","oldOrNew":"Established","duration":"Freehold","paon":"8","saon":"","street":"TAF CLOSE","locality":"BARRY","townOrCity":"BARRY","district":"THE VALE OF GLAMORGAN","county":"THE VALE OF GLAMORGAN","ppdCategoryType":"Standard","recordStatus":"Addition","latitude":51.409861,"longitude":-3.291059,"postcodeStart":"CF62 7","postcode":["CF62","7QU"]}
{"price":67950,"dateOfTransfer":"1997-06-27T00:00:00","postcodeFull":"CF62 7JN","propertyType":"Detached","oldOrNew":"New build","duration":"Freehold","paon":"26","saon":"","street":"BRAMBLE AVENUE","locality":"BARRY","townOrCity":"BARRY","district":"THE VALE OF GLAMORGAN","county":"THE VALE OF GLAMORGAN","ppdCategoryType":"Standard","recordStatus":"Addition","latitude":51.409291,"longitude":-3.287262,"postcodeStart":"CF62 7","postcode":["CF62","7JN"]}
{"price":45000,"dateOfTransfer":"1997-07-11T00:00:00","postcodeFull":"CF62 7DS","propertyType":"Terraced","oldOrNew":"Established","duration":"Freehold","paon":"107","saon":"","street":"HIGH STREET","locality":"BARRY","townOrCity":"BARRY","district":"THE VALE OF GLAMORGAN","county":"THE VALE OF GLAMORGAN","ppdCategoryType":"Standard","recordStatus":"Addition","latitude":51.40057,"longitude":-3.282111,"postcodeStart":"CF62 7","postcode":["CF62","7DS"]}
{"price":58000,"dateOfTransfer":"1997-10-24T00:00:00","postcodeFull":"CF62 7RH","propertyType":"Terraced","oldOrNew":"Established","duration":"Freehold","paon":"7","saon":"","street":"CANON STREET","locality":"BARRY","townOrCity":"BARRY","district":"THE VALE OF GLAMORGAN","county":"THE VALE OF GLAMORGAN","ppdCategoryType":"Standard","recordStatus":"Addition","latitude":51.396843,"longitude":-3.287502,"postcodeStart":"CF62 7","postcode":["CF62","7RH"]}
{"price":30000,"dateOfTransfer":"1997-11-28T00:00:00","postcodeFull":"CF62 7DU","propertyType":"Terraced","oldOrNew":"Established","duration":"Freehold","paon":"54","saon":"","street":"HIGH STREET","locality":"BARRY","townOrCity":"BARRY","district":"THE VALE OF GLAMORGAN","county":"THE VALE OF GLAMORGAN","ppdCategoryType":"Standard","recordStatus":"Addition","latitude":51.40141,"longitude":-3.281074,"postcodeStart":"CF62 7","postcode":["CF62","7DU"]}
{"price":75950,"dateOfTransfer":"1997-08-15T00:00:00","postcodeFull":"CF62 7JG","propertyType":"Terraced","oldOrNew":"Established","duration":"Freehold","paon":"HILLBROOK","saon":"","street":"CLAUDE ROAD WEST","locality":"BARRY","townOrCity":"BARRY","district":"THE VALE OF GLAMORGAN","county":"THE VALE OF GLAMORGAN","ppdCategoryType":"Standard","recordStatus":"Addition","latitude":51.403514,"longitude":-3.286895,"postcodeStart":"CF62 7","postcode":["CF62","7JG"]}
{"price":52950,"dateOfTransfer":"1997-02-28T00:00:00","postcodeFull":"CF62 7JN","propertyType":"Semi-detached","oldOrNew":"New build","duration":"Freehold","paon":"35","saon":"","street":"BRAMBLE AVENUE","locality":"BARRY","townOrCity":"BARRY","district":"THE VALE OF GLAMORGAN","county":"THE VALE OF GLAMORGAN","ppdCategoryType":"Standard","recordStatus":"Addition","latitude":51.409291,"longitude":-3.287262,"postcodeStart":"CF62 7","postcode":["CF62","7JN"]}
{"price":46000,"dateOfTransfer":"1997-10-28T00:00:00","postcodeFull":"CF62 7TL","propertyType":"Semi-detached","oldOrNew":"Established","duration":"Freehold","paon":"28","saon":"","street":"TEIFI DRIVE","locality":"BARRY","townOrCity":"BARRY","district":"THE VALE OF GLAMORGAN","county":"THE VALE OF GLAMORGAN","ppdCategoryType":"Standard","recordStatus":"Addition","latitude":51.408191,"longitude":-3.291645,"postcodeStart":"CF62 7","postcode":["CF62","7TL"]}
{"price":73500,"dateOfTransfer":"1997-03-21T00:00:00","postcodeFull":"CF62 7BL","propertyType":"Detached","oldOrNew":"Established","duration":"Freehold","paon":"19","saon":"","street":"BRENIG CLOSE","locality":"BARRY","townOrCity":"BARRY","district":"THE VALE OF GLAMORGAN","county":"THE VALE OF GLAMORGAN","ppdCategoryType":"Standard","recordStatus":"Addition","latitude":51.41169,"longitude":-3.292362,"postcodeStart":"CF62 7","postcode":["CF62","7BL"]}
{"price":33000,"dateOfTransfer":"1997-12-12T00:00:00","postcodeFull":"CF62 7EL","propertyType":"Terraced","oldOrNew":"Established","duration":"Freehold","paon":"60","saon":"","street":"PRINCES STREET","locality":"BARRY","townOrCity":"BARRY","district":"THE VALE OF GLAMORGAN","county":"THE VALE OF GLAMORGAN","ppdCategoryType":"Standard","recordStatus":"Addition","latitude":51.401097,"longitude":-3.283337,"postcodeStart":"CF62 7","postcode":["CF62","7EL"]}
{"price":25525,"dateOfTransfer":"1997-02-14T00:00:00","postcodeFull":"CF62 7EQ","propertyType":"Terraced","oldOrNew":"Established","duration":"Freehold","paon":"65","saon":"","street":"PORTHKERRY ROAD","locality":"BARRY","townOrCity":"BARRY","district":"THE VALE OF GLAMORGAN","county":"THE VALE OF GLAMORGAN","ppdCategoryType":"Standard","recordStatus":"Addition","latitude":51.401969,"longitude":-3.283347,"postcodeStart":"CF62 7","postcode":["CF62","7EQ"]}
{"price":46500,"dateOfTransfer":"1997-09-01T00:00:00","postcodeFull":"CF62 7RG","propertyType":"Terraced","oldOrNew":"Established","duration":"Freehold","paon":"14","saon":"","street":"CLIFTON STREET","locality":"BARRY","townOrCity":"BARRY","district":"THE VALE OF GLAMORGAN","county":"THE VALE OF GLAMORGAN","ppdCategoryType":"Standard","recordStatus":"Addition","latitude":51.39621,"longitude":-3.2878,"postcodeStart":"CF62 7","postcode":["CF62","7RG"]}
