{"price":49950,"dateOfTransfer":"1995-08-15T00:00:00","postcodeFull":"CT19 6PN","propertyType":"Terraced","oldOrNew":"Established","duration":"Freehold","paon":"26","saon":"","street":"HOLLANDS AVENUE","locality":"FOLKESTONE","townOrCity":"FOLKESTONE","district":"SHEPWAY","county":"KENT","ppdCategoryType":"Standard","recordStatus":"Addition","latitude":51.093001,"longitude":1.196371,"postcodeStart":"CT19 6","postcode":["CT19","6PN"]}
{"price":34000,"dateOfTransfer":"1995-08-23T00:00:00","postcodeFull":"CT19 6EE","propertyType":"Terraced","oldOrNew":"Established","duration":"Freehold","paon":"11","saon":"","street":"MYRTLE ROAD","locality":"FOLKESTONE","townOrCity":"FOLKESTONE","district":"SHEPWAY","county":"KENT","ppdCategoryType":"Standard","recordStatus":"Addition","latitude":51.088021,"longitude":1.187044,"postcodeStart":"CT19 6","postcode":["CT19","6EE"]}
{"price":28700,"dateOfTransfer":"1995-05-17T00:00:00","postcodeFull":"CT19 6NG","propertyType":"Terraced","oldOrNew":"Established","duration":"Freehold","paon":"149","saon":"","street":"DOVER ROAD","locality":"FOLKESTONE","townOrCity":"FOLKESTONE","district":"SHEPWAY","county":"KENT","ppdCategoryType":"Standard","recordStatus":"Addition","latitude":51.087627,"longitude":1.187303,"postcodeStart":"CT19 6","postcode":["CT19","6NG"]}
{"price":39000,"dateOfTransfer":"1995-07-25T00:00:00","postcodeFull":"CT19 6JN","propertyType":"Semi-detached","oldOrNew":"Established","duration":"Freehold","paon":"80","saon":"","street":"WOOD AVENUE","locality":"FOLKESTONE","townOrCity":"FOLKESTONE","district":"SHEPWAY","county":"KENT","ppdCategoryType":"Standard","recordStatus":"Addition","latitude":51.091145,"longitude":1.187944,"postcodeStart":"CT19 6","postcode":["CT19","6JN"]}
{"price":38000,"dateOfTransfer":"1995-12-08T00:00:00","postcodeFull":"CT19 6EY","propertyType":"Terraced","oldOrNew":"Established","duration":"Freehold","paon":"24","saon":"","street":"INVICTA ROAD","locality":"FOLKESTONE","townOrCity":"FOLKESTONE","district":"SHEPWAY","county":"KENT","ppdCategoryType":"Standard","recordStatus":"Addition","latitude":51.090287,"longitude":1.182458,"postcodeStart":"CT19 6","postcode":["CT19","6EY"]}
{"price":32500,"dateOfTransfer":"1995-03-31T00:00:00","postcodeFull":"CT19 6HG","propertyType":"Semi-detached","oldOrNew":"Established","duration":"Freehold","paon":"22A","saon":"","street":"SIDNEY STREET","locality":"FOLKESTONE","townOrCity":"FOLKESTONE","district":"SHEPWAY","county":"KENT","ppdCategoryType":"Standard","recordStatus":"Addition","latitude":51.089326,"longitude":1.184691,"postcodeStart":"CT19 6","postcode":["CT19","6HG"]}
{"price":72000,"dateOfTransfer":"1995-06-09T00:00:00","postcodeFull":"CT19 6DT","propertyType":"Semi-detached","oldOrNew":"Established","duration":"Freehold","paon":"53","saon":"","street":"WARREN WAY","locality":"FOLKESTONE","townOrCity":"FOLKESTONE","district":"SHEPWAY","county":"KENT","ppdCategoryType":"Standard","recordStatus":"Addition","latitude":51.087876,"longitude":1.194318,"postcodeStart":"CT19 6","postcode":["CT19","6DT"]}
{"price":30000,"dateOfTransfer":"1995-08-14T00:00:00","postcodeFull":"CT19 6QT","propertyType":"Flat/Maisonette/Townhouse","oldOrNew":"Established","duration":"Leasehold","paon":"30","saon":"","street":"LAWRENCE COURT","locality":"FOLKESTONE","townOrCity":"FOLKESTONE","district":"SHEPWAY","county":"KENT","ppdCategoryType":"Standard","recordStatus":"Addition","latitude":51.087969,"longitude":1.188269,"postcodeStart":"CT19 6","postcode":["CT19","6QT"]}
{"price":26500,"dateOfTransfer":"1995-09-01T00:00:00","postcodeFull":"CT19 6EN","propertyType":"Terraced","oldOrNew":"Established","duration":"Freehold","paon":"14","saon":"","street":"MARSHALL STREET","locality":"FOLKESTONE","townOrCity":"FOLKESTONE","district":"SHEPWAY","county":"KENT","ppdCategoryType":"Standard","recordStatus":"Addition","latitude":51.08952,"longitude":1.182534,"postcodeStart":"CT19 6","postcode":["CT19","6EN"]}
{"price":74500,"dateOfTransfer":"1995-09-29T00:00:00","postcodeFull":"CT19 6AZ","propertyType":"Semi-detached","oldOrNew":"Established","duration":"Freehold","paon":"22","saon":"","street":"SEGRAVE CRESCENT","locality":"FOLKESTONE","townOrCity":"FOLKESTONE","district":"SHEPWAY","county":"KENT","ppdCategoryType":"Standard","recordStatus":"Addition","latitude":51.08454,"longitude":1.191632,"postcodeStart":"CT19 6","postcode":["CT19","6AZ"]}
{"price":39000,"dateOfTransfer":"1995-08-18T00:00:00","postcodeFull":"CT19 6EU","propertyType":"Terraced","oldOrNew":"Established","duration":"Freehold","paon":"25","saon":"","street":"ATHELSTAN ROAD","locality":"FOLKESTONE","townOrCity":"FOLKESTONE","district":"SHEPWAY","county":"KENT","ppdCategoryType":"Standard","recordStatus":"Addition","latitude":51.091137,"longitude":1.182945,"postcodeStart":"CT19 6","postcode":["CT19","6EU"]}
{"price":45000,"dateOfTransfer":"1995-09-29T00:00:00","postcodeFull":"CT19 6HT","propertyType":"Semi-detached","oldOrNew":"Established","duration":"Freehold","paon":"5","saon":"","street":"WOOD AVENUE","locality":"FOLKESTONE","townOrCity":"FOLKESTONE","district":"SHEPWAY","county":"KENT","ppdCategoryType":"Standard","recordStatus":"Addition","latitude":51.093288,"longitude":1.18225,"postcodeStart":"CT19 6","postcode":["CT19","6HT"]}
{"price":85000,"dateOfTransfer":"1995-08-18T00:00:00","postcodeFull":"CT19 6PE","propertyType":"Detached","oldOrNew":"Established","duration":"Freehold","paon":"171","saon":"","street":"WEAR BAY ROAD","locality":"FOLKESTONE","townOrCity":"FOLKESTONE","district":"SHEPWAY","county":"KENT","ppdCategoryType":"Standard","recordStatus":"Addition","latitude":51.091643,"longitude":1.192092,"postcodeStart":"CT19 6","postcode":["CT19","6PE"]}
{"price":34000,"dateOfTransfer":"1995-11-24T00:00:00","postcodeFull":"CT19 6QT","propertyType":"Flat/Maisonette/Townhouse","oldOrNew":"Established","duration":"Leasehold","paon":"16","saon":"","street":"LAWRENCE COURT","locality":"FOLKESTONE","townOrCity":"FOLKESTONE","district":"SHEPWAY","county":"KENT","ppdCategoryType":"Standard","recordStatus":"Addition","latitude":51.087969,"longitude":1.188269,"postcodeStart":"CT19 6","postcode":["CT19","6QT"]}
{"price":20000,"dateOfTransfer":"1995-07-10T00:00:00","postcodeFull":"CT19 6NG","propertyType":"Terraced","oldOrNew":"Established","duration":"Freehold","paon":"167","saon":"","street":"DOVER ROAD","locality":"FOLKESTONE","townOrCity":"FOLKESTONE","district":"SHEPWAY","county":"KENT","ppdCategoryType":"Standard","recordStatus":"Addition","latitude":51.087627,"longitude":1.187303,"postcodeStart":"CT19 6","postcode":["CT19","6NG"]}
{"price":38500,"dateOfTransfer":"1995-02-22T00:00:00","postcodeFull":"CT19 6NB","propertyType":"Semi-detached","oldOrNew":"Established","duration":"Freehold","paon":"77","saon":"","street":"HILL ROAD","locality":"FOLKESTONE","townOrCity":"FOLKESTONE","district":"SHEPWAY","county":"KENT","ppdCategoryType":"Standard","recordStatus":"Addition","latitude":51.093404,"longitude":1.187543,"postcodeStart":"CT19 6","postcode":["CT19","6NB"]}
{"price":36500,"dateOfTransfer":"1995-10-30T00:00:00","postcodeFull":"CT19 6JH","propertyType":"Terraced","oldOrNew":"Established","duration":"Freehold","paon":"67A","saon":"","street":"WOOD AVENUE","locality":"FOLKESTONE","townOrCity":"FOLKESTONE","district":"SHEPWAY","county":"KENT","ppdCategoryType":"Standard","recordStatus":"Addition","latitude":51.092107,"longitude":1.185982,"postcodeStart":"CT19 6","postcode":["CT19","6JH"]}
{"price":39000,"dateOfTransfer":"1995-10-31T00:00:00","postcodeFull":"CT19 6HG","propertyType":"Terraced","oldOrNew":"Established","duration":"Freehold","paon":"85","saon":"","street":"SIDNEY STREET","locality":"FOLKESTONE","townOrCity":"FOLKESTONE","district":"SHEPWAY","county":"KENT","ppdCategoryType":"Standard","recordStatus":"Addition","latitude":51.089326,"longitude":1.184691,"postcodeStart":"CT19 6","postcode":["CT19","6HG"]}
{"price":51500,"dateOfTransfer":"1995-12-18T00:00:00","postcodeFull":"CT19 6HQ","propertyType":"Terraced","oldOrNew":"Established","duration":"Freehold","paon":"99","saon":"","street":"SIDNEY STREET","locality":"FOLKESTONE","townOrCity":"FOLKESTONE","district":"SHEPWAY","county":"KENT","ppdCategoryType":"Standard","recordStatus":"Addition","latitude":51.090332,"longitude":1.185934,"postcodeStart":"CT19 6","postcode":["CT19","6HQ"]}
{"price":18000,"dateOfTransfer":"1995-09-15T00:00:00","postcodeFull":"CT19 6EB","propertyType":"Terraced","oldOrNew":"Established","duration":"Freehold","paon":"8","saon":"","street":"PRINCESS STREET","locality":"FOLKESTONE","townOrCity":"FOLKESTONE","district":"SHEPWAY","county":"KENT","ppdCategoryType":"Standard","recordStatus":"Addition","latitude":51.08775,"longitude":1.1866,"postcodeStart":"CT19 6","postcode":["CT19","6EB"]}
{"price":59000,"dateOfTransfer":"1995-09-07T00:00:00","postcodeFull":"CT19 6PU","propertyType":"Terraced","oldOrNew":"Established","duration":"Freehold","paon":"50","saon":"","street":"WEAR BAY ROAD","locality":"FOLKESTONE","townOrCity":"FOLKESTONE","district":"SHEPWAY","county":"KENT","ppdCategoryType":"Standard","recordStatus":"Addition","latitude":51.088132,"longitude":1.197408,"postcodeStart":"CT19 6","postcode":["CT19","6PU"]}
{"price":28000,"dateOfTransfer":"1995-01-20T00:00:00","postcodeFull":"CT19 6QT","propertyType":"Flat/Maisonette/Townhouse","oldOrNew":"Established","duration":"Leasehold","paon":"4","saon":"","street":"LAWRENCE COURT","locality":"FOLKESTONE","townOrCity":"FOLKESTONE","district":"SHEPWAY","county":"KENT","ppdCategoryType":"Standard","recordStatus":"Addition","latitude":51.087969,"longitude":1.188269,"postcodeStart":"CT19 6","postcode":["CT19","6QT"]}
{"price":20000,"dateOfTransfer":"1995-05-30T00:00:00","postcodeFull":"CT19 6AG","propertyType":"Flat/Maisonette/Townhouse","oldOrNew":"Established","duration":"Leasehold","paon":"CHANNEL VIEW","saon":"5","street":"NORTH STREET","locality":"FOLKESTONE","townOrCity":"FOLKESTONE","district":"SHEPWAY","county":"KENT","ppdCategoryType":"Standard","recordStatus":"Addition","latitude":51.081096,"longitude":1.186682,"postcodeStart":"CT19 6","postcode":["CT19","6AG"]}
{"price":39950,"dateOfTransfer":"1995-10-27T00:00:00","postcodeFull":"CT19 6EN","propertyType":"Terraced","oldOrNew":"Established","duration":"Freehold","paon":"20","saon":"","street":"MARSHALL STREET","locality":"FOLKESTONE","townOrCity":"FOLKESTONE","district":"SHEPWAY","county":"KENT","ppdCategoryType":"Standard","recordStatus":"Addition","latitude":51.08952,"longitude":1.182534,"postcodeStart":"CT19 6","postcode":["CT19","6EN"]}
{"price":25400,"dateOfTransfer":"1995-08-29T00:00:00","postcodeFull":"CT19 6BX","propertyType":"Terraced","oldOrNew":"Established","duration":"Freehold","paon":"41","saon":"","street":"EAST CLIFF","locality":"FOLKESTONE","townOrCity":"FOLKESTONE","district":"SHEPWAY","county":"KENT","ppdCategoryType":"Standard","recordStatus":"Addition","latitude":51.08317,"longitude":1.190095,"postcodeStart":"CT19 6","postcode":["CT19","6BX"]}
{"price":36000,"dateOfTransfer":"1995-07-31T00:00:00","postcodeFull":"CT19 6JR","propertyType":"Semi-detached","oldOrNew":"Established","duration":"Freehold","paon":"37","saon":"","street":"TYSON ROAD","locality":"FOLKESTONE","townOrCity":"FOLKESTONE","district":"SHEPWAY","county":"KENT","ppdCategoryType":"Standard","recordStatus":"Addition","latitude":51.091325,"longitude":1.189228,"postcodeStart":"CT19 6","postcode":["CT19","6JR"]}
{"price":41000,"dateOfTransfer":"1995-02-23T00:00:00","postcodeFull":"CT19 6NX","propertyType":"Semi-detached","oldOrNew":"Established","duration":"Freehold","paon":"30","saon":"","street":"JOYES ROAD","locality":"FOLKESTONE","townOrCity":"FOLKESTONE","district":"SHEPWAY","county":"KENT","ppdCategoryType":"Standard","recordStatus":"Addition","latitude":51.090078,"longitude":1.187143,"postcodeStart":"CT19 6","postcode":["CT19","6NX"]}
{"price":20000,"dateOfTransfer":"1995-01-09T00:00:00","postcodeFull":"CT19 6LB","propertyType":"Flat/Maisonette/Townhouse","oldOrNew":"Established","duration":"Leasehold","paon":"91","saon":"","street":"HOLYWELL AVENUE","locality":"FOLKESTONE","townOrCity":"FOLKESTONE","district":"SHEPWAY","county":"KENT","ppdCategoryType":"Standard","recordStatus":"Addition","latitude":51.095587,"longitude":1.176108,"postcodeStart":"CT19 6","postcode":["CT19","6LB"]}
{"price":39950,"dateOfTransfer":"1995-07-04T00:00:00","postcodeFull":"CT19 6BX","propertyType":"Terraced","oldOrNew":"Established","duration":"Freehold","paon":"61","saon":"","street":"EAST CLIFF","locality":"FOLKESTONE","townOrCity":"FOLKESTONE","district":"SHEPWAY","county":"KENT","ppdCategoryType":"Standard","recordStatus":"Addition","latitude":51.08317,"longitude":1.190095,"postcodeStart":"CT19 6","postcode":["CT19","6BX"]}
{"price":41000,"dateOfTransfer":"1995-12-22T00:00:00","postcodeFull":"CT19 6JY","propertyType":"Terraced","oldOrNew":"Established","duration":"Freehold","paon":"7","saon":"","street":"HOLYWELL AVENUE","locality":"FOLKESTONE","townOrCity":"FOLKESTONE","district":"SHEPWAY","county":"KENT","ppdCategoryType":"Standard","recordStatus":"Addition","latitude":51.095583,"longitude":1.178565,"postcodeStart":"CT19 6","postcode":["CT19","6JY"]}
{"price":40000,"dateOfTransfer":"1995-08-25T00:00:00","postcodeFull":"CT19 6EE","propertyType":"Terraced","oldOrNew":"Established","duration":"Freehold","paon":"9","saon":"","street":"MYRTLE ROAD","locality":"FOLKESTONE","townOrCity":"FOLKESTONE","district":"SHEPWAY","county":"KENT","ppdCategoryType":"Standard","recordStatus":"Addition","latitude":51.088021,"longitude":1.187044,"postcodeStart":"CT19 6","postcode":["CT19","6EE"]}
{"price":54000,"dateOfTransfer":"1995-04-06T00:00:00","postcodeFull":"CT19 6BA","propertyType":"Semi-detached","oldOrNew":"Established","duration":"Freehold","paon":"56","saon":"","street":"WEAR BAY CRESCENT","locality":"FOLKESTONE","townOrCity":"FOLKESTONE","district":"SHEPWAY","county":"KENT","ppdCategoryType":"Standard","recordStatus":"Addition","latitude":51.085373,"longitude":1.192432,"postcodeStart":"CT19 6","postcode":["CT19","6BA"]}
{"price":41000,"dateOfTransfer":"1995-11-30T00:00:00","postcodeFull":"CT19 6DE","propertyType":"Terraced","oldOrNew":"Established","duration":"Freehold","paon":"14","saon":"","street":"WARREN ROAD","locality":"FOLKESTONE","townOrCity":"FOLKESTONE","district":"SHEPWAY","county":"KENT","ppdCategoryType":"Standard","recordStatus":"Addition","latitude":51.086251,"longitude":1.190907,"postcodeStart":"CT19 6","postcode":["CT19","6DE"]}
{"price":70000,"dateOfTransfer":"1995-10-18T00:00:00","postcodeFull":"CT19 6AB","propertyType":"Terraced","oldOrNew":"Established","duration":"Freehold","paon":"9","saon":"","street":"THE STADE","locality":"FOLKESTONE","townOrCity":"FOLKESTONE","district":"SHEPWAY","county":"KENT","ppdCategoryType":"Standard","recordStatus":"Addition","latitude":51.080819,"longitude":1.188562,"postcodeStart":"CT19 6","postcode":["CT19","6AB"]}
{"price":33750,"dateOfTransfer":"1995-07-28T00:00:00","postcodeFull":"CT19 6EE","propertyType":"Semi-detached","oldOrNew":"Established","duration":"Freehold","paon":"3","saon":"","street":"MYRTLE ROAD","locality":"FOLKESTONE","townOrCity":"FOLKESTONE","district":"SHEPWAY","county":"KENT","ppdCategoryType":"Standard","recordStatus":"Addition","latitude":51.088021,"longitude":1.187044,"postcodeStart":"CT19 6","postcode":["CT19","6EE"]}
{"price":41000,"dateOfTransfer":"1995-07-28T00:00:00","postcodeFull":"CT19 6BX","propertyType":"Terraced","oldOrNew":"Established","duration":"Freehold","paon":"40","saon":"","street":"EAST CLIFF","locality":"FOLKESTONE","townOrCity":"FOLKESTONE","district":"SHEPWAY","county":"KENT","ppdCategoryType":"Standard","recordStatus":"Addition","latitude":51.08317,"longitude":1.190095,"postcodeStart":"CT19 6","postcode":["CT19","6BX"]}
{"price":31000,"dateOfTransfer":"1995-04-28T00:00:00","postcodeFull":"CT19 6HQ","propertyType":"Terraced","oldOrNew":"Established","duration":"Freehold","paon":"95","saon":"","street":"SIDNEY STREET","locality":"FOLKESTONE","townOrCity":"FOLKESTONE","district":"SHEPWAY","county":"KENT","ppdCategoryType":"Standard","recordStatus":"Addition","latitude":51.090332,"longitude":1.185934,"postcodeStart":"CT19 6","postcode":["CT19","6HQ"]}
{"price":38500,"dateOfTransfer":"1995-12-08T00:00:00","postcodeFull":"CT19 6JZ","propertyType":"Semi-detached","oldOrNew":"Established","duration":"Freehold","paon":"32","saon":"","street":"HOLYWELL AVENUE","locality":"FOLKESTONE","townOrCity":"FOLKESTONE","district":"SHEPWAY","county":"KENT","ppdCategoryType":"Standard","recordStatus":"Addition","latitude":51.095917,"longitude":1.178859,"postcodeStart":"CT19 6","postcode":["CT19","6JZ"]}
{"price":73950,"dateOfTransfer":"1995-03-06T00:00:00","postcodeFull":"CT19 6NZ","propertyType":"Semi-detached","oldOrNew":"Established","duration":"Freehold","paon":"308","saon":"","street":"DOVER ROAD","locality":"FOLKESTONE","townOrCity":"FOLKESTONE","district":"SHEPWAY","county":"KENT","ppdCategoryType":"Standard","recordStatus":"Addition","latitude":51.092787,"longitude":1.191357,"postcodeStart":"CT19 6","postcode":["CT19","6NZ"]}
{"price":18000,"dateOfTransfer":"1995-11-17T00:00:00","postcodeFull":"CT19 6LB","propertyType":"Flat/Maisonette/Townhouse","oldOrNew":"Established","duration":"Leasehold","paon":"101","saon":"","street":"HOLYWELL AVENUE","locality":"FOLKESTONE","townOrCity":"FOLKESTONE","district":"SHEPWAY","county":"KENT","ppdCategoryType":"Standard","recordStatus":"Addition","latitude":51.095587,"longitude":1.176108,"postcodeStart":"CT19 6","postcode":["CT19","6LB"]}
{"price":45000,"dateOfTransfer":"1995-07-05T00:00:00","postcodeFull":"CT19 6DL","propertyType":"Terraced","oldOrNew":"Established","duration":"Freehold","paon":"61","saon":"","street":"WARREN ROAD","locality":"FOLKESTONE","townOrCity":"FOLKESTONE","district":"SHEPWAY","county":"KENT","ppdCategoryType":"Standard","recordStatus":"Addition","latitude":51.085968,"longitude":1.192044,"postcodeStart":"CT19 6","postcode":["CT19","6DL"]}
{"price":30000,"dateOfTransfer":"1995-06-19T00:00:00","postcodeFull":"CT19 6QU","propertyType":"Flat/Maisonette/Townhouse","oldOrNew":"Established","duration":"Leasehold","paon":"43","saon":"","street":"LAWRENCE COURT","locality":"FOLKESTONE","townOrCity":"FOLKESTONE","district":"SHEPWAY","county":"KENT","ppdCategoryType":"Standard","recordStatus":"Addition","latitude":51.087435,"longitude":1.188061,"postcodeStart":"CT19 6","postcode":["CT19","6QU"]}
{"price":39000,"dateOfTransfer":"1995-04-25T00:00:00","postcodeFull":"CT19 6EJ","propertyType":"Terraced","oldOrNew":"Established","duration":"Freehold","paon":"18","saon":"","street":"DENMARK STREET","locality":"FOLKESTONE","townOrCity":"FOLKESTONE","district":"SHEPWAY","county":"KENT","ppdCategoryType":"Standard","recordStatus":"Addition","latitude":51.087986,"longitude":1.185685,"postcodeStart":"CT19 6","postcode":["CT19","6EJ"]}
{"price":41500,"dateOfTransfer":"1995-05-25T00:00:00","postcodeFull":"CT19 6LD","propertyType":"Terraced","oldOrNew":"Established","duration":"Freehold","paon":"66","saon":"","street":"HOLYWELL AVENUE","locality":"FOLKESTONE","townOrCity":"FOLKESTONE","district":"SHEPWAY","county":"KENT","ppdCategoryType":"Standard","recordStatus":"Addition","latitude":51.095843,"longitude":1.175611,"postcodeStart":"CT19 6","postcode":["CT19","6LD"]}
{"price":38500,"dateOfTransfer":"1995-02-24T00:00:00","postcodeFull":"CT19 6BZ","propertyType":"Terraced","oldOrNew":"Established","duration":"Freehold","paon":"13","saon":"","street":"DUDLEY ROAD","locality":"FOLKESTONE","townOrCity":"FOLKESTONE","district":"SHEPWAY","county":"KENT","ppdCategoryType":"Standard","recordStatus":"Addition","latitude":51.083579,"longitude":1.189281,"postcodeStart":"CT19 6","postcode":["CT19","6BZ"]}
{"price":18500,"dateOfTransfer":"1995-02-24T00:00:00","postcodeFull":"CT19 6AP","propertyType":"Flat/Maisonette/Townhouse","oldOrNew":"Established","duration":"Leasehold","paon":"12","saon":"GROUND FLOOR FLAT","street":"EAST CLIFF GARDENS","locality":"FOLKESTONE","townOrCity":"FOLKESTONE","district":"SHEPWAY","county":"KENT","ppdCategoryType":"Standard","recordStatus":"Addition","latitude":51.08252,"longitude":1.187894,"postcodeStart":"CT19 6","postcode":["CT19","6AP"]}
{"price":42500,"dateOfTransfer":"1995-10-27T00:00:00","postcodeFull":"CT19 6JR","propertyType":"Terraced","oldOrNew":"Established","duration":"Freehold","paon":"30","saon":"","street":"TYSON ROAD","locality":"FOLKESTONE","townOrCity":"FOLKESTONE","district":"SHEPWAY","county":"KENT","ppdCategoryType":"Standard","recordStatus":"Addition","latitude":51.091325,"longitude":1.189228,"postcodeStart":"CT19 6","postcode":["CT19","6JR"]}
{"price":50000,"dateOfTransfer":"1995-06-16T00:00:00","postcodeFull":"CT19 6PZ","propertyType":"Semi-detached","oldOrNew":"Established","duration":"Freehold","paon":"164","saon":"","street":"WEAR BAY ROAD","locality":"FOLKESTONE","townOrCity":"FOLKESTONE","district":"SHEPWAY","county":"KENT","ppdCategoryType":"Standard","recordStatus":"Addition","latitude":51.091986,"longitude":1.19303,"postcodeStart":"CT19 6","postcode":["CT19","6PZ"]}
{"price":65000,"dateOfTransfer":"1995-12-08T00:00:00","postcodeFull":"CT19 6PR","propertyType":"Detached","oldOrNew":"Established","duration":"Freehold","paon":"89","saon":"","street":"WEAR BAY ROAD","locality":"FOLKESTONE","townOrCity":"FOLKESTONE","district":"SHEPWAY","county":"KENT","ppdCategoryType":"Standard","recordStatus":"Addition","latitude":51.090514,"longitude":1.197528,"postcodeStart":"CT19 6","postcode":["CT19","6PR"]}
{"price":32000,"dateOfTransfer":"1995-11-17T00:00:00","postcodeFull":"CT19 6AW","propertyType":"Flat/Maisonette/Townhouse","oldOrNew":"Established","duration":"Leasehold","paon":"ST ANDREWS","saon":"FLAT 4","street":"THE DURLOCKS","locality":"FOLKESTONE","townOrCity":"FOLKESTONE","district":"SHEPWAY","county":"KENT","ppdCategoryType":"Standard","recordStatus":"Addition","latitude":51.081763,"longitude":1.188445,"postcodeStart":"CT19 6","postcode":["CT19","6AW"]}
{"price":35000,"dateOfTransfer":"1995-07-14T00:00:00","postcodeFull":"CT19 6LW","propertyType":"Terraced","oldOrNew":"Established","duration":"Freehold","paon":"12","saon":"","street":"BRABNER CLOSE","locality":"FOLKESTONE","townOrCity":"FOLKESTONE","district":"SHEPWAY","county":"KENT","ppdCategoryType":"Standard","recordStatus":"Addition","latitude":51.095457,"longitude":1.186156,"postcodeStart":"CT19 6","postcode":["CT19","6LW"]}
{"price":24000,"dateOfTransfer":"1995-07-13T00:00:00","postcodeFull":"CT19 6EF","propertyType":"Terraced","oldOrNew":"Established","duration":"Freehold","paon":"11","saon":"","street":"ALEXANDRA STREET","locality":"FOLKESTONE","townOrCity":"FOLKESTONE","district":"SHEPWAY","county":"KENT","ppdCategoryType":"Standard","recordStatus":"Addition","latitude":51.088208,"longitude":1.1871,"postcodeStart":"CT19 6","postcode":["CT19","6EF"]}
{"price":35000,"dateOfTransfer":"1995-01-18T00:00:00","postcodeFull":"CT19 6PP","propertyType":"Terraced","oldOrNew":"Established","duration":"Freehold","paon":"102","saon":"","street":"HOLLANDS AVENUE","locality":"FOLKESTONE","townOrCity":"FOLKESTONE","district":"SHEPWAY","county":"KENT","ppdCategoryType":"Standard","recordStatus":"Addition","latitude":51.092395,"longitude":1.197501,"postcodeStart":"CT19 6","postcode":["CT19","6PP"]}
{"price":56000,"dateOfTransfer":"1995-09-15T00:00:00","postcodeFull":"CT19 6BQ","propertyType":"Semi-detached","oldOrNew":"Established","duration":"Freehold","paon":"17","saon":"","street":"HASBOROUGH ROAD","locality":"FOLKESTONE","townOrCity":"FOLKESTONE","district":"SHEPWAY","county":"KENT","ppdCategoryType":"Standard","recordStatus":"Addition","latitude":51.085071,"longitude":1.194939,"postcodeStart":"CT19 6","postcode":["CT19","6BQ"]}
{"price":42500,"dateOfTransfer":"1995-07-26T00:00:00","postcodeFull":"CT19 6JY","propertyType":"Semi-detached","oldOrNew":"Established","duration":"Freehold","paon":"29","saon":"","street":"HOLYWELL AVENUE","locality":"FOLKESTONE","townOrCity":"FOLKESTONE","district":"SHEPWAY","county":"KENT","ppdCategoryType":"Standard","recordStatus":"Addition","latitude":51.095583,"longitude":1.178565,"postcodeStart":"CT19 6","postcode":["CT19","6JY"]}
{"price":67000,"dateOfTransfer":"1995-06-16T00:00:00","postcodeFull":"CT19 6PB","propertyType":"Semi-detached","oldOrNew":"Established","duration":"Freehold","paon":"4","saon":"","street":"STANBURY CRESCENT","locality":"FOLKESTONE","townOrCity":"FOLKESTONE","district":"SHEPWAY","county":"KENT","ppdCategoryType":"Standard","recordStatus":"Addition","latitude":51.092989,"longitude":1.1922,"postcodeStart":"CT19 6","postcode":["CT19","6PB"]}
{"price":59000,"dateOfTransfer":"1995-12-08T00:00:00","postcodeFull":"CT19 6PZ","propertyType":"Semi-detached","oldOrNew":"Established","duration":"Freehold","paon":"147","saon":"","street":"WEAR BAY ROAD","locality":"FOLKESTONE","townOrCity":"FOLKESTONE","district":"SHEPWAY","county":"KENT","ppdCategoryType":"Standard","recordStatus":"Addition","latitude":51.091986,"longitude":1.19303,"postcodeStart":"CT19 6","postcode":["CT19","6PZ"]}
{"price":37500,"dateOfTransfer":"1995-04-13T00:00:00","postcodeFull":"CT19 6AR","propertyType":"Semi-detached","oldOrNew":"Established","duration":"Freehold","paon":"3","saon":"","street":"EAST CLIFF GARDENS","locality":"FOLKESTONE","townOrCity":"FOLKESTONE","district":"SHEPWAY","county":"KENT","ppdCategoryType":"Standard","recordStatus":"Addition","latitude":51.082441,"longitude":1.188663,"postcodeStart":"CT19 6","postcode":["CT19","6AR"]}
{"price":44000,"dateOfTransfer":"1995-09-28T00:00:00","postcodeFull":"CT19 6EP","propertyType":"Terraced","oldOrNew":"Established","duration":"Freehold","paon":"12","saon":"","street":"GREENFIELD ROAD","locality":"FOLKESTONE","townOrCity":"FOLKESTONE","district":"SHEPWAY","county":"KENT","ppdCategoryType":"Standard","recordStatus":"Addition","latitude":51.08916,"longitude":1.183866,"postcodeStart":"CT19 6","postcode":["CT19","6EP"]}
{"price":40000,"dateOfTransfer":"1995-10-03T00:00:00","postcodeFull":"CT19 6LF","propertyType":"Terraced","oldOrNew":"Established","duration":"Freehold","paon":"55","saon":"","street":"GEORGE GURR CRESCENT","locality":"FOLKESTONE","townOrCity":"FOLKESTONE","district":"SHEPWAY","county":"KENT","ppdCategoryType":"Standard","recordStatus":"Addition","latitude":51.09581,"longitude":1.181325,"postcodeStart":"CT19 6","postcode":["CT19","6LF"]}
{"price":37400,"dateOfTransfer":"1995-04-13T00:00:00","postcodeFull":"CT19 6JD","propertyType":"Semi-detached","oldOrNew":"Established","duration":"Freehold","paon":"27","saon":"","street":"CALGARY CRESCENT","locality":"FOLKESTONE","townOrCity":"FOLKESTONE","district":"SHEPWAY","county":"KENT","ppdCategoryType":"Standard","recordStatus":"Addition","latitude":51.093447,"longitude":1.185318,"postcodeStart":"CT19 6","postcode":["CT19","6JD"]}
{"price":80000,"dateOfTransfer":"1995-09-28T00:00:00","postcodeFull":"CT19 6NT","propertyType":"Detached","oldOrNew":"Established","duration":"Freehold","paon":"281","saon":"","street":"DOVER ROAD","locality":"FOLKESTONE","townOrCity":"FOLKESTONE","district":"SHEPWAY","county":"KENT","ppdCategoryType":"Standard","recordStatus":"Addition","latitude":51.090628,"longitude":1.189723,"postcodeStart":"CT19 6","postcode":["CT19","6NT"]}
{"price":39000,"dateOfTransfer":"1995-07-20T00:00:00","postcodeFull":"CT19 6HG","propertyType":"Terraced","oldOrNew":"Established","duration":"Freehold","paon":"81","saon":"","street":"SIDNEY STREET","locality":"FOLKESTONE","townOrCity":"FOLKESTONE","district":"SHEPWAY","county":"KENT","ppdCategoryType":"Standard","recordStatus":"Addition","latitude":51.089326,"longitude":1.184691,"postcodeStart":"CT19 6","postcode":["CT19","6HG"]}
{"price":20500,"dateOfTransfer":"1995-10-20T00:00:00","postcodeFull":"CT19 6NG","propertyType":"Terraced","oldOrNew":"Established","duration":"Freehold","paon":"171","saon":"","street":"DOVER ROAD","locality":"FOLKESTONE","townOrCity":"FOLKESTONE","district":"SHEPWAY","county":"KENT","ppdCategoryType":"Standard","recordStatus":"Addition","latitude":51.087627,"longitude":1.187303,"postcodeStart":"CT19 6","postcode":["CT19","6NG"]}
{"price":24000,"dateOfTransfer":"1995-04-06T00:00:00","postcodeFull":"CT19 6EU","propertyType":"Terraced","oldOrNew":"Established","duration":"Freehold","paon":"7","saon":"","street":"ATHELSTAN ROAD","locality":"FOLKESTONE","townOrCity":"FOLKESTONE","district":"SHEPWAY","county":"KENT","ppdCategoryType":"Standard","recordStatus":"Addition","latitude":51.091137,"longitude":1.182945,"postcodeStart":"CT19 6","postcode":["CT19","6EU"]}
{"price":25500,"dateOfTransfer":"1995-12-13T00:00:00","postcodeFull":"CT19 6DB","propertyType":"Terraced","oldOrNew":"Established","duration":"Freehold","paon":"26","saon":"","street":"SOUTHBOURNE ROAD","locality":"FOLKESTONE","townOrCity":"FOLKESTONE","district":"SHEPWAY","county":"KENT","ppdCategoryType":"Standard","recordStatus":"Addition","latitude":51.084372,"longitude":1.189221,"postcodeStart":"CT19 6","postcode":["CT19","6DB"]}
{"price":51500,"dateOfTransfer":"1995-12-08T00:00:00","postcodeFull":"CT19 6DL","propertyType":"Terraced","oldOrNew":"Established","duration":"Freehold","paon":"51","saon":"","street":"WARREN ROAD","locality":"FOLKESTONE","townOrCity":"FOLKESTONE","district":"SHEPWAY","county":"KENT","ppdCategoryType":"Standard","recordStatus":"Addition","latitude":51.085968,"longitude":1.192044,"postcodeStart":"CT19 6","postcode":["CT19","6DL"]}
{"price":41000,"dateOfTransfer":"1995-12-08T00:00:00","postcodeFull":"CT19 6PU","propertyType":"Terraced","oldOrNew":"Established","duration":"Freehold","paon":"LA MER","saon":"","street":"WEAR BAY ROAD","locality":"FOLKESTONE","townOrCity":"FOLKESTONE","district":"SHEPWAY","county":"KENT","ppdCategoryType":"Standard","recordStatus":"Addition","latitude":51.088132,"longitude":1.197408,"postcodeStart":"CT19 6","postcode":["CT19","6PU"]}
{"price":17000,"dateOfTransfer":"1995-07-27T00:00:00","postcodeFull":"CT19 6AR","propertyType":"Flat/Maisonette/Townhouse","oldOrNew":"Established","duration":"Leasehold","paon":"4","saon":"FLAT 1","street":"EAST CLIFF GARDENS","locality":"FOLKESTONE","townOrCity":"FOLKESTONE","district":"SHEPWAY","county":"KENT","ppdCategoryType":"Standard","recordStatus":"Addition","latitude":51.082441,"longitude":1.188663,"postcodeStart":"CT19 6","postcode":["CT19","6AR"]}
{"price":41000,"dateOfTransfer":"1995-02-22T00:00:00","postcodeFull":"CT19 6PP","propertyType":"Terraced","oldOrNew":"Established","duration":"Freehold","paon":"114","saon":"","street":"HOLLANDS AVENUE","locality":"FOLKESTONE","townOrCity":"FOLKESTONE","district":"SHEPWAY","county":"KENT","ppdCategoryType":"Standard","recordStatus":"Addition","latitude":51.092395,"longitude":1.197501,"postcodeStart":"CT19 6","postcode":["CT19","6PP"]}
{"price":42000,"dateOfTransfer":"1995-04-13T00:00:00","postcodeFull":"CT19 6NL","propertyType":"Terraced","oldOrNew":"Established","duration":"Freehold","paon":"24","saon":"","street":"STUART ROAD","locality":"FOLKESTONE","townOrCity":"FOLKESTONE","district":"SHEPWAY","county":"KENT","ppdCategoryType":"Standard","recordStatus":"Addition","latitude":51.088484,"longitude":1.189518,"postcodeStart":"CT19 6","postcode":["CT19","6NL"]}
{"price":38500,"dateOfTransfer":"1995-03-08T00:00:00","postcodeFull":"CT19 6AW","propertyType":"Flat/Maisonette/Townhouse","oldOrNew":"Established","duration":"Leasehold","paon":"ST ANDREWS","saon":"FLAT 21","street":"THE DURLOCKS","locality":"FOLKESTONE","townOrCity":"FOLKESTONE","district":"SHEPWAY","county":"KENT","ppdCategoryType":"Standard","recordStatus":"Addition","latitude":51.081763,"longitude":1.188445,"postcodeStart":"CT19 6","postcode":["CT19","6AW"]}
{"price":61610,"dateOfTransfer":"1995-03-03T00:00:00","postcodeFull":"CT19 6PL","propertyType":"Semi-detached","oldOrNew":"Established","duration":"Freehold","paon":"116","saon":"","street":"WEAR BAY ROAD","locality":"FOLKESTONE","townOrCity":"FOLKESTONE","district":"SHEPWAY","county":"KENT","ppdCategoryType":"Standard","recordStatus":"Addition","latitude":51.091521,"longitude":1.195555,"postcodeStart":"CT19 6","postcode":["CT19","6PL"]}
{"price":39950,"dateOfTransfer":"1995-04-06T00:00:00","postcodeFull":"CT19 6DF","propertyType":"Terraced","oldOrNew":"Established","duration":"Freehold","paon":"4","saon":"","street":"THANET GARDENS","locality":"FOLKESTONE","townOrCity":"FOLKESTONE","district":"SHEPWAY","county":"KENT","ppdCategoryType":"Standard","recordStatus":"Addition","latitude":51.086931,"longitude":1.191696,"postcodeStart":"CT19 6","postcode":["CT19","6DF"]}
{"price":43500,"dateOfTransfer":"1995-01-31T00:00:00","postcodeFull":"CT19 6DH","propertyType":"Terraced","oldOrNew":"Established","duration":"Freehold","paon":"9","saon":"","street":"BURROW ROAD","locality":"FOLKESTONE","townOrCity":"FOLKESTONE","district":"SHEPWAY","county":"KENT","ppdCategoryType":"Standard","recordStatus":"Addition","latitude":51.085348,"longitude":1.189716,"postcodeStart":"CT19 6","postcode":["CT19","6DH"]}
{"price":31000,"dateOfTransfer":"1995-02-23T00:00:00","postcodeFull":"CT19 6QU","propertyType":"Flat/Maisonette/Townhouse","oldOrNew":"Established","duration":"Leasehold","paon":"58","saon":"","street":"LAWRENCE COURT","locality":"FOLKESTONE","townOrCity":"FOLKESTONE","district":"SHEPWAY","county":"KENT","ppdCategoryType":"Standard","recordStatus":"Addition","latitude":51.087435,"longitude":1.188061,"postcodeStart":"CT19 6","postcode":["CT19","6QU"]}
{"price":47000,"dateOfTransfer":"1995-01-06T00:00:00","postcodeFull":"CT19 6NU","propertyType":"Semi-detached","oldOrNew":"Established","duration":"Freehold","paon":"2","saon":"","street":"JOYES ROAD","locality":"FOLKESTONE","townOrCity":"FOLKESTONE","district":"SHEPWAY","county":"KENT","ppdCategoryType":"Standard","recordStatus":"Addition","latitude":51.089942,"longitude":1.188519,"postcodeStart":"CT19 6","postcode":["CT19","6NU"]}
{"price":2000,"dateOfTransfer":"1995-08-11T00:00:00","postcodeFull":"CT19 6EN","propertyType":"Terraced","oldOrNew":"Established","duration":"Freehold","paon":"46","saon":"","street":"MARSHALL STREET","locality":"","townOrCity":"FOLKESTONE","district":"SHEPWAY","county":"KENT","ppdCategoryType":"Standard","recordStatus":"Addition","latitude":51.08952,"longitude":1.182534,"postcodeStart":"CT19 6","postcode":["CT19","6EN"]}
{"price":55000,"dateOfTransfer":"1995-12-15T00:00:00","postcodeFull":"CT19 6NX","propertyType":"Semi-detached","oldOrNew":"Established","duration":"Freehold","paon":"22","saon":"","street":"JOYES ROAD","locality":"FOLKESTONE","townOrCity":"FOLKESTONE","district":"SHEPWAY","county":"KENT","ppdCategoryType":"Standard","recordStatus":"Addition","latitude":51.090078,"longitude":1.187143,"postcodeStart":"CT19 6","postcode":["CT19","6NX"]}
{"price":34250,"dateOfTransfer":"1995-08-31T00:00:00","postcodeFull":"CT19 6ER","propertyType":"Terraced","oldOrNew":"Established","duration":"Freehold","paon":"65","saon":"","street":"GREENFIELD ROAD","locality":"FOLKESTONE","townOrCity":"FOLKESTONE","district":"SHEPWAY","county":"KENT","ppdCategoryType":"Standard","recordStatus":"Addition","latitude":51.090068,"longitude":1.184542,"postcodeStart":"CT19 6","postcode":["CT19","6ER"]}
{"price":13600,"dateOfTransfer":"1995-08-03T00:00:00","postcodeFull":"CT19 6EE","propertyType":"Flat/Maisonette/Townhouse","oldOrNew":"Established","duration":"Leasehold","paon":"5","saon":"FIRST FLOOR FLAT","street":"MYRTLE ROAD","locality":"FOLKESTONE","townOrCity":"FOLKESTONE","district":"SHEPWAY","county":"KENT","ppdCategoryType":"Standard","recordStatus":"Addition","latitude":51.088021,"longitude":1.187044,"postcodeStart":"CT19 6","postcode":["CT19","6EE"]}
{"price":55000,"dateOfTransfer":"1995-06-30T00:00:00","postcodeFull":"CT19 6DT","propertyType":"Semi-detached","oldOrNew":"Established","duration":"Freehold","paon":"38","saon":"","street":"WARREN WAY","locality":"FOLKESTONE","townOrCity":"FOLKESTONE","district":"SHEPWAY","county":"KENT","ppdCategoryType":"Standard","recordStatus":"Addition","latitude":51.087876,"longitude":1.194318,"postcodeStart":"CT19 6","postcode":["CT19","6DT"]}
{"price":30000,"dateOfTransfer":"1995-09-12T00:00:00","postcodeFull":"CT19 6QT","propertyType":"Flat/Maisonette/Townhouse","oldOrNew":"Established","duration":"Leasehold","paon":"2","saon":"","street":"LAWRENCE COURT","locality":"FOLKESTONE","townOrCity":"FOLKESTONE","district":"SHEPWAY","county":"KENT","ppdCategoryType":"Standard","recordStatus":"Addition","latitude":51.087969,"longitude":1.188269,"postcodeStart":"CT19 6","postcode":["CT19","6QT"]}
{"price":37500,"dateOfTransfer":"1995-12-22T00:00:00","postcodeFull":"CT19 6LR","propertyType":"Terraced","oldOrNew":"Established","duration":"Freehold","paon":"25","saon":"","street":"FLEMING WAY","locality":"FOLKESTONE","townOrCity":"FOLKESTONE","district":"SHEPWAY","county":"KENT","ppdCategoryType":"Standard","recordStatus":"Addition","latitude":51.094936,"longitude":1.186134,"postcodeStart":"CT19 6","postcode":["CT19","6LR"]}
{"price":64000,"dateOfTransfer":"1995-03-24T00:00:00","postcodeFull":"CT19 6NS","propertyType":"Semi-detached","oldOrNew":"Established","duration":"Freehold","paon":"278","saon":"","street":"DOVER ROAD","locality":"FOLKESTONE","townOrCity":"FOLKESTONE","district":"SHEPWAY","county":"KENT","ppdCategoryType":"Standard","recordStatus":"Addition","latitude":51.09069,"longitude":1.190441,"postcodeStart":"CT19 6","postcode":["CT19","6NS"]}
{"price":55000,"dateOfTransfer":"1995-04-28T00:00:00","postcodeFull":"CT19 6HL","propertyType":"Semi-detached","oldOrNew":"Established","duration":"Freehold","paon":"95","saon":"","street":"JOYES ROAD","locality":"FOLKESTONE","townOrCity":"FOLKESTONE","district":"SHEPWAY","county":"KENT","ppdCategoryType":"Standard","recordStatus":"Addition","latitude":51.091715,"longitude":1.183527,"postcodeStart":"CT19 6","postcode":["CT19","6HL"]}
{"price":39000,"dateOfTransfer":"1995-06-23T00:00:00","postcodeFull":"CT19 6EU","propertyType":"Terraced","oldOrNew":"Established","duration":"Freehold","paon":"7","saon":"","street":"ATHELSTAN ROAD","locality":"FOLKESTONE","townOrCity":"FOLKESTONE","district":"SHEPWAY","county":"KENT","ppdCategoryType":"Standard","recordStatus":"Addition","latitude":51.091137,"longitude":1.182945,"postcodeStart":"CT19 6","postcode":["CT19","6EU"]}
{"price":38000,"dateOfTransfer":"1995-12-15T00:00:00","postcodeFull":"CT19 6LZ","propertyType":"Semi-detached","oldOrNew":"Established","duration":"Freehold","paon":"103","saon":"","street":"HILL ROAD","locality":"FOLKESTONE","townOrCity":"FOLKESTONE","district":"SHEPWAY","county":"KENT","ppdCategoryType":"Standard","recordStatus":"Addition","latitude":51.092619,"longitude":1.188646,"postcodeStart":"CT19 6","postcode":["CT19","6LZ"]}
{"price":25000,"dateOfTransfer":"1995-10-27T00:00:00","postcodeFull":"CT19 6BX","propertyType":"Flat/Maisonette/Townhouse","oldOrNew":"Established","duration":"Leasehold","paon":"42","saon":"FLAT B","street":"EAST CLIFF","locality":"FOLKESTONE","townOrCity":"FOLKESTONE","district":"SHEPWAY","county":"KENT","ppdCategoryType":"Standard","recordStatus":"Addition","latitude":51.08317,"longitude":1.190095,"postcodeStart":"CT19 6","postcode":["CT19","6BX"]}
{"price":16500,"dateOfTransfer":"1995-06-05T00:00:00","postcodeFull":"CT19 6EN","propertyType":"Terraced","oldOrNew":"Established","duration":"Freehold","paon":"20","saon":"","street":"MARSHALL STREET","locality":"FOLKESTONE","townOrCity":"FOLKESTONE","district":"SHEPWAY","county":"KENT","ppdCategoryType":"Standard","recordStatus":"Addition","latitude":51.08952,"longitude":1.182534,"postcodeStart":"CT19 6","postcode":["CT19","6EN"]}
{"price":60000,"dateOfTransfer":"1995-05-31T00:00:00","postcodeFull":"CT19 6NH","propertyType":"Semi-detached","oldOrNew":"Established","duration":"Freehold","paon":"241","saon":"","street":"DOVER ROAD","locality":"FOLKESTONE","townOrCity":"FOLKESTONE","district":"SHEPWAY","county":"KENT","ppdCategoryType":"Standard","recordStatus":"Addition","latitude":51.08872,"longitude":1.188323,"postcodeStart":"CT19 6","postcode":["CT19","6NH"]}
{"price":35750,"dateOfTransfer":"1995-09-08T00:00:00","postcodeFull":"CT19 6DF","propertyType":"Terraced","oldOrNew":"Established","duration":"Freehold","paon":"15","saon":"","street":"THANET GARDENS","locality":"FOLKESTONE","townOrCity":"FOLKESTONE","district":"SHEPWAY","county":"KENT","ppdCategoryType":"Standard","recordStatus":"Addition","latitude":51.086931,"longitude":1.191696,"postcodeStart":"CT19 6","postcode":["CT19","6DF"]}
{"price":45000,"dateOfTransfer":"1995-12-14T00:00:00","postcodeFull":"CT19 6NT","propertyType":"Semi-detached","oldOrNew":"Established","duration":"Freehold","paon":"257","saon":"","street":"DOVER ROAD","locality":"FOLKESTONE","townOrCity":"FOLKESTONE","district":"SHEPWAY","county":"KENT","ppdCategoryType":"Standard","recordStatus":"Addition","latitude":51.090628,"longitude":1.189723,"postcodeStart":"CT19 6","postcode":["CT19","6NT"]}
{"price":50000,"dateOfTransfer":"1995-01-01T00:00:00","postcodeFull":"CT19 6HL","propertyType":"Semi-detached","oldOrNew":"Established","duration":"Freehold","paon":"92","saon":"","street":"JOYES ROAD","locality":"FOLKESTONE","townOrCity":"FOLKESTONE","district":"SHEPWAY","county":"KENT","ppdCategoryType":"Standard","recordStatus":"Addition","latitude":51.091715,"longitude":1.183527,"postcodeStart":"CT19 6","postcode":["CT19","6HL"]}
{"price":27000,"dateOfTransfer":"1995-03-14T00:00:00","postcodeFull":"CT19 6DB","propertyType":"Terraced","oldOrNew":"Established","duration":"Freehold","paon":"25","saon":"","street":"SOUTHBOURNE ROAD","locality":"FOLKESTONE","townOrCity":"FOLKESTONE","district":"SHEPWAY","county":"KENT","ppdCategoryType":"Standard","recordStatus":"Addition","latitude":51.084372,"longitude":1.189221,"postcodeStart":"CT19 6","postcode":["CT19","6DB"]}
{"price":24000,"dateOfTransfer":"1995-03-03T00:00:00","postcodeFull":"CT19 6ES","propertyType":"Terraced","oldOrNew":"Established","duration":"Freehold","paon":"57","saon":"","street":"MARSHALL STREET","locality":"FOLKESTONE","townOrCity":"FOLKESTONE","district":"SHEPWAY","county":"KENT","ppdCategoryType":"Standard","recordStatus":"Addition","latitude":51.090115,"longitude":1.183474,"postcodeStart":"CT19 6","postcode":["CT19","6ES"]}
{"price":44000,"dateOfTransfer":"1995-05-25T00:00:00","postcodeFull":"CT19 6EB","propertyType":"Terraced","oldOrNew":"Established","duration":"Freehold","paon":"2","saon":"","street":"PRINCESS STREET","locality":"FOLKESTONE","townOrCity":"FOLKESTONE","district":"SHEPWAY","county":"KENT","ppdCategoryType":"Standard","recordStatus":"Addition","latitude":51.08775,"longitude":1.1866,"postcodeStart":"CT19 6","postcode":["CT19","6EB"]}
{"price":39500,"dateOfTransfer":"1995-04-28T00:00:00","postcodeFull":"CT19 6JS","propertyType":"Terraced","oldOrNew":"Established","duration":"Freehold","paon":"3","saon":"","street":"TYSON ROAD","locality":"FOLKESTONE","townOrCity":"FOLKESTONE","district":"SHEPWAY","county":"KENT","ppdCategoryType":"Standard","recordStatus":"Addition","latitude":51.090556,"longitude":1.188747,"postcodeStart":"CT19 6","postcode":["CT19","6JS"]}
{"price":41500,"dateOfTransfer":"1995-06-09T00:00:00","postcodeFull":"CT19 6PN","propertyType":"Terraced","oldOrNew":"Established","duration":"Freehold","paon":"9","saon":"","street":"HOLLANDS AVENUE","locality":"FOLKESTONE","townOrCity":"FOLKESTONE","district":"SHEPWAY","county":"KENT","ppdCategoryType":"Standard","recordStatus":"Addition","latitude":51.093001,"longitude":1.196371,"postcodeStart":"CT19 6","postcode":["CT19","6PN"]}
{"price":52000,"dateOfTransfer":"1995-09-29T00:00:00","postcodeFull":"CT19 6PE","propertyType":"Semi-detached","oldOrNew":"Established","duration":"Freehold","paon":"165","saon":"","street":"WEAR BAY ROAD","locality":"FOLKESTONE","townOrCity":"FOLKESTONE","district":"SHEPWAY","county":"KENT","ppdCategoryType":"Standard","recordStatus":"Addition","latitude":51.091643,"longitude":1.192092,"postcodeStart":"CT19 6","postcode":["CT19","6PE"]}
{"price":47000,"dateOfTransfer":"1995-06-23T00:00:00","postcodeFull":"CT19 6HR","propertyType":"Terraced","oldOrNew":"Established","duration":"Freehold","paon":"20","saon":"","street":"PARK VIEW","locality":"FOLKESTONE","townOrCity":"FOLKESTONE","district":"SHEPWAY","county":"KENT","ppdCategoryType":"Standard","recordStatus":"Addition","latitude":51.093327,"longitude":1.184095,"postcodeStart":"CT19 6","postcode":["CT19","6HR"]}
{"price":40500,"dateOfTransfer":"1995-06-30T00:00:00","postcodeFull":"CT19 6JY","propertyType":"Semi-detached","oldOrNew":"Established","duration":"Freehold","paon":"19","saon":"","street":"HOLYWELL AVENUE","locality":"FOLKESTONE","townOrCity":"FOLKESTONE","district":"SHEPWAY","county":"KENT","ppdCategoryType":"Standard","recordStatus":"Addition","latitude":51.095583,"longitude":1.178565,"postcodeStart":"CT19 6","postcode":["CT19","6JY"]}
{"price":43000,"dateOfTransfer":"1995-09-07T00:00:00","postcodeFull":"CT19 6LW","propertyType":"Terraced","oldOrNew":"Established","duration":"Freehold","paon":"24","saon":"","street":"BRABNER CLOSE","locality":"FOLKESTONE","townOrCity":"FOLKESTONE","district":"SHEPWAY","county":"KENT","ppdCategoryType":"Standard","recordStatus":"Addition","latitude":51.095457,"longitude":1.186156,"postcodeStart":"CT19 6","postcode":["CT19","6LW"]}
{"price":39000,"dateOfTransfer":"1995-03-03T00:00:00","postcodeFull":"CT19 6JY","propertyType":"Terraced","oldOrNew":"Established","duration":"Freehold","paon":"33","saon":"","street":"HOLYWELL AVENUE","locality":"FOLKESTONE","townOrCity":"FOLKESTONE","district":"SHEPWAY","county":"KENT","ppdCategoryType":"Standard","recordStatus":"Addition","latitude":51.095583,"longitude":1.178565,"postcodeStart":"CT19 6","postcode":["CT19","6JY"]}
{"price":59000,"dateOfTransfer":"1995-11-30T00:00:00","postcodeFull":"CT19 6DU","propertyType":"Semi-detached","oldOrNew":"Established","duration":"Freehold","paon":"32","saon":"","street":"FORELAND AVENUE","locality":"FOLKESTONE","townOrCity":"FOLKESTONE","district":"SHEPWAY","county":"KENT","ppdCategoryType":"Standard","recordStatus":"Addition","latitude":51.086864,"longitude":1.19482,"postcodeStart":"CT19 6","postcode":["CT19","6DU"]}
{"price":38000,"dateOfTransfer":"1995-08-31T00:00:00","postcodeFull":"CT19 6DH","propertyType":"Terraced","oldOrNew":"Established","duration":"Freehold","paon":"41","saon":"","street":"BURROW ROAD","locality":"FOLKESTONE","townOrCity":"FOLKESTONE","district":"SHEPWAY","county":"KENT","ppdCategoryType":"Standard","recordStatus":"Addition","latitude":51.085348,"longitude":1.189716,"postcodeStart":"CT19 6","postcode":["CT19","6DH"]}
{"price":39500,"dateOfTransfer":"1995-08-25T00:00:00","postcodeFull":"CT19 6EJ","propertyType":"Terraced","oldOrNew":"Established","duration":"Freehold","paon":"38","saon":"","street":"DENMARK STREET","locality":"FOLKESTONE","townOrCity":"FOLKESTONE","district":"SHEPWAY","county":"KENT","ppdCategoryType":"Standard","recordStatus":"Addition","latitude":51.087986,"longitude":1.185685,"postcodeStart":"CT19 6","postcode":["CT19","6EJ"]}
{"price":39000,"dateOfTransfer":"1995-02-01T00:00:00","postcodeFull":"CT19 6EJ","propertyType":"Terraced","oldOrNew":"Established","duration":"Freehold","paon":"20","saon":"","street":"DENMARK STREET","locality":"FOLKESTONE","townOrCity":"FOLKESTONE","district":"SHEPWAY","county":"KENT","ppdCategoryType":"Standard","recordStatus":"Addition","latitude":51.087986,"longitude":1.185685,"postcodeStart":"CT19 6","postcode":["CT19","6EJ"]}
{"price":37000,"dateOfTransfer":"1995-01-27T00:00:00","postcodeFull":"CT19 6HG","propertyType":"Terraced","oldOrNew":"Established","duration":"Freehold","paon":"31","saon":"","street":"SIDNEY STREET","locality":"FOLKESTONE","townOrCity":"FOLKESTONE","district":"SHEPWAY","county":"KENT","ppdCategoryType":"Standard","recordStatus":"Addition","latitude":51.089326,"longitude":1.184691,"postcodeStart":"CT19 6","postcode":["CT19","6HG"]}
{"price":22000,"dateOfTransfer":"1995-10-12T00:00:00","postcodeFull":"CT19 6AG","propertyType":"Flat/Maisonette/Townhouse","oldOrNew":"Established","duration":"Leasehold","paon":"CHANNEL VIEW","saon":"26","street":"NORTH STREET","locality":"FOLKESTONE","townOrCity":"FOLKESTONE","district":"SHEPWAY","county":"KENT","ppdCategoryType":"Standard","recordStatus":"Addition","latitude":51.081096,"longitude":1.186682,"postcodeStart":"CT19 6","postcode":["CT19","6AG"]}
{"price":58000,"dateOfTransfer":"1996-06-12T00:00:00","postcodeFull":"CT19 6PB","propertyType":"Detached","oldOrNew":"Established","duration":"Freehold","paon":"17","saon":"","street":"STANBURY CRESCENT","locality":"FOLKESTONE","townOrCity":"FOLKESTONE","district":"SHEPWAY","county":"KENT","ppdCategoryType":"Standard","recordStatus":"Addition","latitude":51.092989,"longitude":1.1922,"postcodeStart":"CT19 6","postcode":["CT19","6PB"]}
{"price":40000,"dateOfTransfer":"1996-04-26T00:00:00","postcodeFull":"CT19 6EU","propertyType":"Terraced","oldOrNew":"Established","duration":"Freehold","paon":"43","saon":"","street":"ATHELSTAN ROAD","locality":"FOLKESTONE","townOrCity":"FOLKESTONE","district":"SHEPWAY","county":"KENT","ppdCategoryType":"Standard","recordStatus":"Addition","latitude":51.091137,"longitude":1.182945,"postcodeStart":"CT19 6","postcode":["CT19","6EU"]}
{"price":63000,"dateOfTransfer":"1996-11-11T00:00:00","postcodeFull":"CT19 6NY","propertyType":"Semi-detached","oldOrNew":"Established","duration":"Freehold","paon":"301","saon":"","street":"DOVER ROAD","locality":"FOLKESTONE","townOrCity":"FOLKESTONE","district":"SHEPWAY","county":"KENT","ppdCategoryType":"Standard","recordStatus":"Addition","latitude":51.093256,"longitude":1.190675,"postcodeStart":"CT19 6","postcode":["CT19","6NY"]}
{"price":41500,"dateOfTransfer":"1996-12-20T00:00:00","postcodeFull":"CT19 6DF","propertyType":"Terraced","oldOrNew":"Established","duration":"Freehold","paon":"4","saon":"","street":"THANET GARDENS","locality":"FOLKESTONE","townOrCity":"FOLKESTONE","district":"SHEPWAY","county":"KENT","ppdCategoryType":"Standard","recordStatus":"Addition","latitude":51.086931,"longitude":1.191696,"postcodeStart":"CT19 6","postcode":["CT19","6DF"]}
{"price":60000,"dateOfTransfer":"1996-05-03T00:00:00","postcodeFull":"CT19 6AZ","propertyType":"Detached","oldOrNew":"Established","duration":"Freehold","paon":"17","saon":"","street":"SEGRAVE CRESCENT","locality":"FOLKESTONE","townOrCity":"FOLKESTONE","district":"SHEPWAY","county":"KENT","ppdCategoryType":"Standard","recordStatus":"Addition","latitude":51.08454,"longitude":1.191632,"postcodeStart":"CT19 6","postcode":["CT19","6AZ"]}
{"price":35000,"dateOfTransfer":"1996-08-28T00:00:00","postcodeFull":"CT19 6HR","propertyType":"Terraced","oldOrNew":"Established","duration":"Freehold","paon":"12","saon":"","street":"PARK VIEW","locality":"FOLKESTONE","townOrCity":"FOLKESTONE","district":"SHEPWAY","county":"KENT","ppdCategoryType":"Standard","recordStatus":"Addition","latitude":51.093327,"longitude":1.184095,"postcodeStart":"CT19 6","postcode":["CT19","6HR"]}
{"price":34000,"dateOfTransfer":"1996-04-30T00:00:00","postcodeFull":"CT19 6EX","propertyType":"Terraced","oldOrNew":"Established","duration":"Freehold","paon":"1","saon":"","street":"ETHELBERT ROAD","locality":"FOLKESTONE","townOrCity":"FOLKESTONE","district":"SHEPWAY","county":"KENT","ppdCategoryType":"Standard","recordStatus":"Addition","latitude":51.090733,"longitude":1.182603,"postcodeStart":"CT19 6","postcode":["CT19","6EX"]}
{"price":90000,"dateOfTransfer":"1996-08-23T00:00:00","postcodeFull":"CT19 6AT","propertyType":"Semi-detached","oldOrNew":"Established","duration":"Freehold","paon":"16","saon":"","street":"WEAR BAY ROAD","locality":"FOLKESTONE","townOrCity":"FOLKESTONE","district":"SHEPWAY","county":"KENT","ppdCategoryType":"Standard","recordStatus":"Addition","latitude":51.082692,"longitude":1.190322,"postcodeStart":"CT19 6","postcode":["CT19","6AT"]}
{"price":35000,"dateOfTransfer":"1996-05-07T00:00:00","postcodeFull":"CT19 6QT","propertyType":"Flat/Maisonette/Townhouse","oldOrNew":"Established","duration":"Leasehold","paon":"19","saon":"","street":"LAWRENCE COURT","locality":"FOLKESTONE","townOrCity":"FOLKESTONE","district":"SHEPWAY","county":"KENT","ppdCategoryType":"Standard","recordStatus":"Addition","latitude":51.087969,"longitude":1.188269,"postcodeStart":"CT19 6","postcode":["CT19","6QT"]}
{"price":34000,"dateOfTransfer":"1996-06-28T00:00:00","postcodeFull":"CT19 6LL","propertyType":"Terraced","oldOrNew":"Established","duration":"Freehold","paon":"22","saon":"","street":"MONTGOMERY WAY","locality":"FOLKESTONE","townOrCity":"FOLKESTONE","district":"SHEPWAY","county":"KENT","ppdCategoryType":"Standard","recordStatus":"Addition","latitude":51.096663,"longitude":1.183839,"postcodeStart":"CT19 6","postcode":["CT19","6LL"]}
{"price":39750,"dateOfTransfer":"1996-03-08T00:00:00","postcodeFull":"CT19 6HP","propertyType":"Semi-detached","oldOrNew":"Established","duration":"Freehold","paon":"36","saon":"","street":"WOOD AVENUE","locality":"FOLKESTONE","townOrCity":"FOLKESTONE","district":"SHEPWAY","county":"KENT","ppdCategoryType":"Standard","recordStatus":"Addition","latitude":51.092613,"longitude":1.18456,"postcodeStart":"CT19 6","postcode":["CT19","6HP"]}
{"price":17250,"dateOfTransfer":"1996-04-02T00:00:00","postcodeFull":"CT19 6BU","propertyType":"Flat/Maisonette/Townhouse","oldOrNew":"Established","duration":"Leasehold","paon":"14A","saon":"","street":"EAST CLIFF","locality":"FOLKESTONE","townOrCity":"FOLKESTONE","district":"SHEPWAY","county":"KENT","ppdCategoryType":"Standard","recordStatus":"Addition","latitude":51.08322,"longitude":1.188913,"postcodeStart":"CT19 6","postcode":["CT19","6BU"]}
{"price":70000,"dateOfTransfer":"1996-05-15T00:00:00","postcodeFull":"CT19 6JJ","propertyType":"Detached","oldOrNew":"Established","duration":"Freehold","paon":"1","saon":"","street":"INGOLDSBY ROAD","locality":"","townOrCity":"FOLKESTONE","district":"SHEPWAY","county":"KENT","ppdCategoryType":"Standard","recordStatus":"Addition","latitude":51.091117,"longitude":1.1863,"postcodeStart":"CT19 6","postcode":["CT19","6JJ"]}
{"price":87000,"dateOfTransfer":"1996-11-12T00:00:00","postcodeFull":"CT19 6PY","propertyType":"Detached","oldOrNew":"Established","duration":"Freehold","paon":"47","saon":"","street":"WEAR BAY ROAD","locality":"","townOrCity":"FOLKESTONE","district":"SHEPWAY","county":"KENT","ppdCategoryType":"Standard","recordStatus":"Addition","latitude":51.086047,"longitude":1.19642,"postcodeStart":"CT19 6","postcode":["CT19","6PY"]}
{"price":42500,"dateOfTransfer":"1996-11-29T00:00:00","postcodeFull":"CT19 6QE","propertyType":"Terraced","oldOrNew":"Established","duration":"Freehold","paon":"20","saon":"","street":"PILGRIM SPRING","locality":"FOLKESTONE","townOrCity":"FOLKESTONE","district":"SHEPWAY","county":"KENT","ppdCategoryType":"Standard","recordStatus":"Addition","latitude":51.096495,"longitude":1.176442,"postcodeStart":"CT19 6","postcode":["CT19","6QE"]}
{"price":25000,"dateOfTransfer":"1996-07-22T00:00:00","postcodeFull":"CT19 6AR","propertyType":"Flat/Maisonette/Townhouse","oldOrNew":"Established","duration":"Leasehold","paon":"4","saon":"FLAT 3","street":"EAST CLIFF GARDENS","locality":"FOLKESTONE","townOrCity":"FOLKESTONE","district":"SHEPWAY","county":"KENT","ppdCategoryType":"Standard","recordStatus":"Addition","latitude":51.082441,"longitude":1.188663,"postcodeStart":"CT19 6","postcode":["CT19","6AR"]}
{"price":60000,"dateOfTransfer":"1996-04-09T00:00:00","postcodeFull":"CT19 6DL","propertyType":"Terraced","oldOrNew":"Established","duration":"Freehold","paon":"45","saon":"","street":"WARREN ROAD","locality":"FOLKESTONE","townOrCity":"FOLKESTONE","district":"SHEPWAY","county":"KENT","ppdCategoryType":"Standard","recordStatus":"Addition","latitude":51.085968,"longitude":1.192044,"postcodeStart":"CT19 6","postcode":["CT19","6DL"]}
{"price":40000,"dateOfTransfer":"1996-11-06T00:00:00","postcodeFull":"CT19 6DH","propertyType":"Terraced","oldOrNew":"Established","duration":"Freehold","paon":"16","saon":"","street":"BURROW ROAD","locality":"FOLKESTONE","townOrCity":"FOLKESTONE","district":"SHEPWAY","county":"KENT","ppdCategoryType":"Standard","recordStatus":"Addition","latitude":51.085348,"longitude":1.189716,"postcodeStart":"CT19 6","postcode":["CT19","6DH"]}
{"price":43250,"dateOfTransfer":"1996-05-10T00:00:00","postcodeFull":"CT19 6AN","propertyType":"Semi-detached","oldOrNew":"Established","duration":"Freehold","paon":"8","saon":"","street":"THE DURLOCKS","locality":"FOLKESTONE","townOrCity":"FOLKESTONE","district":"SHEPWAY","county":"KENT","ppdCategoryType":"Standard","recordStatus":"Addition","latitude":51.081935,"longitude":1.187882,"postcodeStart":"CT19 6","postcode":["CT19","6AN"]}
{"price":72000,"dateOfTransfer":"1996-03-29T00:00:00","postcodeFull":"CT19 6DX","propertyType":"Semi-detached","oldOrNew":"Established","duration":"Freehold","paon":"17","saon":"","street":"WHITE CLIFF WAY","locality":"FOLKESTONE","townOrCity":"FOLKESTONE","district":"SHEPWAY","county":"KENT","ppdCategoryType":"Standard","recordStatus":"Addition","latitude":51.087845,"longitude":1.195801,"postcodeStart":"CT19 6","postcode":["CT19","6DX"]}
{"price":65000,"dateOfTransfer":"1996-09-27T00:00:00","postcodeFull":"CT19 6DE","propertyType":"Terraced","oldOrNew":"Established","duration":"Freehold","paon":"33","saon":"","street":"WARREN ROAD","locality":"","townOrCity":"FOLKESTONE","district":"SHEPWAY","county":"KENT","ppdCategoryType":"Standard","recordStatus":"Addition","latitude":51.086251,"longitude":1.190907,"postcodeStart":"CT19 6","postcode":["CT19","6DE"]}
{"price":33500,"dateOfTransfer":"1996-10-31T00:00:00","postcodeFull":"CT19 6BU","propertyType":"Semi-detached","oldOrNew":"Established","duration":"Freehold","paon":"17","saon":"","street":"EAST CLIFF","locality":"FOLKESTONE","townOrCity":"FOLKESTONE","district":"SHEPWAY","county":"KENT","ppdCategoryType":"Standard","recordStatus":"Addition","latitude":51.08322,"longitude":1.188913,"postcodeStart":"CT19 6","postcode":["CT19","6BU"]}
{"price":27250,"dateOfTransfer":"1996-01-02T00:00:00","postcodeFull":"CT19 6AD","propertyType":"Semi-detached","oldOrNew":"Established","duration":"Freehold","paon":"3","saon":"","street":"EAST STREET","locality":"FOLKESTONE","townOrCity":"FOLKESTONE","district":"SHEPWAY","county":"KENT","ppdCategoryType":"Standard","recordStatus":"Addition","latitude":51.08082,"longitude":1.187563,"postcodeStart":"CT19 6","postcode":["CT19","6AD"]}
{"price":57000,"dateOfTransfer":"1996-06-28T00:00:00","postcodeFull":"CT19 6PZ","propertyType":"Semi-detached","oldOrNew":"Established","duration":"Freehold","paon":"148","saon":"","street":"WEAR BAY ROAD","locality":"FOLKESTONE","townOrCity":"FOLKESTONE","district":"SHEPWAY","county":"KENT","ppdCategoryType":"Standard","recordStatus":"Addition","latitude":51.091986,"longitude":1.19303,"postcodeStart":"CT19 6","postcode":["CT19","6PZ"]}
{"price":45750,"dateOfTransfer":"1996-11-25T00:00:00","postcodeFull":"CT19 6ER","propertyType":"Semi-detached","oldOrNew":"Established","duration":"Freehold","paon":"71","saon":"","street":"GREENFIELD ROAD","locality":"FOLKESTONE","townOrCity":"FOLKESTONE","district":"SHEPWAY","county":"KENT","ppdCategoryType":"Standard","recordStatus":"Addition","latitude":51.090068,"longitude":1.184542,"postcodeStart":"CT19 6","postcode":["CT19","6ER"]}
{"price":23500,"dateOfTransfer":"1996-12-16T00:00:00","postcodeFull":"CT19 6BZ","propertyType":"Terraced","oldOrNew":"Established","duration":"Freehold","paon":"17","saon":"","street":"DUDLEY ROAD","locality":"FOLKESTONE","townOrCity":"FOLKESTONE","district":"SHEPWAY","county":"KENT","ppdCategoryType":"Standard","recordStatus":"Addition","latitude":51.083579,"longitude":1.189281,"postcodeStart":"CT19 6","postcode":["CT19","6BZ"]}
{"price":26000,"dateOfTransfer":"1996-04-12T00:00:00","postcodeFull":"CT19 6LB","propertyType":"Flat/Maisonette/Townhouse","oldOrNew":"Established","duration":"Leasehold","paon":"81","saon":"","street":"HOLYWELL AVENUE","locality":"FOLKESTONE","townOrCity":"FOLKESTONE","district":"SHEPWAY","county":"KENT","ppdCategoryType":"Standard","recordStatus":"Addition","latitude":51.095587,"longitude":1.176108,"postcodeStart":"CT19 6","postcode":["CT19","6LB"]}
{"price":35000,"dateOfTransfer":"1996-03-29T00:00:00","postcodeFull":"CT19 6ER","propertyType":"Terraced","oldOrNew":"Established","duration":"Freehold","paon":"34","saon":"","street":"GREENFIELD ROAD","locality":"FOLKESTONE","townOrCity":"FOLKESTONE","district":"SHEPWAY","county":"KENT","ppdCategoryType":"Standard","recordStatus":"Addition","latitude":51.090068,"longitude":1.184542,"postcodeStart":"CT19 6","postcode":["CT19","6ER"]}
{"price":45950,"dateOfTransfer":"1996-07-12T00:00:00","postcodeFull":"CT19 6DQ","propertyType":"Terraced","oldOrNew":"Established","duration":"Freehold","paon":"61","saon":"","street":"PENFOLD ROAD","locality":"FOLKESTONE","townOrCity":"FOLKESTONE","district":"SHEPWAY","county":"KENT","ppdCategoryType":"Standard","recordStatus":"Addition","latitude":51.084861,"longitude":1.19044,"postcodeStart":"CT19 6","postcode":["CT19","6DQ"]}
{"price":37000,"dateOfTransfer":"1996-09-20T00:00:00","postcodeFull":"CT19 6EE","propertyType":"Semi-detached","oldOrNew":"Established","duration":"Freehold","paon":"3","saon":"","street":"MYRTLE ROAD","locality":"FOLKESTONE","townOrCity":"FOLKESTONE","district":"SHEPWAY","county":"KENT","ppdCategoryType":"Standard","recordStatus":"Addition","latitude":51.088021,"longitude":1.187044,"postcodeStart":"CT19 6","postcode":["CT19","6EE"]}
{"price":75000,"dateOfTransfer":"1996-06-21T00:00:00","postcodeFull":"CT19 6AY","propertyType":"Semi-detached","oldOrNew":"Established","duration":"Freehold","paon":"3","saon":"","street":"SEGRAVE ROAD","locality":"FOLKESTONE","townOrCity":"FOLKESTONE","district":"SHEPWAY","county":"KENT","ppdCategoryType":"Standard","recordStatus":"Addition","latitude":51.083855,"longitude":1.190699,"postcodeStart":"CT19 6","postcode":["CT19","6AY"]}
{"price":23500,"dateOfTransfer":"1996-07-16T00:00:00","postcodeFull":"CT19 6LB","propertyType":"Flat/Maisonette/Townhouse","oldOrNew":"Established","duration":"Leasehold","paon":"69","saon":"","street":"HOLYWELL AVENUE","locality":"FOLKESTONE","townOrCity":"FOLKESTONE","district":"SHEPWAY","county":"KENT","ppdCategoryType":"Standard","recordStatus":"Addition","latitude":51.095587,"longitude":1.176108,"postcodeStart":"CT19 6","postcode":["CT19","6LB"]}
{"price":120000,"dateOfTransfer":"1996-12-05T00:00:00","postcodeFull":"CT19 6BN","propertyType":"Detached","oldOrNew":"Established","duration":"Freehold","paon":"23","saon":"","street":"WEAR BAY ROAD","locality":"FOLKESTONE","townOrCity":"FOLKESTONE","district":"SHEPWAY","county":"KENT","ppdCategoryType":"Standard","recordStatus":"Addition","latitude":51.08346,"longitude":1.193971,"postcodeStart":"CT19 6","postcode":["CT19","6BN"]}
{"price":46010,"dateOfTransfer":"1996-02-19T00:00:00","postcodeFull":"CT19 6RB","propertyType":"Flat/Maisonette/Townhouse","oldOrNew":"New build","duration":"Leasehold","paon":"HARBOUR POINT","saon":"FLAT 8","street":"THE STADE","locality":"FOLKESTONE","townOrCity":"FOLKESTONE","district":"SHEPWAY","county":"KENT","ppdCategoryType":"Standard","recordStatus":"Addition","latitude":51.081188,"longitude":1.189733,"postcodeStart":"CT19 6","postcode":["CT19","6RB"]}
{"price":32000,"dateOfTransfer":"1996-08-02T00:00:00","postcodeFull":"CT19 6EX","propertyType":"Terraced","oldOrNew":"Established","duration":"Freehold","paon":"5","saon":"","street":"ETHELBERT ROAD","locality":"FOLKESTONE","townOrCity":"FOLKESTONE","district":"SHEPWAY","county":"KENT","ppdCategoryType":"Standard","recordStatus":"Addition","latitude":51.090733,"longitude":1.182603,"postcodeStart":"CT19 6","postcode":["CT19","6EX"]}
{"price":40500,"dateOfTransfer":"1996-04-01T00:00:00","postcodeFull":"CT19 6DB","propertyType":"Terraced","oldOrNew":"Established","duration":"Freehold","paon":"8","saon":"","street":"SOUTHBOURNE ROAD","locality":"FOLKESTONE","townOrCity":"FOLKESTONE","district":"SHEPWAY","county":"KENT","ppdCategoryType":"Standard","recordStatus":"Addition","latitude":51.084372,"longitude":1.189221,"postcodeStart":"CT19 6","postcode":["CT19","6DB"]}
{"price":31500,"dateOfTransfer":"1996-07-05T00:00:00","postcodeFull":"CT19 6AY","propertyType":"Flat/Maisonette/Townhouse","oldOrNew":"Established","duration":"Leasehold","paon":"8A","saon":"","street":"SEGRAVE ROAD","locality":"FOLKESTONE","townOrCity":"FOLKESTONE","district":"SHEPWAY","county":"KENT","ppdCategoryType":"Standard","recordStatus":"Addition","latitude":51.083855,"longitude":1.190699,"postcodeStart":"CT19 6","postcode":["CT19","6AY"]}
{"price":35000,"dateOfTransfer":"1996-03-01T00:00:00","postcodeFull":"CT19 6DE","propertyType":"Terraced","oldOrNew":"Established","duration":"Freehold","paon":"27","saon":"","street":"WARREN ROAD","locality":"FOLKESTONE","townOrCity":"FOLKESTONE","district":"SHEPWAY","county":"KENT","ppdCategoryType":"Standard","recordStatus":"Addition","latitude":51.086251,"longitude":1.190907,"postcodeStart":"CT19 6","postcode":["CT19","6DE"]}
{"price":53000,"dateOfTransfer":"1996-12-18T00:00:00","postcodeFull":"CT19 6PZ","propertyType":"Flat/Maisonette/Townhouse","oldOrNew":"Established","duration":"Leasehold","paon":"145","saon":"","street":"WEAR BAY ROAD","locality":"FOLKESTONE","townOrCity":"FOLKESTONE","district":"SHEPWAY","county":"KENT","ppdCategoryType":"Standard","recordStatus":"Addition","latitude":51.091986,"longitude":1.19303,"postcodeStart":"CT19 6","postcode":["CT19","6PZ"]}
{"price":48950,"dateOfTransfer":"1996-06-28T00:00:00","postcodeFull":"CT19 6ER","propertyType":"Terraced","oldOrNew":"Established","duration":"Freehold","paon":"66","saon":"","street":"GREENFIELD ROAD","locality":"FOLKESTONE","townOrCity":"FOLKESTONE","district":"SHEPWAY","county":"KENT","ppdCategoryType":"Standard","recordStatus":"Addition","latitude":51.090068,"longitude":1.184542,"postcodeStart":"CT19 6","postcode":["CT19","6ER"]}
{"price":35000,"dateOfTransfer":"1996-03-15T00:00:00","postcodeFull":"CT19 6NG","propertyType":"Terraced","oldOrNew":"Established","duration":"Freehold","paon":"171","saon":"","street":"DOVER ROAD","locality":"FOLKESTONE","townOrCity":"FOLKESTONE","district":"SHEPWAY","county":"KENT","ppdCategoryType":"Standard","recordStatus":"Addition","latitude":51.087627,"longitude":1.187303,"postcodeStart":"CT19 6","postcode":["CT19","6NG"]}
{"price":41000,"dateOfTransfer":"1996-08-02T00:00:00","postcodeFull":"CT19 6JY","propertyType":"Semi-detached","oldOrNew":"Established","duration":"Freehold","paon":"1","saon":"","street":"HOLYWELL AVENUE","locality":"FOLKESTONE","townOrCity":"FOLKESTONE","district":"SHEPWAY","county":"KENT","ppdCategoryType":"Standard","recordStatus":"Addition","latitude":51.095583,"longitude":1.178565,"postcodeStart":"CT19 6","postcode":["CT19","6JY"]}
{"price":37500,"dateOfTransfer":"1996-10-11T00:00:00","postcodeFull":"CT19 6DB","propertyType":"Terraced","oldOrNew":"Established","duration":"Freehold","paon":"14","saon":"","street":"SOUTHBOURNE ROAD","locality":"FOLKESTONE","townOrCity":"FOLKESTONE","district":"SHEPWAY","county":"KENT","ppdCategoryType":"Standard","recordStatus":"Addition","latitude":51.084372,"longitude":1.189221,"postcodeStart":"CT19 6","postcode":["CT19","6DB"]}
{"price":46000,"dateOfTransfer":"1996-02-09T00:00:00","postcodeFull":"CT19 6NG","propertyType":"Terraced","oldOrNew":"Established","duration":"Freehold","paon":"175","saon":"","street":"DOVER ROAD","locality":"FOLKESTONE","townOrCity":"FOLKESTONE","district":"SHEPWAY","county":"KENT","ppdCategoryType":"Standard","recordStatus":"Addition","latitude":51.087627,"longitude":1.187303,"postcodeStart":"CT19 6","postcode":["CT19","6NG"]}
{"price":70000,"dateOfTransfer":"1996-03-29T00:00:00","postcodeFull":"CT19 6AW","propertyType":"Flat/Maisonette/Townhouse","oldOrNew":"Established","duration":"Leasehold","paon":"ST ANDREWS","saon":"FLAT 9","street":"THE DURLOCKS","locality":"FOLKESTONE","townOrCity":"FOLKESTONE","district":"SHEPWAY","county":"KENT","ppdCategoryType":"Standard","recordStatus":"Addition","latitude":51.081763,"longitude":1.188445,"postcodeStart":"CT19 6","postcode":["CT19","6AW"]}
{"price":49950,"dateOfTransfer":"1996-12-06T00:00:00","postcodeFull":"CT19 6LW","propertyType":"Semi-detached","oldOrNew":"Established","duration":"Freehold","paon":"23","saon":"","street":"BRABNER CLOSE","locality":"FOLKESTONE","townOrCity":"FOLKESTONE","district":"SHEPWAY","county":"KENT","ppdCategoryType":"Standard","recordStatus":"Addition","latitude":51.095457,"longitude":1.186156,"postcodeStart":"CT19 6","postcode":["CT19","6LW"]}
{"price":46000,"dateOfTransfer":"1996-08-12T00:00:00","postcodeFull":"CT19 6DQ","propertyType":"Terraced","oldOrNew":"Established","duration":"Freehold","paon":"30","saon":"","street":"PENFOLD ROAD","locality":"FOLKESTONE","townOrCity":"FOLKESTONE","district":"SHEPWAY","county":"KENT","ppdCategoryType":"Standard","recordStatus":"Addition","latitude":51.084861,"longitude":1.19044,"postcodeStart":"CT19 6","postcode":["CT19","6DQ"]}
{"price":44500,"dateOfTransfer":"1996-04-30T00:00:00","postcodeFull":"CT19 6NX","propertyType":"Semi-detached","oldOrNew":"Established","duration":"Freehold","paon":"14","saon":"","street":"JOYES ROAD","locality":"FOLKESTONE","townOrCity":"FOLKESTONE","district":"SHEPWAY","county":"KENT","ppdCategoryType":"Standard","recordStatus":"Addition","latitude":51.090078,"longitude":1.187143,"postcodeStart":"CT19 6","postcode":["CT19","6NX"]}
{"price":94000,"dateOfTransfer":"1996-04-09T00:00:00","postcodeFull":"CT19 6AX","propertyType":"Detached","oldOrNew":"Established","duration":"Freehold","paon":"19","saon":"","street":"WEAR BAY CRESCENT","locality":"FOLKESTONE","townOrCity":"FOLKESTONE","district":"SHEPWAY","county":"KENT","ppdCategoryType":"Standard","recordStatus":"Addition","latitude":51.083818,"longitude":1.192396,"postcodeStart":"CT19 6","postcode":["CT19","6AX"]}
{"price":20500,"dateOfTransfer":"1996-09-12T00:00:00","postcodeFull":"CT19 6EP","propertyType":"Terraced","oldOrNew":"Established","duration":"Leasehold","paon":"4","saon":"","street":"GREENFIELD ROAD","locality":"FOLKESTONE","townOrCity":"FOLKESTONE","district":"SHEPWAY","county":"KENT","ppdCategoryType":"Standard","recordStatus":"Addition","latitude":51.08916,"longitude":1.183866,"postcodeStart":"CT19 6","postcode":["CT19","6EP"]}
{"price":21000,"dateOfTransfer":"1996-03-08T00:00:00","postcodeFull":"CT19 6BU","propertyType":"Detached","oldOrNew":"Established","duration":"Freehold","paon":"3","saon":"","street":"EAST CLIFF","locality":"FOLKESTONE","townOrCity":"FOLKESTONE","district":"SHEPWAY","county":"KENT","ppdCategoryType":"Standard","recordStatus":"Addition","latitude":51.08322,"longitude":1.188913,"postcodeStart":"CT19 6","postcode":["CT19","6BU"]}
{"price":80000,"dateOfTransfer":"1996-03-29T00:00:00","postcodeFull":"CT19 6DX","propertyType":"Semi-detached","oldOrNew":"Established","duration":"Freehold","paon":"20","saon":"","street":"WHITE CLIFF WAY","locality":"FOLKESTONE","townOrCity":"FOLKESTONE","district":"SHEPWAY","county":"KENT","ppdCategoryType":"Standard","recordStatus":"Addition","latitude":51.087845,"longitude":1.195801,"postcodeStart":"CT19 6","postcode":["CT19","6DX"]}
{"price":37500,"dateOfTransfer":"1996-05-02T00:00:00","postcodeFull":"CT19 6EG","propertyType":"Terraced","oldOrNew":"Established","duration":"Freehold","paon":"25","saon":"","street":"ALEXANDRA STREET","locality":"FOLKESTONE","townOrCity":"FOLKESTONE","district":"SHEPWAY","county":"KENT","ppdCategoryType":"Standard","recordStatus":"Addition","latitude":51.088664,"longitude":1.186545,"postcodeStart":"CT19 6","postcode":["CT19","6EG"]}
{"price":39995,"dateOfTransfer":"1996-12-20T00:00:00","postcodeFull":"CT19 6EN","propertyType":"Terraced","oldOrNew":"Established","duration":"Freehold","paon":"8","saon":"","street":"MARSHALL STREET","locality":"FOLKESTONE","townOrCity":"FOLKESTONE","district":"SHEPWAY","county":"KENT","ppdCategoryType":"Standard","recordStatus":"Addition","latitude":51.08952,"longitude":1.182534,"postcodeStart":"CT19 6","postcode":["CT19","6EN"]}
{"price":83000,"dateOfTransfer":"1996-05-17T00:00:00","postcodeFull":"CT19 6AT","propertyType":"Semi-detached","oldOrNew":"Established","duration":"Freehold","paon":"4","saon":"","street":"WEAR BAY ROAD","locality":"FOLKESTONE","townOrCity":"FOLKESTONE","district":"SHEPWAY","county":"KENT","ppdCategoryType":"Standard","recordStatus":"Addition","latitude":51.082692,"longitude":1.190322,"postcodeStart":"CT19 6","postcode":["CT19","6AT"]}
{"price":30000,"dateOfTransfer":"1996-12-31T00:00:00","postcodeFull":"CT19 6DG","propertyType":"Semi-detached","oldOrNew":"Established","duration":"Freehold","paon":"9","saon":"","street":"PENFOLD ROAD","locality":"FOLKESTONE","townOrCity":"FOLKESTONE","district":"SHEPWAY","county":"KENT","ppdCategoryType":"Standard","recordStatus":"Addition","latitude":51.08532,"longitude":1.191428,"postcodeStart":"CT19 6","postcode":["CT19","6DG"]}
{"price":42000,"dateOfTransfer":"1996-06-05T00:00:00","postcodeFull":"CT19 6QB","propertyType":"Semi-detached","oldOrNew":"Established","duration":"Freehold","paon":"10","saon":"","street":"THE CLOSE","locality":"FOLKESTONE","townOrCity":"FOLKESTONE","district":"SHEPWAY","county":"KENT","ppdCategoryType":"Standard","recordStatus":"Addition","latitude":51.095208,"longitude":1.183753,"postcodeStart":"CT19 6","postcode":["CT19","6QB"]}
{"price":65000,"dateOfTransfer":"1996-02-09T00:00:00","postcodeFull":"CT19 6AZ","propertyType":"Semi-detached","oldOrNew":"Established","duration":"Freehold","paon":"7","saon":"","street":"SEGRAVE CRESCENT","locality":"FOLKESTONE","townOrCity":"FOLKESTONE","district":"SHEPWAY","county":"KENT","ppdCategoryType":"Standard","recordStatus":"Addition","latitude":51.08454,"longitude":1.191632,"postcodeStart":"CT19 6","postcode":["CT19","6AZ"]}
{"price":25160,"dateOfTransfer":"1996-04-19T00:00:00","postcodeFull":"CT19 6QE","propertyType":"Semi-detached","oldOrNew":"New build","duration":"Freehold","paon":"3","saon":"","street":"PILGRIM SPRING","locality":"FOLKESTONE","townOrCity":"FOLKESTONE","district":"SHEPWAY","county":"KENT","ppdCategoryType":"Standard","recordStatus":"Addition","latitude":51.096495,"longitude":1.176442,"postcodeStart":"CT19 6","postcode":["CT19","6QE"]}
{"price":45000,"dateOfTransfer":"1996-11-25T00:00:00","postcodeFull":"CT19 6JL","propertyType":"Semi-detached","oldOrNew":"Established","duration":"Freehold","paon":"28","saon":"","street":"INGOLDSBY ROAD","locality":"FOLKESTONE","townOrCity":"FOLKESTONE","district":"SHEPWAY","county":"KENT","ppdCategoryType":"Standard","recordStatus":"Addition","latitude":51.092155,"longitude":1.187186,"postcodeStart":"CT19 6","postcode":["CT19","6JL"]}
{"price":42000,"dateOfTransfer":"1996-05-31T00:00:00","postcodeFull":"CT19 6EX","propertyType":"Terraced","oldOrNew":"Established","duration":"Freehold","paon":"32","saon":"","street":"ETHELBERT ROAD","locality":"FOLKESTONE","townOrCity":"FOLKESTONE","district":"SHEPWAY","county":"KENT","ppdCategoryType":"Standard","recordStatus":"Addition","latitude":51.090733,"longitude":1.182603,"postcodeStart":"CT19 6","postcode":["CT19","6EX"]}
{"price":22000,"dateOfTransfer":"1996-01-29T00:00:00","postcodeFull":"CT19 6HF","propertyType":"Terraced","oldOrNew":"Established","duration":"Freehold","paon":"18","saon":"","street":"SIDNEY STREET","locality":"FOLKESTONE","townOrCity":"FOLKESTONE","district":"SHEPWAY","county":"KENT","ppdCategoryType":"Standard","recordStatus":"Addition","latitude":51.088453,"longitude":1.184403,"postcodeStart":"CT19 6","postcode":["CT19","6HF"]}
{"price":26500,"dateOfTransfer":"1996-08-16T00:00:00","postcodeFull":"CT19 6QU","propertyType":"Flat/Maisonette/Townhouse","oldOrNew":"Established","duration":"Leasehold","paon":"63","saon":"","street":"LAWRENCE COURT","locality":"FOLKESTONE","townOrCity":"FOLKESTONE","district":"SHEPWAY","county":"KENT","ppdCategoryType":"Standard","recordStatus":"Addition","latitude":51.087435,"longitude":1.188061,"postcodeStart":"CT19 6","postcode":["CT19","6QU"]}
{"price":38000,"dateOfTransfer":"1996-04-12T00:00:00","postcodeFull":"CT19 6EN","propertyType":"Terraced","oldOrNew":"Established","duration":"Freehold","paon":"21","saon":"","street":"MARSHALL STREET","locality":"FOLKESTONE","townOrCity":"FOLKESTONE","district":"SHEPWAY","county":"KENT","ppdCategoryType":"Standard","recordStatus":"Addition","latitude":51.08952,"longitude":1.182534,"postcodeStart":"CT19 6","postcode":["CT19","6EN"]}
{"price":55000,"dateOfTransfer":"1996-07-05T00:00:00","postcodeFull":"CT19 6DT","propertyType":"Semi-detached","oldOrNew":"Established","duration":"Freehold","paon":"35","saon":"","street":"WARREN WAY","locality":"FOLKESTONE","townOrCity":"FOLKESTONE","district":"SHEPWAY","county":"KENT","ppdCategoryType":"Standard","recordStatus":"Addition","latitude":51.087876,"longitude":1.194318,"postcodeStart":"CT19 6","postcode":["CT19","6DT"]}
{"price":52000,"dateOfTransfer":"1996-12-20T00:00:00","postcodeFull":"CT19 6PZ","propertyType":"Semi-detached","oldOrNew":"Established","duration":"Freehold","paon":"132","saon":"","street":"WEAR BAY ROAD","locality":"FOLKESTONE","townOrCity":"FOLKESTONE","district":"SHEPWAY","county":"KENT","ppdCategoryType":"Standard","recordStatus":"Addition","latitude":51.091986,"longitude":1.19303,"postcodeStart":"CT19 6","postcode":["CT19","6PZ"]}
{"price":41500,"dateOfTransfer":"1996-08-09T00:00:00","postcodeFull":"CT19 6HT","propertyType":"Semi-detached","oldOrNew":"Established","duration":"Freehold","paon":"4","saon":"","street":"WOOD AVENUE","locality":"FOLKESTONE","townOrCity":"FOLKESTONE","district":"SHEPWAY","county":"KENT","ppdCategoryType":"Standard","recordStatus":"Addition","latitude":51.093288,"longitude":1.18225,"postcodeStart":"CT19 6","postcode":["CT19","6HT"]}
{"price":34000,"dateOfTransfer":"1996-07-19T00:00:00","postcodeFull":"CT19 6BU","propertyType":"Flat/Maisonette/Townhouse","oldOrNew":"Established","duration":"Leasehold","paon":"14A","saon":"","street":"EAST CLIFF","locality":"FOLKESTONE","townOrCity":"FOLKESTONE","district":"SHEPWAY","county":"KENT","ppdCategoryType":"Standard","recordStatus":"Addition","latitude":51.08322,"longitude":1.188913,"postcodeStart":"CT19 6","postcode":["CT19","6BU"]}
{"price":86000,"dateOfTransfer":"1996-05-17T00:00:00","postcodeFull":"CT19 6NH","propertyType":"Semi-detached","oldOrNew":"Established","duration":"Freehold","paon":"237","saon":"","street":"DOVER ROAD","locality":"FOLKESTONE","townOrCity":"FOLKESTONE","district":"SHEPWAY","county":"KENT","ppdCategoryType":"Standard","recordStatus":"Addition","latitude":51.08872,"longitude":1.188323,"postcodeStart":"CT19 6","postcode":["CT19","6NH"]}
{"price":30000,"dateOfTransfer":"1996-02-01T00:00:00","postcodeFull":"CT19 6HL","propertyType":"Semi-detached","oldOrNew":"Established","duration":"Freehold","paon":"75","saon":"","street":"JOYES ROAD","locality":"FOLKESTONE","townOrCity":"FOLKESTONE","district":"SHEPWAY","county":"KENT","ppdCategoryType":"Standard","recordStatus":"Addition","latitude":51.091715,"longitude":1.183527,"postcodeStart":"CT19 6","postcode":["CT19","6HL"]}
{"price":49000,"dateOfTransfer":"1996-11-21T00:00:00","postcodeFull":"CT19 6DL","propertyType":"Terraced","oldOrNew":"Established","duration":"Freehold","paon":"49","saon":"","street":"WARREN ROAD","locality":"FOLKESTONE","townOrCity":"FOLKESTONE","district":"SHEPWAY","county":"KENT","ppdCategoryType":"Standard","recordStatus":"Addition","latitude":51.085968,"longitude":1.192044,"postcodeStart":"CT19 6","postcode":["CT19","6DL"]}
{"price":39500,"dateOfTransfer":"1996-05-03T00:00:00","postcodeFull":"CT19 6QE","propertyType":"Terraced","oldOrNew":"Established","duration":"Freehold","paon":"83","saon":"","street":"PILGRIM SPRING","locality":"FOLKESTONE","townOrCity":"FOLKESTONE","district":"SHEPWAY","county":"KENT","ppdCategoryType":"Standard","recordStatus":"Addition","latitude":51.096495,"longitude":1.176442,"postcodeStart":"CT19 6","postcode":["CT19","6QE"]}
{"price":33950,"dateOfTransfer":"1996-02-23T00:00:00","postcodeFull":"CT19 6EY","propertyType":"Terraced","oldOrNew":"Established","duration":"Freehold","paon":"8","saon":"","street":"INVICTA ROAD","locality":"FOLKESTONE","townOrCity":"FOLKESTONE","district":"SHEPWAY","county":"KENT","ppdCategoryType":"Standard","recordStatus":"Addition","latitude":51.090287,"longitude":1.182458,"postcodeStart":"CT19 6","postcode":["CT19","6EY"]}
{"price":67500,"dateOfTransfer":"1996-12-02T00:00:00","postcodeFull":"CT19 6NJ","propertyType":"Semi-detached","oldOrNew":"Established","duration":"Freehold","paon":"230","saon":"","street":"DOVER ROAD","locality":"FOLKESTONE","townOrCity":"FOLKESTONE","district":"SHEPWAY","county":"KENT","ppdCategoryType":"Standard","recordStatus":"Addition","latitude":51.088714,"longitude":1.189006,"postcodeStart":"CT19 6","postcode":["CT19","6NJ"]}
{"price":26000,"dateOfTransfer":"1996-02-05T00:00:00","postcodeFull":"CT19 6LL","propertyType":"Terraced","oldOrNew":"Established","duration":"Freehold","paon":"12","saon":"","street":"MONTGOMERY WAY","locality":"FOLKESTONE","townOrCity":"FOLKESTONE","district":"SHEPWAY","county":"KENT","ppdCategoryType":"Standard","recordStatus":"Addition","latitude":51.096663,"longitude":1.183839,"postcodeStart":"CT19 6","postcode":["CT19","6LL"]}
{"price":41750,"dateOfTransfer":"1996-10-18T00:00:00","postcodeFull":"CT19 6LJ","propertyType":"Terraced","oldOrNew":"Established","duration":"Freehold","paon":"3","saon":"","street":"PLIMSOLL AVENUE","locality":"FOLKESTONE","townOrCity":"FOLKESTONE","district":"SHEPWAY","county":"KENT","ppdCategoryType":"Standard","recordStatus":"Addition","latitude":51.096333,"longitude":1.18373,"postcodeStart":"CT19 6","postcode":["CT19","6LJ"]}
{"price":46000,"dateOfTransfer":"1996-09-02T00:00:00","postcodeFull":"CT19 6DF","propertyType":"Terraced","oldOrNew":"Established","duration":"Freehold","paon":"32","saon":"","street":"THANET GARDENS","locality":"FOLKESTONE","townOrCity":"FOLKESTONE","district":"SHEPWAY","county":"KENT","ppdCategoryType":"Standard","recordStatus":"Addition","latitude":51.086931,"longitude":1.191696,"postcodeStart":"CT19 6","postcode":["CT19","6DF"]}
{"price":42000,"dateOfTransfer":"1996-12-20T00:00:00","postcodeFull":"CT19 6HG","propertyType":"Terraced","oldOrNew":"Established","duration":"Freehold","paon":"52","saon":"","street":"SIDNEY STREET","locality":"FOLKESTONE","townOrCity":"FOLKESTONE","district":"SHEPWAY","county":"KENT","ppdCategoryType":"Standard","recordStatus":"Addition","latitude":51.089326,"longitude":1.184691,"postcodeStart":"CT19 6","postcode":["CT19","6HG"]}
{"price":38000,"dateOfTransfer":"1996-07-22T00:00:00","postcodeFull":"CT19 6DH","propertyType":"Terraced","oldOrNew":"Established","duration":"Freehold","paon":"13","saon":"","street":"BURROW ROAD","locality":"FOLKESTONE","townOrCity":"FOLKESTONE","district":"SHEPWAY","county":"KENT","ppdCategoryType":"Standard","recordStatus":"Addition","latitude":51.085348,"longitude":1.189716,"postcodeStart":"CT19 6","postcode":["CT19","6DH"]}
{"price":78000,"dateOfTransfer":"1996-05-10T00:00:00","postcodeFull":"CT19 6NZ","propertyType":"Semi-detached","oldOrNew":"Established","duration":"Freehold","paon":"290","saon":"","street":"DOVER ROAD","locality":"FOLKESTONE","townOrCity":"FOLKESTONE","district":"SHEPWAY","county":"KENT","ppdCategoryType":"Standard","recordStatus":"Addition","latitude":51.092787,"longitude":1.191357,"postcodeStart":"CT19 6","postcode":["CT19","6NZ"]}
{"price":34000,"dateOfTransfer":"1996-04-30T00:00:00","postcodeFull":"CT19 6NL","propertyType":"Terraced","oldOrNew":"New build","duration":"Freehold","paon":"10","saon":"","street":"STUART ROAD","locality":"FOLKESTONE","townOrCity":"FOLKESTONE","district":"SHEPWAY","county":"KENT","ppdCategoryType":"Standard","recordStatus":"Addition","latitude":51.088484,"longitude":1.189518,"postcodeStart":"CT19 6","postcode":["CT19","6NL"]}
{"price":30000,"dateOfTransfer":"1996-10-25T00:00:00","postcodeFull":"CT19 6LN","propertyType":"Terraced","oldOrNew":"Established","duration":"Freehold","paon":"38","saon":"","street":"MONTGOMERY WAY","locality":"FOLKESTONE","townOrCity":"FOLKESTONE","district":"SHEPWAY","county":"KENT","ppdCategoryType":"Standard","recordStatus":"Addition","latitude":51.096176,"longitude":1.185519,"postcodeStart":"CT19 6","postcode":["CT19","6LN"]}
{"price":45500,"dateOfTransfer":"1996-12-20T00:00:00","postcodeFull":"CT19 6HT","propertyType":"Semi-detached","oldOrNew":"Established","duration":"Freehold","paon":"2","saon":"","street":"WOOD AVENUE","locality":"FOLKESTONE","townOrCity":"FOLKESTONE","district":"SHEPWAY","county":"KENT","ppdCategoryType":"Standard","recordStatus":"Addition","latitude":51.093288,"longitude":1.18225,"postcodeStart":"CT19 6","postcode":["CT19","6HT"]}
{"price":42000,"dateOfTransfer":"1996-10-18T00:00:00","postcodeFull":"CT19 6DA","propertyType":"Terraced","oldOrNew":"Established","duration":"Freehold","paon":"58","saon":"","street":"DUDLEY ROAD","locality":"FOLKESTONE","townOrCity":"FOLKESTONE","district":"SHEPWAY","county":"KENT","ppdCategoryType":"Standard","recordStatus":"Addition","latitude":51.083595,"longitude":1.190367,"postcodeStart":"CT19 6","postcode":["CT19","6DA"]}
{"price":32000,"dateOfTransfer":"1996-08-16T00:00:00","postcodeFull":"CT19 6DB","propertyType":"Terraced","oldOrNew":"Established","duration":"Freehold","paon":"16","saon":"","street":"SOUTHBOURNE ROAD","locality":"FOLKESTONE","townOrCity":"FOLKESTONE","district":"SHEPWAY","county":"KENT","ppdCategoryType":"Standard","recordStatus":"Addition","latitude":51.084372,"longitude":1.189221,"postcodeStart":"CT19 6","postcode":["CT19","6DB"]}
{"price":46000,"dateOfTransfer":"1996-11-08T00:00:00","postcodeFull":"CT19 6LQ","propertyType":"Terraced","oldOrNew":"Established","duration":"Freehold","paon":"31","saon":"","street":"GEORGE GURR CRESCENT","locality":"FOLKESTONE","townOrCity":"FOLKESTONE","district":"SHEPWAY","county":"KENT","ppdCategoryType":"Standard","recordStatus":"Addition","latitude":51.095449,"longitude":1.183762,"postcodeStart":"CT19 6","postcode":["CT19","6LQ"]}
{"price":40000,"dateOfTransfer":"1996-09-27T00:00:00","postcodeFull":"CT19 6EX","propertyType":"Terraced","oldOrNew":"Established","duration":"Freehold","paon":"21","saon":"","street":"ETHELBERT ROAD","locality":"FOLKESTONE","townOrCity":"FOLKESTONE","district":"SHEPWAY","county":"KENT","ppdCategoryType":"Standard","recordStatus":"Addition","latitude":51.090733,"longitude":1.182603,"postcodeStart":"CT19 6","postcode":["CT19","6EX"]}
{"price":59950,"dateOfTransfer":"1996-09-27T00:00:00","postcodeFull":"CT19 6BD","propertyType":"Semi-detached","oldOrNew":"Established","duration":"Freehold","paon":"6","saon":"","street":"HASBOROUGH ROAD","locality":"FOLKESTONE","townOrCity":"FOLKESTONE","district":"SHEPWAY","county":"KENT","ppdCategoryType":"Standard","recordStatus":"Addition","latitude":51.084574,"longitude":1.194033,"postcodeStart":"CT19 6","postcode":["CT19","6BD"]}
{"price":32500,"dateOfTransfer":"1996-08-16T00:00:00","postcodeFull":"CT19 6BZ","propertyType":"Terraced","oldOrNew":"Established","duration":"Freehold","paon":"26","saon":"","street":"DUDLEY ROAD","locality":"FOLKESTONE","townOrCity":"FOLKESTONE","district":"SHEPWAY","county":"KENT","ppdCategoryType":"Standard","recordStatus":"Addition","latitude":51.083579,"longitude":1.189281,"postcodeStart":"CT19 6","postcode":["CT19","6BZ"]}
{"price":45000,"dateOfTransfer":"1996-08-09T00:00:00","postcodeFull":"CT19 6PP","propertyType":"Terraced","oldOrNew":"Established","duration":"Freehold","paon":"110","saon":"","street":"HOLLANDS AVENUE","locality":"FOLKESTONE","townOrCity":"FOLKESTONE","district":"SHEPWAY","county":"KENT","ppdCategoryType":"Standard","recordStatus":"Addition","latitude":51.092395,"longitude":1.197501,"postcodeStart":"CT19 6","postcode":["CT19","6PP"]}
{"price":80000,"dateOfTransfer":"1996-08-02T00:00:00","postcodeFull":"CT19 6AT","propertyType":"Semi-detached","oldOrNew":"Established","duration":"Freehold","paon":"6","saon":"","street":"WEAR BAY ROAD","locality":"FOLKESTONE","townOrCity":"FOLKESTONE","district":"SHEPWAY","county":"KENT","ppdCategoryType":"Standard","recordStatus":"Addition","latitude":51.082692,"longitude":1.190322,"postcodeStart":"CT19 6","postcode":["CT19","6AT"]}
{"price":49000,"dateOfTransfer":"1996-12-09T00:00:00","postcodeFull":"CT19 6LQ","propertyType":"Semi-detached","oldOrNew":"Established","duration":"Freehold","paon":"19","saon":"","street":"GEORGE GURR CRESCENT","locality":"FOLKESTONE","townOrCity":"FOLKESTONE","district":"SHEPWAY","county":"KENT","ppdCategoryType":"Standard","recordStatus":"Addition","latitude":51.095449,"longitude":1.183762,"postcodeStart":"CT19 6","postcode":["CT19","6LQ"]}
{"price":29500,"dateOfTransfer":"1996-09-27T00:00:00","postcodeFull":"CT19 6EA","propertyType":"Terraced","oldOrNew":"Established","duration":"Freehold","paon":"3","saon":"","street":"ELM ROAD","locality":"FOLKESTONE","townOrCity":"FOLKESTONE","district":"SHEPWAY","county":"KENT","ppdCategoryType":"Standard","recordStatus":"Addition","latitude":51.087379,"longitude":1.186514,"postcodeStart":"CT19 6","postcode":["CT19","6EA"]}
{"price":38000,"dateOfTransfer":"1996-01-04T00:00:00","postcodeFull":"CT19 6EX","propertyType":"Terraced","oldOrNew":"Established","duration":"Freehold","paon":"27","saon":"","street":"ETHELBERT ROAD","locality":"FOLKESTONE","townOrCity":"FOLKESTONE","district":"SHEPWAY","county":"KENT","ppdCategoryType":"Standard","recordStatus":"Addition","latitude":51.090733,"longitude":1.182603,"postcodeStart":"CT19 6","postcode":["CT19","6EX"]}
{"price":34000,"dateOfTransfer":"1996-07-17T00:00:00","postcodeFull":"CT19 6DB","propertyType":"Terraced","oldOrNew":"Established","duration":"Freehold","paon":"7","saon":"","street":"SOUTHBOURNE ROAD","locality":"FOLKESTONE","townOrCity":"FOLKESTONE","district":"SHEPWAY","county":"KENT","ppdCategoryType":"Standard","recordStatus":"Addition","latitude":51.084372,"longitude":1.189221,"postcodeStart":"CT19 6","postcode":["CT19","6DB"]}
{"price":50000,"dateOfTransfer":"1996-09-06T00:00:00","postcodeFull":"CT19 6ER","propertyType":"Terraced","oldOrNew":"Established","duration":"Freehold","paon":"58","saon":"","street":"GREENFIELD ROAD","locality":"FOLKESTONE","townOrCity":"FOLKESTONE","district":"SHEPWAY","county":"KENT","ppdCategoryType":"Standard","recordStatus":"Addition","latitude":51.090068,"longitude":1.184542,"postcodeStart":"CT19 6","postcode":["CT19","6ER"]}
{"price":36500,"dateOfTransfer":"1996-12-13T00:00:00","postcodeFull":"CT19 6HQ","propertyType":"Terraced","oldOrNew":"Established","duration":"Freehold","paon":"64","saon":"","street":"SIDNEY STREET","locality":"FOLKESTONE","townOrCity":"FOLKESTONE","district":"SHEPWAY","county":"KENT","ppdCategoryType":"Standard","recordStatus":"Addition","latitude":51.090332,"longitude":1.185934,"postcodeStart":"CT19 6","postcode":["CT19","6HQ"]}
{"price":35500,"dateOfTransfer":"1996-10-10T00:00:00","postcodeFull":"CT19 6DF","propertyType":"Terraced","oldOrNew":"Established","duration":"Freehold","paon":"35","saon":"","street":"THANET GARDENS","locality":"FOLKESTONE","townOrCity":"FOLKESTONE","district":"SHEPWAY","county":"KENT","ppdCategoryType":"Standard","recordStatus":"Addition","latitude":51.086931,"longitude":1.191696,"postcodeStart":"CT19 6","postcode":["CT19","6DF"]}
{"price":40000,"dateOfTransfer":"1996-10-21T00:00:00","postcodeFull":"CT19 6DB","propertyType":"Terraced","oldOrNew":"Established","duration":"Freehold","paon":"19","saon":"","street":"SOUTHBOURNE ROAD","locality":"FOLKESTONE","townOrCity":"FOLKESTONE","district":"SHEPWAY","county":"KENT","ppdCategoryType":"Standard","recordStatus":"Addition","latitude":51.084372,"longitude":1.189221,"postcodeStart":"CT19 6","postcode":["CT19","6DB"]}
{"price":20500,"dateOfTransfer":"1996-09-12T00:00:00","postcodeFull":"CT19 6EP","propertyType":"Terraced","oldOrNew":"Established","duration":"Freehold","paon":"4","saon":"","street":"GREENFIELD ROAD","locality":"FOLKESTONE","townOrCity":"FOLKESTONE","district":"SHEPWAY","county":"KENT","ppdCategoryType":"Standard","recordStatus":"Addition","latitude":51.08916,"longitude":1.183866,"postcodeStart":"CT19 6","postcode":["CT19","6EP"]}
{"price":72000,"dateOfTransfer":"1996-05-24T00:00:00","postcodeFull":"CT19 6AW","propertyType":"Flat/Maisonette/Townhouse","oldOrNew":"Established","duration":"Leasehold","paon":"ST ANDREWS","saon":"FLAT 7","street":"THE DURLOCKS","locality":"FOLKESTONE","townOrCity":"FOLKESTONE","district":"SHEPWAY","county":"KENT","ppdCategoryType":"Standard","recordStatus":"Addition","latitude":51.081763,"longitude":1.188445,"postcodeStart":"CT19 6","postcode":["CT19","6AW"]}
{"price":59000,"dateOfTransfer":"1996-03-29T00:00:00","postcodeFull":"CT19 6PZ","propertyType":"Semi-detached","oldOrNew":"Established","duration":"Freehold","paon":"139","saon":"","street":"WEAR BAY ROAD","locality":"FOLKESTONE","townOrCity":"FOLKESTONE","district":"SHEPWAY","county":"KENT","ppdCategoryType":"Standard","recordStatus":"Addition","latitude":51.091986,"longitude":1.19303,"postcodeStart":"CT19 6","postcode":["CT19","6PZ"]}
{"price":59950,"dateOfTransfer":"1996-06-21T00:00:00","postcodeFull":"CT19 6DT","propertyType":"Semi-detached","oldOrNew":"Established","duration":"Freehold","paon":"16","saon":"","street":"WARREN WAY","locality":"FOLKESTONE","townOrCity":"FOLKESTONE","district":"SHEPWAY","county":"KENT","ppdCategoryType":"Standard","recordStatus":"Addition","latitude":51.087876,"longitude":1.194318,"postcodeStart":"CT19 6","postcode":["CT19","6DT"]}
{"price":46000,"dateOfTransfer":"1996-11-07T00:00:00","postcodeFull":"CT19 6AZ","propertyType":"Semi-detached","oldOrNew":"Established","duration":"Freehold","paon":"5","saon":"","street":"SEGRAVE CRESCENT","locality":"FOLKESTONE","townOrCity":"FOLKESTONE","district":"SHEPWAY","county":"KENT","ppdCategoryType":"Standard","recordStatus":"Addition","latitude":51.08454,"longitude":1.191632,"postcodeStart":"CT19 6","postcode":["CT19","6AZ"]}
{"price":27500,"dateOfTransfer":"1996-05-21T00:00:00","postcodeFull":"CT19 6HQ","propertyType":"Terraced","oldOrNew":"Established","duration":"Freehold","paon":"78","saon":"","street":"SIDNEY STREET","locality":"FOLKESTONE","townOrCity":"FOLKESTONE","district":"SHEPWAY","county":"KENT","ppdCategoryType":"Standard","recordStatus":"Addition","latitude":51.090332,"longitude":1.185934,"postcodeStart":"CT19 6","postcode":["CT19","6HQ"]}
{"price":58000,"dateOfTransfer":"1996-07-26T00:00:00","postcodeFull":"CT19 6PD","propertyType":"Semi-detached","oldOrNew":"Established","duration":"Freehold","paon":"24","saon":"","street":"STANBURY CRESCENT","locality":"FOLKESTONE","townOrCity":"FOLKESTONE","district":"SHEPWAY","county":"KENT","ppdCategoryType":"Standard","recordStatus":"Addition","latitude":51.092827,"longitude":1.19386,"postcodeStart":"CT19 6","postcode":["CT19","6PD"]}
{"price":26250,"dateOfTransfer":"1996-05-31T00:00:00","postcodeFull":"CT19 6JJ","propertyType":"Terraced","oldOrNew":"Established","duration":"Freehold","paon":"20","saon":"","street":"INGOLDSBY ROAD","locality":"FOLKESTONE","townOrCity":"FOLKESTONE","district":"SHEPWAY","county":"KENT","ppdCategoryType":"Standard","recordStatus":"Addition","latitude":51.091117,"longitude":1.1863,"postcodeStart":"CT19 6","postcode":["CT19","6JJ"]}
{"price":24500,"dateOfTransfer":"1996-06-27T00:00:00","postcodeFull":"CT19 6EJ","propertyType":"Flat/Maisonette/Townhouse","oldOrNew":"Established","duration":"Leasehold","paon":"9","saon":"","street":"DENMARK STREET","locality":"FOLKESTONE","townOrCity":"FOLKESTONE","district":"SHEPWAY","county":"KENT","ppdCategoryType":"Standard","recordStatus":"Addition","latitude":51.087986,"longitude":1.185685,"postcodeStart":"CT19 6","postcode":["CT19","6EJ"]}
{"price":46750,"dateOfTransfer":"1996-04-12T00:00:00","postcodeFull":"CT19 6ER","propertyType":"Semi-detached","oldOrNew":"Established","duration":"Freehold","paon":"78","saon":"","street":"GREENFIELD ROAD","locality":"FOLKESTONE","townOrCity":"FOLKESTONE","district":"SHEPWAY","county":"KENT","ppdCategoryType":"Standard","recordStatus":"Addition","latitude":51.090068,"longitude":1.184542,"postcodeStart":"CT19 6","postcode":["CT19","6ER"]}
{"price":39500,"dateOfTransfer":"1996-08-30T00:00:00","postcodeFull":"CT19 6EX","propertyType":"Terraced","oldOrNew":"Established","duration":"Freehold","paon":"25","saon":"","street":"ETHELBERT ROAD","locality":"FOLKESTONE","townOrCity":"FOLKESTONE","district":"SHEPWAY","county":"KENT","ppdCategoryType":"Standard","recordStatus":"Addition","latitude":51.090733,"longitude":1.182603,"postcodeStart":"CT19 6","postcode":["CT19","6EX"]}
{"price":34000,"dateOfTransfer":"1996-09-26T00:00:00","postcodeFull":"CT19 6HG","propertyType":"Semi-detached","oldOrNew":"Established","duration":"Freehold","paon":"22A","saon":"","street":"SIDNEY STREET","locality":"FOLKESTONE","townOrCity":"FOLKESTONE","district":"SHEPWAY","county":"KENT","ppdCategoryType":"Standard","recordStatus":"Addition","latitude":51.089326,"longitude":1.184691,"postcodeStart":"CT19 6","postcode":["CT19","6HG"]}
{"price":36950,"dateOfTransfer":"1996-10-18T00:00:00","postcodeFull":"CT19 6QE","propertyType":"Semi-detached","oldOrNew":"Established","duration":"Freehold","paon":"15","saon":"","street":"PILGRIM SPRING","locality":"FOLKESTONE","townOrCity":"FOLKESTONE","district":"SHEPWAY","county":"KENT","ppdCategoryType":"Standard","recordStatus":"Addition","latitude":51.096495,"longitude":1.176442,"postcodeStart":"CT19 6","postcode":["CT19","6QE"]}
{"price":46000,"dateOfTransfer":"1996-08-19T00:00:00","postcodeFull":"CT19 6LW","propertyType":"Semi-detached","oldOrNew":"Established","duration":"Freehold","paon":"23","saon":"","street":"BRABNER CLOSE","locality":"FOLKESTONE","townOrCity":"FOLKESTONE","district":"SHEPWAY","county":"KENT","ppdCategoryType":"Standard","recordStatus":"Addition","latitude":51.095457,"longitude":1.186156,"postcodeStart":"CT19 6","postcode":["CT19","6LW"]}
{"price":15500,"dateOfTransfer":"1996-07-24T00:00:00","postcodeFull":"CT19 6BA","propertyType":"Flat/Maisonette/Townhouse","oldOrNew":"Established","duration":"Leasehold","paon":"61","saon":"SECOND FLOOR FLAT","street":"WEAR BAY CRESCENT","locality":"FOLKESTONE","townOrCity":"FOLKESTONE","district":"SHEPWAY","county":"KENT","ppdCategoryType":"Standard","recordStatus":"Addition","latitude":51.085373,"longitude":1.192432,"postcodeStart":"CT19 6","postcode":["CT19","6BA"]}
{"price":65000,"dateOfTransfer":"1996-02-26T00:00:00","postcodeFull":"CT19 6PD","propertyType":"Detached","oldOrNew":"Established","duration":"Freehold","paon":"53","saon":"","street":"STANBURY CRESCENT","locality":"FOLKESTONE","townOrCity":"FOLKESTONE","district":"SHEPWAY","county":"KENT","ppdCategoryType":"Standard","recordStatus":"Addition","latitude":51.092827,"longitude":1.19386,"postcodeStart":"CT19 6","postcode":["CT19","6PD"]}
{"price":42000,"dateOfTransfer":"1996-12-12T00:00:00","postcodeFull":"CT19 6EN","propertyType":"Terraced","oldOrNew":"Established","duration":"Freehold","paon":"5","saon":"","street":"MARSHALL STREET","locality":"FOLKESTONE","townOrCity":"FOLKESTONE","district":"SHEPWAY","county":"KENT","ppdCategoryType":"Standard","recordStatus":"Addition","latitude":51.08952,"longitude":1.182534,"postcodeStart":"CT19 6","postcode":["CT19","6EN"]}
{"price":24000,"dateOfTransfer":"1996-08-20T00:00:00","postcodeFull":"CT19 6BA","propertyType":"Flat/Maisonette/Townhouse","oldOrNew":"Established","duration":"Leasehold","paon":"61","saon":"GROUND FLOOR FLAT","street":"WEAR BAY CRESCENT","locality":"FOLKESTONE","townOrCity":"FOLKESTONE","district":"SHEPWAY","county":"KENT","ppdCategoryType":"Standard","recordStatus":"Addition","latitude":51.085373,"longitude":1.192432,"postcodeStart":"CT19 6","postcode":["CT19","6BA"]}
