{"price":57000,"dateOfTransfer":"1995-08-04T00:00:00","postcodeFull":"DE72 2BW","propertyType":"Detached","oldOrNew":"Established","duration":"Freehold","paon":"49","saon":"","street":"MANOR FARM ROAD","locality":"ASTON ON TRENT","townOrCity":"DERBY","district":"SOUTH DERBYSHIRE","county":"DERBYSHIRE","ppdCategoryType":"Standard","recordStatus":"Addition","latitude":52.862069,"longitude":-1.381799,"postcodeStart":"DE72 2","postcode":["DE72","2BW"]}
{"price":120750,"dateOfTransfer":"1995-09-22T00:00:00","postcodeFull":"DE72 2BT","propertyType":"Detached","oldOrNew":"New build","duration":"Freehold","paon":"21","saon":"","street":"TRENT LANE","locality":"WESTON ON TRENT","townOrCity":"DERBY","district":"SOUTH DERBYSHIRE","county":"DERBYSHIRE","ppdCategoryType":"Standard","recordStatus":"Addition","latitude":52.84714,"longitude":-1.39963,"postcodeStart":"DE72 2","postcode":["DE72","2BT"]}
{"price":30000,"dateOfTransfer":"1995-12-08T00:00:00","postcodeFull":"DE72 2GP","propertyType":"Detached","oldOrNew":"Established","duration":"Freehold","paon":"103","saon":"","street":"LONDON ROAD","locality":"SHARDLOW","townOrCity":"DERBY","district":"SOUTH DERBYSHIRE","county":"DERBYSHIRE","ppdCategoryType":"Standard","recordStatus":"Addition","latitude":52.869044,"longitude":-1.352878,"postcodeStart":"DE72 2","postcode":["DE72","2GP"]}
{"price":97500,"dateOfTransfer":"1995-01-20T00:00:00","postcodeFull":"DE72 2WE","propertyType":"Terraced","oldOrNew":"Established","duration":"Freehold","paon":"17","saon":"","street":"MILL GREEN","locality":"SHARDLOW","townOrCity":"DERBY","district":"SOUTH DERBYSHIRE","county":"DERBYSHIRE","ppdCategoryType":"Standard","recordStatus":"Addition","latitude":52.869407,"longitude":-1.343664,"postcodeStart":"DE72 2","postcode":["DE72","2WE"]}
{"price":52000,"dateOfTransfer":"1995-05-26T00:00:00","postcodeFull":"DE72 2HD","propertyType":"Detached","oldOrNew":"Established","duration":"Freehold","paon":"1","saon":"","street":"MILLFIELD","locality":"SHARDLOW","townOrCity":"DERBY","district":"SOUTH DERBYSHIRE","county":"DERBYSHIRE","ppdCategoryType":"Standard","recordStatus":"Addition","latitude":52.870385,"longitude":-1.338375,"postcodeStart":"DE72 2","postcode":["DE72","2HD"]}
{"price":34000,"dateOfTransfer":"1995-04-21T00:00:00","postcodeFull":"DE72 2BG","propertyType":"Terraced","oldOrNew":"Established","duration":"Freehold","paon":"6","saon":"","street":"YATES AVENUE","locality":"ASTON ON TRENT","townOrCity":"DERBY","district":"SOUTH DERBYSHIRE","county":"DERBYSHIRE","ppdCategoryType":"Standard","recordStatus":"Addition","latitude":52.857415,"longitude":-1.390999,"postcodeStart":"DE72 2","postcode":["DE72","2BG"]}
{"price":57500,"dateOfTransfer":"1995-11-03T00:00:00","postcodeFull":"DE72 2HH","propertyType":"Semi-detached","oldOrNew":"Established","duration":"Freehold","paon":"9","saon":"","street":"THE MALTINGS","locality":"SHARDLOW","townOrCity":"DERBY","district":"SOUTH DERBYSHIRE","county":"DERBYSHIRE","ppdCategoryType":"Standard","recordStatus":"Addition","latitude":52.870215,"longitude":-1.340338,"postcodeStart":"DE72 2","postcode":["DE72","2HH"]}
{"price":71000,"dateOfTransfer":"1995-07-31T00:00:00","postcodeFull":"DE72 2WE","propertyType":"Detached","oldOrNew":"Established","duration":"Freehold","paon":"1","saon":"","street":"MILL GREEN","locality":"SHARDLOW","townOrCity":"DERBY","district":"SOUTH DERBYSHIRE","county":"DERBYSHIRE","ppdCategoryType":"Standard","recordStatus":"Addition","latitude":52.869407,"longitude":-1.343664,"postcodeStart":"DE72 2","postcode":["DE72","2WE"]}
{"price":35000,"dateOfTransfer":"1995-03-31T00:00:00","postcodeFull":"DE72 2HL","propertyType":"Terraced","oldOrNew":"Established","duration":"Freehold","paon":"CAVENDISH COTTAGES","saon":"4","street":"CAVENDISH BRIDGE","locality":"SHARDLOW","townOrCity":"DERBY","district":"NORTH WEST LEICESTERSHIRE","county":"LEICESTERSHIRE","ppdCategoryType":"Standard","recordStatus":"Addition","latitude":52.864236,"longitude":-1.338373,"postcodeStart":"DE72 2","postcode":["DE72","2HL"]}
{"price":52750,"dateOfTransfer":"1995-11-24T00:00:00","postcodeFull":"DE72 2AS","propertyType":"Semi-detached","oldOrNew":"Established","duration":"Freehold","paon":"58","saon":"","street":"WESTON ROAD","locality":"ASTON ON TRENT","townOrCity":"DERBY","district":"SOUTH DERBYSHIRE","county":"DERBYSHIRE","ppdCategoryType":"Standard","recordStatus":"Addition","latitude":52.861304,"longitude":-1.38683,"postcodeStart":"DE72 2","postcode":["DE72","2AS"]}
{"price":85000,"dateOfTransfer":"1995-06-30T00:00:00","postcodeFull":"DE72 2BL","propertyType":"Detached","oldOrNew":"Established","duration":"Freehold","paon":"80","saon":"","street":"MAIN STREET","locality":"WESTON ON TRENT","townOrCity":"DERBY","district":"SOUTH DERBYSHIRE","county":"DERBYSHIRE","ppdCategoryType":"Standard","recordStatus":"Addition","latitude":52.848464,"longitude":-1.402052,"postcodeStart":"DE72 2","postcode":["DE72","2BL"]}
{"price":70000,"dateOfTransfer":"1995-08-25T00:00:00","postcodeFull":"DE72 2BA","propertyType":"Detached","oldOrNew":"Established","duration":"Freehold","paon":"106","saon":"","street":"WESTON ROAD","locality":"ASTON ON TRENT","townOrCity":"DERBY","district":"SOUTH DERBYSHIRE","county":"DERBYSHIRE","ppdCategoryType":"Standard","recordStatus":"Addition","latitude":52.859623,"longitude":-1.390225,"postcodeStart":"DE72 2","postcode":["DE72","2BA"]}
{"price":65000,"dateOfTransfer":"1995-11-29T00:00:00","postcodeFull":"DE72 2BH","propertyType":"Detached","oldOrNew":"Established","duration":"Freehold","paon":"RAGLETH","saon":"","street":"WESTON ROAD","locality":"WESTON ON TRENT","townOrCity":"DERBY","district":"SOUTH DERBYSHIRE","county":"DERBYSHIRE","ppdCategoryType":"Standard","recordStatus":"Addition","latitude":52.852787,"longitude":-1.396404,"postcodeStart":"DE72 2","postcode":["DE72","2BH"]}
{"price":43000,"dateOfTransfer":"1995-03-06T00:00:00","postcodeFull":"DE72 2AU","propertyType":"Semi-detached","oldOrNew":"Established","duration":"Freehold","paon":"3","saon":"","street":"COMPTON AVENUE","locality":"ASTON ON TRENT","townOrCity":"DERBY","district":"SOUTH DERBYSHIRE","county":"DERBYSHIRE","ppdCategoryType":"Standard","recordStatus":"Addition","latitude":52.862893,"longitude":-1.387996,"postcodeStart":"DE72 2","postcode":["DE72","2AU"]}
{"price":59500,"dateOfTransfer":"1995-01-17T00:00:00","postcodeFull":"DE72 2GZ","propertyType":"Detached","oldOrNew":"Established","duration":"Freehold","paon":"25","saon":"","street":"GLENN WAY","locality":"SHARDLOW","townOrCity":"DERBY","district":"SOUTH DERBYSHIRE","county":"DERBYSHIRE","ppdCategoryType":"Standard","recordStatus":"Addition","latitude":52.870125,"longitude":-1.361525,"postcodeStart":"DE72 2","postcode":["DE72","2GZ"]}
{"price":69950,"dateOfTransfer":"1995-12-22T00:00:00","postcodeFull":"DE72 2GZ","propertyType":"Detached","oldOrNew":"Established","duration":"Freehold","paon":"37","saon":"","street":"GLENN WAY","locality":"SHARDLOW","townOrCity":"DERBY","district":"SOUTH DERBYSHIRE","county":"DERBYSHIRE","ppdCategoryType":"Standard","recordStatus":"Addition","latitude":52.870125,"longitude":-1.361525,"postcodeStart":"DE72 2","postcode":["DE72","2GZ"]}
{"price":52750,"dateOfTransfer":"1995-10-27T00:00:00","postcodeFull":"DE72 2AS","propertyType":"Detached","oldOrNew":"Established","duration":"Freehold","paon":"11","saon":"","street":"WESTON ROAD","locality":"ASTON ON TRENT","townOrCity":"DERBY","district":"SOUTH DERBYSHIRE","county":"DERBYSHIRE","ppdCategoryType":"Standard","recordStatus":"Addition","latitude":52.861304,"longitude":-1.38683,"postcodeStart":"DE72 2","postcode":["DE72","2AS"]}
{"price":75000,"dateOfTransfer":"1995-11-10T00:00:00","postcodeFull":"DE72 2AE","propertyType":"Detached","oldOrNew":"Established","duration":"Freehold","paon":"73","saon":"","street":"DERBY ROAD","locality":"ASTON ON TRENT","townOrCity":"DERBY","district":"SOUTH DERBYSHIRE","county":"DERBYSHIRE","ppdCategoryType":"Standard","recordStatus":"Addition","latitude":52.864839,"longitude":-1.385399,"postcodeStart":"DE72 2","postcode":["DE72","2AE"]}
{"price":28000,"dateOfTransfer":"1995-10-31T00:00:00","postcodeFull":"DE72 2BG","propertyType":"Terraced","oldOrNew":"Established","duration":"Freehold","paon":"4","saon":"","street":"YATES AVENUE","locality":"ASTON ON TRENT","townOrCity":"DERBY","district":"SOUTH DERBYSHIRE","county":"DERBYSHIRE","ppdCategoryType":"Standard","recordStatus":"Addition","latitude":52.857415,"longitude":-1.390999,"postcodeStart":"DE72 2","postcode":["DE72","2BG"]}
{"price":89950,"dateOfTransfer":"1995-01-27T00:00:00","postcodeFull":"DE72 2BT","propertyType":"Semi-detached","oldOrNew":"Established","duration":"Freehold","paon":"STATION COTTAGE, 1","saon":"","street":"RAILWAY COTTAGES","locality":"WESTON ON TRENT","townOrCity":"DERBY","district":"SOUTH DERBYSHIRE","county":"DERBYSHIRE","ppdCategoryType":"Standard","recordStatus":"Addition","latitude":52.84714,"longitude":-1.39963,"postcodeStart":"DE72 2","postcode":["DE72","2BT"]}
{"price":66500,"dateOfTransfer":"1995-02-17T00:00:00","postcodeFull":"DE72 2AU","propertyType":"Semi-detached","oldOrNew":"Established","duration":"Freehold","paon":"19","saon":"","street":"COMPTON AVENUE","locality":"ASTON ON TRENT","townOrCity":"DERBY","district":"SOUTH DERBYSHIRE","county":"DERBYSHIRE","ppdCategoryType":"Standard","recordStatus":"Addition","latitude":52.862893,"longitude":-1.387996,"postcodeStart":"DE72 2","postcode":["DE72","2AU"]}
{"price":47000,"dateOfTransfer":"1995-11-10T00:00:00","postcodeFull":"DE72 2WE","propertyType":"Terraced","oldOrNew":"Established","duration":"Freehold","paon":"2","saon":"","street":"MILL GREEN","locality":"SHARDLOW","townOrCity":"DERBY","district":"SOUTH DERBYSHIRE","county":"DERBYSHIRE","ppdCategoryType":"Standard","recordStatus":"Addition","latitude":52.869407,"longitude":-1.343664,"postcodeStart":"DE72 2","postcode":["DE72","2WE"]}
{"price":18000,"dateOfTransfer":"1995-01-31T00:00:00","postcodeFull":"DE72 2BX","propertyType":"Detached","oldOrNew":"Established","duration":"Freehold","paon":"5","saon":"","street":"WILLOW CLOSE","locality":"ASTON ON TRENT","townOrCity":"DERBY","district":"SOUTH DERBYSHIRE","county":"DERBYSHIRE","ppdCategoryType":"Standard","recordStatus":"Addition","latitude":52.860939,"longitude":-1.382305,"postcodeStart":"DE72 2","postcode":["DE72","2BX"]}
{"price":32000,"dateOfTransfer":"1995-04-13T00:00:00","postcodeFull":"DE72 2WD","propertyType":"Terraced","oldOrNew":"Established","duration":"Freehold","paon":"21","saon":"","street":"ALTS NOOK WAY","locality":"SHARDLOW","townOrCity":"DERBY","district":"SOUTH DERBYSHIRE","county":"DERBYSHIRE","ppdCategoryType":"Standard","recordStatus":"Addition","latitude":52.869699,"longitude":-1.360862,"postcodeStart":"DE72 2","postcode":["DE72","2WD"]}
{"price":125000,"dateOfTransfer":"1995-12-01T00:00:00","postcodeFull":"DE72 2UH","propertyType":"Detached","oldOrNew":"Established","duration":"Freehold","paon":"12","saon":"","street":"LONG CROFT","locality":"ASTON ON TRENT","townOrCity":"DERBY","district":"SOUTH DERBYSHIRE","county":"DERBYSHIRE","ppdCategoryType":"Standard","recordStatus":"Addition","latitude":52.862792,"longitude":-1.385977,"postcodeStart":"DE72 2","postcode":["DE72","2UH"]}
{"price":35000,"dateOfTransfer":"1995-05-12T00:00:00","postcodeFull":"DE72 2HE","propertyType":"Terraced","oldOrNew":"Established","duration":"Freehold","paon":"33","saon":"","street":"LONG ROW","locality":"SHARDLOW","townOrCity":"DERBY","district":"SOUTH DERBYSHIRE","county":"DERBYSHIRE","ppdCategoryType":"Standard","recordStatus":"Addition","latitude":52.871389,"longitude":-1.339622,"postcodeStart":"DE72 2","postcode":["DE72","2HE"]}
{"price":49000,"dateOfTransfer":"1995-06-22T00:00:00","postcodeFull":"DE72 2HA","propertyType":"Semi-detached","oldOrNew":"Established","duration":"Freehold","paon":"2","saon":"","street":"WILNE LANE","locality":"SHARDLOW","townOrCity":"DERBY","district":"SOUTH DERBYSHIRE","county":"DERBYSHIRE","ppdCategoryType":"Standard","recordStatus":"Addition","latitude":52.869303,"longitude":-1.34114,"postcodeStart":"DE72 2","postcode":["DE72","2HA"]}
{"price":77000,"dateOfTransfer":"1995-04-28T00:00:00","postcodeFull":"DE72 2DJ","propertyType":"Terraced","oldOrNew":"Established","duration":"Freehold","paon":"6","saon":"","street":"WESTON COURT","locality":"WESTON ON TRENT","townOrCity":"DERBY","district":"SOUTH DERBYSHIRE","county":"DERBYSHIRE","ppdCategoryType":"Standard","recordStatus":"Addition","latitude":52.847925,"longitude":-1.402104,"postcodeStart":"DE72 2","postcode":["DE72","2DJ"]}
{"price":55000,"dateOfTransfer":"1995-12-01T00:00:00","postcodeFull":"DE72 2UH","propertyType":"Terraced","oldOrNew":"Established","duration":"Freehold","paon":"4","saon":"","street":"LONG CROFT","locality":"ASTON ON TRENT","townOrCity":"DERBY","district":"SOUTH DERBYSHIRE","county":"DERBYSHIRE","ppdCategoryType":"Standard","recordStatus":"Addition","latitude":52.862792,"longitude":-1.385977,"postcodeStart":"DE72 2","postcode":["DE72","2UH"]}
{"price":56000,"dateOfTransfer":"1995-07-21T00:00:00","postcodeFull":"DE72 2WE","propertyType":"Semi-detached","oldOrNew":"Established","duration":"Freehold","paon":"11","saon":"","street":"MILL GREEN","locality":"SHARDLOW","townOrCity":"DERBY","district":"SOUTH DERBYSHIRE","county":"DERBYSHIRE","ppdCategoryType":"Standard","recordStatus":"Addition","latitude":52.869407,"longitude":-1.343664,"postcodeStart":"DE72 2","postcode":["DE72","2WE"]}
{"price":91000,"dateOfTransfer":"1995-05-26T00:00:00","postcodeFull":"DE72 2AX","propertyType":"Detached","oldOrNew":"Established","duration":"Freehold","paon":"83","saon":"","street":"CHELLASTON LANE","locality":"ASTON ON TRENT","townOrCity":"DERBY","district":"SOUTH DERBYSHIRE","county":"DERBYSHIRE","ppdCategoryType":"Standard","recordStatus":"Addition","latitude":52.862348,"longitude":-1.392326,"postcodeStart":"DE72 2","postcode":["DE72","2AX"]}
{"price":56000,"dateOfTransfer":"1995-01-24T00:00:00","postcodeFull":"DE72 2AS","propertyType":"Detached","oldOrNew":"Established","duration":"Freehold","paon":"17","saon":"","street":"WESTON ROAD","locality":"ASTON ON TRENT","townOrCity":"DERBY","district":"SOUTH DERBYSHIRE","county":"DERBYSHIRE","ppdCategoryType":"Standard","recordStatus":"Addition","latitude":52.861304,"longitude":-1.38683,"postcodeStart":"DE72 2","postcode":["DE72","2AS"]}
{"price":115000,"dateOfTransfer":"1995-03-31T00:00:00","postcodeFull":"DE72 2BT","propertyType":"Detached","oldOrNew":"New build","duration":"Freehold","paon":"25","saon":"","street":"TRENT LANE","locality":"WESTON ON TRENT","townOrCity":"DERBY","district":"SOUTH DERBYSHIRE","county":"DERBYSHIRE","ppdCategoryType":"Standard","recordStatus":"Addition","latitude":52.84714,"longitude":-1.39963,"postcodeStart":"DE72 2","postcode":["DE72","2BT"]}
{"price":53000,"dateOfTransfer":"1995-06-16T00:00:00","postcodeFull":"DE72 2BR","propertyType":"Detached","oldOrNew":"Established","duration":"Freehold","paon":"16","saon":"","street":"PARK LANE","locality":"WESTON ON TRENT","townOrCity":"DERBY","district":"SOUTH DERBYSHIRE","county":"DERBYSHIRE","ppdCategoryType":"Standard","recordStatus":"Addition","latitude":52.846444,"longitude":-1.404307,"postcodeStart":"DE72 2","postcode":["DE72","2BR"]}
{"price":33000,"dateOfTransfer":"1995-08-31T00:00:00","postcodeFull":"DE72 2HE","propertyType":"Terraced","oldOrNew":"Established","duration":"Freehold","paon":"14","saon":"","street":"LONG ROW","locality":"SHARDLOW","townOrCity":"DERBY","district":"SOUTH DERBYSHIRE","county":"DERBYSHIRE","ppdCategoryType":"Standard","recordStatus":"Addition","latitude":52.871389,"longitude":-1.339622,"postcodeStart":"DE72 2","postcode":["DE72","2HE"]}
{"price":52000,"dateOfTransfer":"1995-06-29T00:00:00","postcodeFull":"DE72 2GZ","propertyType":"Semi-detached","oldOrNew":"Established","duration":"Freehold","paon":"16","saon":"","street":"GLENN WAY","locality":"SHARDLOW","townOrCity":"DERBY","district":"SOUTH DERBYSHIRE","county":"DERBYSHIRE","ppdCategoryType":"Standard","recordStatus":"Addition","latitude":52.870125,"longitude":-1.361525,"postcodeStart":"DE72 2","postcode":["DE72","2GZ"]}
{"price":47500,"dateOfTransfer":"1995-09-19T00:00:00","postcodeFull":"DE72 2BA","propertyType":"Semi-detached","oldOrNew":"Established","duration":"Freehold","paon":"126","saon":"","street":"WESTON ROAD","locality":"ASTON ON TRENT","townOrCity":"DERBY","district":"SOUTH DERBYSHIRE","county":"DERBYSHIRE","ppdCategoryType":"Standard","recordStatus":"Addition","latitude":52.859623,"longitude":-1.390225,"postcodeStart":"DE72 2","postcode":["DE72","2BA"]}
{"price":31600,"dateOfTransfer":"1995-12-08T00:00:00","postcodeFull":"DE72 2HG","propertyType":"Terraced","oldOrNew":"Established","duration":"Freehold","paon":"43","saon":"","street":"THE WHARF","locality":"SHARDLOW","townOrCity":"DERBY","district":"SOUTH DERBYSHIRE","county":"DERBYSHIRE","ppdCategoryType":"Standard","recordStatus":"Addition","latitude":52.870473,"longitude":-1.341186,"postcodeStart":"DE72 2","postcode":["DE72","2HG"]}
{"price":120000,"dateOfTransfer":"1995-02-17T00:00:00","postcodeFull":"DE72 2BT","propertyType":"Detached","oldOrNew":"New build","duration":"Freehold","paon":"BRYNSWORTHY","saon":"","street":"TRENT LANE","locality":"WESTON ON TRENT","townOrCity":"DERBY","district":"SOUTH DERBYSHIRE","county":"DERBYSHIRE","ppdCategoryType":"Standard","recordStatus":"Addition","latitude":52.84714,"longitude":-1.39963,"postcodeStart":"DE72 2","postcode":["DE72","2BT"]}
{"price":63000,"dateOfTransfer":"1995-10-27T00:00:00","postcodeFull":"DE72 2UH","propertyType":"Detached","oldOrNew":"Established","duration":"Freehold","paon":"7","saon":"","street":"LONG CROFT","locality":"ASTON ON TRENT","townOrCity":"DERBY","district":"SOUTH DERBYSHIRE","county":"DERBYSHIRE","ppdCategoryType":"Standard","recordStatus":"Addition","latitude":52.862792,"longitude":-1.385977,"postcodeStart":"DE72 2","postcode":["DE72","2UH"]}
{"price":59950,"dateOfTransfer":"1995-12-08T00:00:00","postcodeFull":"DE72 2HH","propertyType":"Detached","oldOrNew":"Established","duration":"Freehold","paon":"4","saon":"","street":"THE MALTINGS","locality":"SHARDLOW","townOrCity":"DERBY","district":"SOUTH DERBYSHIRE","county":"DERBYSHIRE","ppdCategoryType":"Standard","recordStatus":"Addition","latitude":52.870215,"longitude":-1.340338,"postcodeStart":"DE72 2","postcode":["DE72","2HH"]}
{"price":34000,"dateOfTransfer":"1995-03-31T00:00:00","postcodeFull":"DE72 2AJ","propertyType":"Detached","oldOrNew":"Established","duration":"Freehold","paon":"1","saon":"","street":"PARK VIEW","locality":"ASTON ON TRENT","townOrCity":"DERBY","district":"SOUTH DERBYSHIRE","county":"DERBYSHIRE","ppdCategoryType":"Standard","recordStatus":"Addition","latitude":52.860336,"longitude":-1.383784,"postcodeStart":"DE72 2","postcode":["DE72","2AJ"]}
{"price":77000,"dateOfTransfer":"1995-12-08T00:00:00","postcodeFull":"DE72 2HG","propertyType":"Detached","oldOrNew":"Established","duration":"Freehold","paon":"40","saon":"","street":"THE WHARF","locality":"SHARDLOW","townOrCity":"DERBY","district":"SOUTH DERBYSHIRE","county":"DERBYSHIRE","ppdCategoryType":"Standard","recordStatus":"Addition","latitude":52.870473,"longitude":-1.341186,"postcodeStart":"DE72 2","postcode":["DE72","2HG"]}
{"price":30000,"dateOfTransfer":"1995-10-27T00:00:00","postcodeFull":"DE72 2BG","propertyType":"Terraced","oldOrNew":"Established","duration":"Freehold","paon":"17","saon":"","street":"YATES AVENUE","locality":"ASTON ON TRENT","townOrCity":"DERBY","district":"SOUTH DERBYSHIRE","county":"DERBYSHIRE","ppdCategoryType":"Standard","recordStatus":"Addition","latitude":52.857415,"longitude":-1.390999,"postcodeStart":"DE72 2","postcode":["DE72","2BG"]}
{"price":96000,"dateOfTransfer":"1995-03-03T00:00:00","postcodeFull":"DE72 2BX","propertyType":"Detached","oldOrNew":"Established","duration":"Freehold","paon":"10","saon":"","street":"WILLOW CLOSE","locality":"ASTON ON TRENT","townOrCity":"DERBY","district":"SOUTH DERBYSHIRE","county":"DERBYSHIRE","ppdCategoryType":"Standard","recordStatus":"Addition","latitude":52.860939,"longitude":-1.382305,"postcodeStart":"DE72 2","postcode":["DE72","2BX"]}
{"price":45000,"dateOfTransfer":"1995-10-13T00:00:00","postcodeFull":"DE72 2AF","propertyType":"Terraced","oldOrNew":"Established","duration":"Freehold","paon":"86","saon":"","street":"DERBY ROAD","locality":"ASTON ON TRENT","townOrCity":"DERBY","district":"SOUTH DERBYSHIRE","county":"DERBYSHIRE","ppdCategoryType":"Standard","recordStatus":"Addition","latitude":52.865007,"longitude":-1.384797,"postcodeStart":"DE72 2","postcode":["DE72","2AF"]}
{"price":127500,"dateOfTransfer":"1995-08-17T00:00:00","postcodeFull":"DE72 2BJ","propertyType":"Detached","oldOrNew":"New build","duration":"Freehold","paon":"WESTON LODGE","saon":"","street":"THE GREEN","locality":"WESTON ON TRENT","townOrCity":"DERBY","district":"SOUTH DERBYSHIRE","county":"DERBYSHIRE","ppdCategoryType":"Standard","recordStatus":"Addition","latitude":52.850885,"longitude":-1.400811,"postcodeStart":"DE72 2","postcode":["DE72","2BJ"]}
{"price":49000,"dateOfTransfer":"1995-08-31T00:00:00","postcodeFull":"DE72 2HE","propertyType":"Terraced","oldOrNew":"Established","duration":"Freehold","paon":"7","saon":"","street":"LONG ROW","locality":"SHARDLOW","townOrCity":"DERBY","district":"SOUTH DERBYSHIRE","county":"DERBYSHIRE","ppdCategoryType":"Standard","recordStatus":"Addition","latitude":52.871389,"longitude":-1.339622,"postcodeStart":"DE72 2","postcode":["DE72","2HE"]}
{"price":55000,"dateOfTransfer":"1995-09-18T00:00:00","postcodeFull":"DE72 2HJ","propertyType":"Detached","oldOrNew":"Established","duration":"Freehold","paon":"1","saon":"","street":"CAVENDISH COURT","locality":"SHARDLOW","townOrCity":"DERBY","district":"SOUTH DERBYSHIRE","county":"DERBYSHIRE","ppdCategoryType":"Standard","recordStatus":"Addition","latitude":52.867738,"longitude":-1.341044,"postcodeStart":"DE72 2","postcode":["DE72","2HJ"]}
{"price":59000,"dateOfTransfer":"1995-05-05T00:00:00","postcodeFull":"DE72 2BA","propertyType":"Semi-detached","oldOrNew":"Established","duration":"Freehold","paon":"147","saon":"","street":"WESTON ROAD","locality":"ASTON ON TRENT","townOrCity":"DERBY","district":"SOUTH DERBYSHIRE","county":"DERBYSHIRE","ppdCategoryType":"Standard","recordStatus":"Addition","latitude":52.859623,"longitude":-1.390225,"postcodeStart":"DE72 2","postcode":["DE72","2BA"]}
{"price":64000,"dateOfTransfer":"1995-08-24T00:00:00","postcodeFull":"DE72 2HL","propertyType":"Semi-detached","oldOrNew":"Established","duration":"Freehold","paon":"WEST VIEW","saon":"","street":"CAVENDISH BRIDGE","locality":"SHARDLOW","townOrCity":"DERBY","district":"NORTH WEST LEICESTERSHIRE","county":"LEICESTERSHIRE","ppdCategoryType":"Standard","recordStatus":"Addition","latitude":52.864236,"longitude":-1.338373,"postcodeStart":"DE72 2","postcode":["DE72","2HL"]}
{"price":83000,"dateOfTransfer":"1995-04-13T00:00:00","postcodeFull":"DE72 2BW","propertyType":"Detached","oldOrNew":"Established","duration":"Freehold","paon":"58","saon":"","street":"MANOR FARM ROAD","locality":"ASTON ON TRENT","townOrCity":"DERBY","district":"SOUTH DERBYSHIRE","county":"DERBYSHIRE","ppdCategoryType":"Standard","recordStatus":"Addition","latitude":52.862069,"longitude":-1.381799,"postcodeStart":"DE72 2","postcode":["DE72","2BW"]}
{"price":125000,"dateOfTransfer":"1995-06-30T00:00:00","postcodeFull":"DE72 2BT","propertyType":"Detached","oldOrNew":"New build","duration":"Freehold","paon":"23","saon":"","street":"TRENT LANE","locality":"WESTON ON TRENT","townOrCity":"DERBY","district":"SOUTH DERBYSHIRE","county":"DERBYSHIRE","ppdCategoryType":"Standard","recordStatus":"Addition","latitude":52.84714,"longitude":-1.39963,"postcodeStart":"DE72 2","postcode":["DE72","2BT"]}
{"price":35000,"dateOfTransfer":"1995-12-22T00:00:00","postcodeFull":"DE72 2HA","propertyType":"Flat/Maisonette/Townhouse","oldOrNew":"Established","duration":"Freehold","paon":"139","saon":"","street":"LONDON ROAD","locality":"SHARDLOW","townOrCity":"DERBY","district":"SOUTH DERBYSHIRE","county":"DERBYSHIRE","ppdCategoryType":"Standard","recordStatus":"Addition","latitude":52.869303,"longitude":-1.34114,"postcodeStart":"DE72 2","postcode":["DE72","2HA"]}
{"price":59995,"dateOfTransfer":"1995-06-30T00:00:00","postcodeFull":"DE72 2BA","propertyType":"Semi-detached","oldOrNew":"Established","duration":"Freehold","paon":"96","saon":"","street":"WESTON ROAD","locality":"ASTON ON TRENT","townOrCity":"DERBY","district":"SOUTH DERBYSHIRE","county":"DERBYSHIRE","ppdCategoryType":"Standard","recordStatus":"Addition","latitude":52.859623,"longitude":-1.390225,"postcodeStart":"DE72 2","postcode":["DE72","2BA"]}
{"price":125000,"dateOfTransfer":"1996-10-18T00:00:00","postcodeFull":"DE72 2AJ","propertyType":"Detached","oldOrNew":"Established","duration":"Freehold","paon":"2","saon":"","street":"PARK VIEW","locality":"ASTON ON TRENT","townOrCity":"DERBY","district":"SOUTH DERBYSHIRE","county":"DERBYSHIRE","ppdCategoryType":"Standard","recordStatus":"Addition","latitude":52.860336,"longitude":-1.383784,"postcodeStart":"DE72 2","postcode":["DE72","2AJ"]}
{"price":26000,"dateOfTransfer":"1996-07-31T00:00:00","postcodeFull":"DE72 2GY","propertyType":"Terraced","oldOrNew":"Established","duration":"Freehold","paon":"54","saon":"","street":"WEST END DRIVE","locality":"SHARDLOW","townOrCity":"DERBY","district":"SOUTH DERBYSHIRE","county":"DERBYSHIRE","ppdCategoryType":"Standard","recordStatus":"Addition","latitude":52.8696,"longitude":-1.359289,"postcodeStart":"DE72 2","postcode":["DE72","2GY"]}
{"price":59000,"dateOfTransfer":"1996-08-16T00:00:00","postcodeFull":"DE72 2BA","propertyType":"Semi-detached","oldOrNew":"Established","duration":"Freehold","paon":"147","saon":"","street":"WESTON ROAD","locality":"ASTON ON TRENT","townOrCity":"DERBY","district":"SOUTH DERBYSHIRE","county":"DERBYSHIRE","ppdCategoryType":"Standard","recordStatus":"Addition","latitude":52.859623,"longitude":-1.390225,"postcodeStart":"DE72 2","postcode":["DE72","2BA"]}
{"price":66400,"dateOfTransfer":"1996-01-05T00:00:00","postcodeFull":"DE72 2BE","propertyType":"Semi-detached","oldOrNew":"Established","duration":"Freehold","paon":"7","saon":"","street":"BELL AVENUE","locality":"ASTON ON TRENT","townOrCity":"DERBY","district":"SOUTH DERBYSHIRE","county":"DERBYSHIRE","ppdCategoryType":"Standard","recordStatus":"Addition","latitude":52.860511,"longitude":-1.391624,"postcodeStart":"DE72 2","postcode":["DE72","2BE"]}
{"price":125000,"dateOfTransfer":"1996-08-30T00:00:00","postcodeFull":"DE72 2DB","propertyType":"Detached","oldOrNew":"Established","duration":"Freehold","paon":"5","saon":"","street":"MANOR FARM MEWS","locality":"ASTON ON TRENT","townOrCity":"DERBY","district":"SOUTH DERBYSHIRE","county":"DERBYSHIRE","ppdCategoryType":"Standard","recordStatus":"Addition","latitude":52.862305,"longitude":-1.383964,"postcodeStart":"DE72 2","postcode":["DE72","2DB"]}
{"price":125000,"dateOfTransfer":"1996-07-01T00:00:00","postcodeFull":"DE72 2GP","propertyType":"Semi-detached","oldOrNew":"Established","duration":"Freehold","paon":"134","saon":"","street":"LONDON ROAD","locality":"SHARDLOW","townOrCity":"DERBY","district":"SOUTH DERBYSHIRE","county":"DERBYSHIRE","ppdCategoryType":"Standard","recordStatus":"Addition","latitude":52.869044,"longitude":-1.352878,"postcodeStart":"DE72 2","postcode":["DE72","2GP"]}
{"price":125000,"dateOfTransfer":"1996-12-20T00:00:00","postcodeFull":"DE72 2GP","propertyType":"Semi-detached","oldOrNew":"Established","duration":"Freehold","paon":"134","saon":"","street":"LONDON ROAD","locality":"SHARDLOW","townOrCity":"DERBY","district":"SOUTH DERBYSHIRE","county":"DERBYSHIRE","ppdCategoryType":"Standard","recordStatus":"Addition","latitude":52.869044,"longitude":-1.352878,"postcodeStart":"DE72 2","postcode":["DE72","2GP"]}
{"price":75000,"dateOfTransfer":"1996-05-24T00:00:00","postcodeFull":"DE72 2DR","propertyType":"Flat/Maisonette/Townhouse","oldOrNew":"Established","duration":"Freehold","paon":"10","saon":"","street":"RECTORY FARM MEWS","locality":"WESTON ON TRENT","townOrCity":"DERBY","district":"SOUTH DERBYSHIRE","county":"DERBYSHIRE","ppdCategoryType":"Standard","recordStatus":"Addition","latitude":52.845292,"longitude":-1.405971,"postcodeStart":"DE72 2","postcode":["DE72","2DR"]}
{"price":125000,"dateOfTransfer":"1996-06-14T00:00:00","postcodeFull":"DE72 2GL","propertyType":"Semi-detached","oldOrNew":"Established","duration":"Freehold","paon":"1 - 3","saon":"","street":"CANAL BANK","locality":"SHARDLOW","townOrCity":"DERBY","district":"SOUTH DERBYSHIRE","county":"DERBYSHIRE","ppdCategoryType":"Standard","recordStatus":"Addition","latitude":52.8674,"longitude":-1.346421,"postcodeStart":"DE72 2","postcode":["DE72","2GL"]}
{"price":39500,"dateOfTransfer":"1996-12-06T00:00:00","postcodeFull":"DE72 2AW","propertyType":"Semi-detached","oldOrNew":"Established","duration":"Freehold","paon":"11","saon":"","street":"HOLDEN AVENUE","locality":"ASTON ON TRENT","townOrCity":"DERBY","district":"SOUTH DERBYSHIRE","county":"DERBYSHIRE","ppdCategoryType":"Standard","recordStatus":"Addition","latitude":52.862498,"longitude":-1.389977,"postcodeStart":"DE72 2","postcode":["DE72","2AW"]}
{"price":74000,"dateOfTransfer":"1996-07-05T00:00:00","postcodeFull":"DE72 2AX","propertyType":"Detached","oldOrNew":"Established","duration":"Freehold","paon":"31","saon":"","street":"CHELLASTON LANE","locality":"ASTON ON TRENT","townOrCity":"DERBY","district":"SOUTH DERBYSHIRE","county":"DERBYSHIRE","ppdCategoryType":"Standard","recordStatus":"Addition","latitude":52.862348,"longitude":-1.392326,"postcodeStart":"DE72 2","postcode":["DE72","2AX"]}
{"price":57500,"dateOfTransfer":"1996-10-11T00:00:00","postcodeFull":"DE72 2UH","propertyType":"Terraced","oldOrNew":"Established","duration":"Freehold","paon":"4","saon":"","street":"LONG CROFT","locality":"ASTON ON TRENT","townOrCity":"DERBY","district":"SOUTH DERBYSHIRE","county":"DERBYSHIRE","ppdCategoryType":"Standard","recordStatus":"Addition","latitude":52.862792,"longitude":-1.385977,"postcodeStart":"DE72 2","postcode":["DE72","2UH"]}
{"price":27500,"dateOfTransfer":"1996-07-05T00:00:00","postcodeFull":"DE72 2HE","propertyType":"Terraced","oldOrNew":"Established","duration":"Freehold","paon":"8","saon":"","street":"LONG ROW","locality":"SHARDLOW","townOrCity":"DERBY","district":"SOUTH DERBYSHIRE","county":"DERBYSHIRE","ppdCategoryType":"Standard","recordStatus":"Addition","latitude":52.871389,"longitude":-1.339622,"postcodeStart":"DE72 2","postcode":["DE72","2HE"]}
{"price":9500,"dateOfTransfer":"1996-03-29T00:00:00","postcodeFull":"DE72 2AS","propertyType":"Detached","oldOrNew":"Established","duration":"Freehold","paon":"51","saon":"","street":"WESTON ROAD","locality":"ASTON ON TRENT","townOrCity":"DERBY","district":"SOUTH DERBYSHIRE","county":"DERBYSHIRE","ppdCategoryType":"Standard","recordStatus":"Addition","latitude":52.861304,"longitude":-1.38683,"postcodeStart":"DE72 2","postcode":["DE72","2AS"]}
{"price":40000,"dateOfTransfer":"1996-04-26T00:00:00","postcodeFull":"DE72 2HD","propertyType":"Terraced","oldOrNew":"Established","duration":"Freehold","paon":"6","saon":"","street":"MILLFIELD","locality":"SHARDLOW","townOrCity":"DERBY","district":"SOUTH DERBYSHIRE","county":"DERBYSHIRE","ppdCategoryType":"Standard","recordStatus":"Addition","latitude":52.870385,"longitude":-1.338375,"postcodeStart":"DE72 2","postcode":["DE72","2HD"]}
{"price":39350,"dateOfTransfer":"1996-12-05T00:00:00","postcodeFull":"DE72 2GX","propertyType":"Detached","oldOrNew":"Established","duration":"Freehold","paon":"89","saon":"","street":"ASTON LANE","locality":"SHARDLOW","townOrCity":"DERBY","district":"SOUTH DERBYSHIRE","county":"DERBYSHIRE","ppdCategoryType":"Standard","recordStatus":"Addition","latitude":52.868737,"longitude":-1.357668,"postcodeStart":"DE72 2","postcode":["DE72","2GX"]}
{"price":85000,"dateOfTransfer":"1996-11-01T00:00:00","postcodeFull":"DE72 2BJ","propertyType":"Terraced","oldOrNew":"Established","duration":"Freehold","paon":"6","saon":"","street":"THE GREEN","locality":"WESTON ON TRENT","townOrCity":"DERBY","district":"SOUTH DERBYSHIRE","county":"DERBYSHIRE","ppdCategoryType":"Standard","recordStatus":"Addition","latitude":52.850885,"longitude":-1.400811,"postcodeStart":"DE72 2","postcode":["DE72","2BJ"]}
{"price":40000,"dateOfTransfer":"1996-06-28T00:00:00","postcodeFull":"DE72 2GH","propertyType":"Terraced","oldOrNew":"Established","duration":"Freehold","paon":"18","saon":"","street":"THE WHARF","locality":"SHARDLOW","townOrCity":"DERBY","district":"SOUTH DERBYSHIRE","county":"DERBYSHIRE","ppdCategoryType":"Standard","recordStatus":"Addition","latitude":52.869076,"longitude":-1.343966,"postcodeStart":"DE72 2","postcode":["DE72","2GH"]}
{"price":62500,"dateOfTransfer":"1996-04-04T00:00:00","postcodeFull":"DE72 2BY","propertyType":"Detached","oldOrNew":"Established","duration":"Freehold","paon":"7","saon":"","street":"ASH CLOSE","locality":"ASTON ON TRENT","townOrCity":"DERBY","district":"SOUTH DERBYSHIRE","county":"DERBYSHIRE","ppdCategoryType":"Standard","recordStatus":"Addition","latitude":52.861207,"longitude":-1.383742,"postcodeStart":"DE72 2","postcode":["DE72","2BY"]}
{"price":53000,"dateOfTransfer":"1996-06-16T00:00:00","postcodeFull":"DE72 2AU","propertyType":"Semi-detached","oldOrNew":"Established","duration":"Freehold","paon":"15","saon":"","street":"COMPTON AVENUE","locality":"ASTON ON TRENT","townOrCity":"DERBY","district":"SOUTH DERBYSHIRE","county":"DERBYSHIRE","ppdCategoryType":"Standard","recordStatus":"Addition","latitude":52.862893,"longitude":-1.387996,"postcodeStart":"DE72 2","postcode":["DE72","2AU"]}
{"price":60000,"dateOfTransfer":"1996-02-29T00:00:00","postcodeFull":"DE72 2AE","propertyType":"Semi-detached","oldOrNew":"Established","duration":"Freehold","paon":"97","saon":"","street":"DERBY ROAD","locality":"ASTON ON TRENT","townOrCity":"DERBY","district":"SOUTH DERBYSHIRE","county":"DERBYSHIRE","ppdCategoryType":"Standard","recordStatus":"Addition","latitude":52.864839,"longitude":-1.385399,"postcodeStart":"DE72 2","postcode":["DE72","2AE"]}
{"price":39000,"dateOfTransfer":"1996-10-06T00:00:00","postcodeFull":"DE72 2GY","propertyType":"Semi-detached","oldOrNew":"Established","duration":"Freehold","paon":"38","saon":"","street":"WEST END DRIVE","locality":"SHARDLOW","townOrCity":"DERBY","district":"SOUTH DERBYSHIRE","county":"DERBYSHIRE","ppdCategoryType":"Standard","recordStatus":"Addition","latitude":52.8696,"longitude":-1.359289,"postcodeStart":"DE72 2","postcode":["DE72","2GY"]}
{"price":63500,"dateOfTransfer":"1996-10-18T00:00:00","postcodeFull":"DE72 2AS","propertyType":"Detached","oldOrNew":"Established","duration":"Freehold","paon":"17","saon":"","street":"WESTON ROAD","locality":"ASTON ON TRENT","townOrCity":"DERBY","district":"SOUTH DERBYSHIRE","county":"DERBYSHIRE","ppdCategoryType":"Standard","recordStatus":"Addition","latitude":52.861304,"longitude":-1.38683,"postcodeStart":"DE72 2","postcode":["DE72","2AS"]}
{"price":67500,"dateOfTransfer":"1996-01-19T00:00:00","postcodeFull":"DE72 2GU","propertyType":"Semi-detached","oldOrNew":"Established","duration":"Freehold","paon":"14","saon":"","street":"AMBASTON LANE","locality":"SHARDLOW","townOrCity":"DERBY","district":"SOUTH DERBYSHIRE","county":"DERBYSHIRE","ppdCategoryType":"Standard","recordStatus":"Addition","latitude":52.871524,"longitude":-1.359276,"postcodeStart":"DE72 2","postcode":["DE72","2GU"]}
{"price":57000,"dateOfTransfer":"1996-12-12T00:00:00","postcodeFull":"DE72 2GZ","propertyType":"Detached","oldOrNew":"Established","duration":"Freehold","paon":"27","saon":"","street":"GLENN WAY","locality":"SHARDLOW","townOrCity":"DERBY","district":"SOUTH DERBYSHIRE","county":"DERBYSHIRE","ppdCategoryType":"Standard","recordStatus":"Addition","latitude":52.870125,"longitude":-1.361525,"postcodeStart":"DE72 2","postcode":["DE72","2GZ"]}
{"price":119950,"dateOfTransfer":"1996-12-19T00:00:00","postcodeFull":"DE72 2AG","propertyType":"Detached","oldOrNew":"Established","duration":"Freehold","paon":"7A","saon":"","street":"MOOR LANE","locality":"ASTON ON TRENT","townOrCity":"DERBY","district":"SOUTH DERBYSHIRE","county":"DERBYSHIRE","ppdCategoryType":"Standard","recordStatus":"Addition","latitude":52.863877,"longitude":-1.383674,"postcodeStart":"DE72 2","postcode":["DE72","2AG"]}
{"price":92000,"dateOfTransfer":"1996-06-21T00:00:00","postcodeFull":"DE72 2AE","propertyType":"Detached","oldOrNew":"Established","duration":"Freehold","paon":"23","saon":"","street":"DERBY ROAD","locality":"ASTON ON TRENT","townOrCity":"DERBY","district":"SOUTH DERBYSHIRE","county":"DERBYSHIRE","ppdCategoryType":"Standard","recordStatus":"Addition","latitude":52.864839,"longitude":-1.385399,"postcodeStart":"DE72 2","postcode":["DE72","2AE"]}
{"price":69000,"dateOfTransfer":"1996-08-29T00:00:00","postcodeFull":"DE72 2GZ","propertyType":"Detached","oldOrNew":"Established","duration":"Freehold","paon":"32","saon":"","street":"GLENN WAY","locality":"SHARDLOW","townOrCity":"DERBY","district":"SOUTH DERBYSHIRE","county":"DERBYSHIRE","ppdCategoryType":"Standard","recordStatus":"Addition","latitude":52.870125,"longitude":-1.361525,"postcodeStart":"DE72 2","postcode":["DE72","2GZ"]}
{"price":59500,"dateOfTransfer":"1996-07-31T00:00:00","postcodeFull":"DE72 2GZ","propertyType":"Detached","oldOrNew":"Established","duration":"Freehold","paon":"9","saon":"","street":"GLENN WAY","locality":"SHARDLOW","townOrCity":"DERBY","district":"SOUTH DERBYSHIRE","county":"DERBYSHIRE","ppdCategoryType":"Standard","recordStatus":"Addition","latitude":52.870125,"longitude":-1.361525,"postcodeStart":"DE72 2","postcode":["DE72","2GZ"]}
{"price":18000,"dateOfTransfer":"1996-09-25T00:00:00","postcodeFull":"DE72 2HA","propertyType":"Terraced","oldOrNew":"Established","duration":"Freehold","paon":"21","saon":"","street":"WILNE LANE","locality":"SHARDLOW","townOrCity":"DERBY","district":"SOUTH DERBYSHIRE","county":"DERBYSHIRE","ppdCategoryType":"Standard","recordStatus":"Addition","latitude":52.869303,"longitude":-1.34114,"postcodeStart":"DE72 2","postcode":["DE72","2HA"]}
{"price":79000,"dateOfTransfer":"1996-07-25T00:00:00","postcodeFull":"DE72 2BW","propertyType":"Detached","oldOrNew":"Established","duration":"Freehold","paon":"30","saon":"","street":"MANOR FARM ROAD","locality":"ASTON ON TRENT","townOrCity":"DERBY","district":"SOUTH DERBYSHIRE","county":"DERBYSHIRE","ppdCategoryType":"Standard","recordStatus":"Addition","latitude":52.862069,"longitude":-1.381799,"postcodeStart":"DE72 2","postcode":["DE72","2BW"]}
{"price":76000,"dateOfTransfer":"1996-12-12T00:00:00","postcodeFull":"DE72 2GR","propertyType":"Detached","oldOrNew":"Established","duration":"Freehold","paon":"80","saon":"","street":"LONDON ROAD","locality":"SHARDLOW","townOrCity":"DERBY","district":"SOUTH DERBYSHIRE","county":"DERBYSHIRE","ppdCategoryType":"Standard","recordStatus":"Addition","latitude":52.871235,"longitude":-1.360522,"postcodeStart":"DE72 2","postcode":["DE72","2GR"]}
{"price":98000,"dateOfTransfer":"1996-10-26T00:00:00","postcodeFull":"DE72 2UH","propertyType":"Detached","oldOrNew":"Established","duration":"Freehold","paon":"9","saon":"","street":"LONG CROFT","locality":"ASTON ON TRENT","townOrCity":"DERBY","district":"SOUTH DERBYSHIRE","county":"DERBYSHIRE","ppdCategoryType":"Standard","recordStatus":"Addition","latitude":52.862792,"longitude":-1.385977,"postcodeStart":"DE72 2","postcode":["DE72","2UH"]}
{"price":55000,"dateOfTransfer":"1996-11-29T00:00:00","postcodeFull":"DE72 2GU","propertyType":"Semi-detached","oldOrNew":"Established","duration":"Freehold","paon":"10","saon":"","street":"AMBASTON LANE","locality":"SHARDLOW","townOrCity":"DERBY","district":"SOUTH DERBYSHIRE","county":"DERBYSHIRE","ppdCategoryType":"Standard","recordStatus":"Addition","latitude":52.871524,"longitude":-1.359276,"postcodeStart":"DE72 2","postcode":["DE72","2GU"]}
{"price":52000,"dateOfTransfer":"1996-07-31T00:00:00","postcodeFull":"DE72 2BA","propertyType":"Semi-detached","oldOrNew":"Established","duration":"Freehold","paon":"85","saon":"","street":"WESTON ROAD","locality":"ASTON ON TRENT","townOrCity":"DERBY","district":"SOUTH DERBYSHIRE","county":"DERBYSHIRE","ppdCategoryType":"Standard","recordStatus":"Addition","latitude":52.859623,"longitude":-1.390225,"postcodeStart":"DE72 2","postcode":["DE72","2BA"]}
{"price":60000,"dateOfTransfer":"1996-12-06T00:00:00","postcodeFull":"DE72 2BL","propertyType":"Semi-detached","oldOrNew":"Established","duration":"Freehold","paon":"27","saon":"","street":"MAIN STREET","locality":"WESTON ON TRENT","townOrCity":"DERBY","district":"SOUTH DERBYSHIRE","county":"DERBYSHIRE","ppdCategoryType":"Standard","recordStatus":"Addition","latitude":52.848464,"longitude":-1.402052,"postcodeStart":"DE72 2","postcode":["DE72","2BL"]}
{"price":28500,"dateOfTransfer":"1996-07-26T00:00:00","postcodeFull":"DE72 2WD","propertyType":"Terraced","oldOrNew":"Established","duration":"Freehold","paon":"19","saon":"","street":"ALTS NOOK WAY","locality":"SHARDLOW","townOrCity":"DERBY","district":"SOUTH DERBYSHIRE","county":"DERBYSHIRE","ppdCategoryType":"Standard","recordStatus":"Addition","latitude":52.869699,"longitude":-1.360862,"postcodeStart":"DE72 2","postcode":["DE72","2WD"]}
{"price":38500,"dateOfTransfer":"1996-08-02T00:00:00","postcodeFull":"DE72 2HE","propertyType":"Terraced","oldOrNew":"Established","duration":"Freehold","paon":"23","saon":"","street":"LONG ROW","locality":"SHARDLOW","townOrCity":"DERBY","district":"SOUTH DERBYSHIRE","county":"DERBYSHIRE","ppdCategoryType":"Standard","recordStatus":"Addition","latitude":52.871389,"longitude":-1.339622,"postcodeStart":"DE72 2","postcode":["DE72","2HE"]}
{"price":42000,"dateOfTransfer":"1996-04-02T00:00:00","postcodeFull":"DE72 2GR","propertyType":"Semi-detached","oldOrNew":"Established","duration":"Freehold","paon":"35","saon":"","street":"LONDON ROAD","locality":"SHARDLOW","townOrCity":"DERBY","district":"SOUTH DERBYSHIRE","county":"DERBYSHIRE","ppdCategoryType":"Standard","recordStatus":"Addition","latitude":52.871235,"longitude":-1.360522,"postcodeStart":"DE72 2","postcode":["DE72","2GR"]}
{"price":105000,"dateOfTransfer":"1996-01-18T00:00:00","postcodeFull":"DE72 2AJ","propertyType":"Detached","oldOrNew":"Established","duration":"Freehold","paon":"1","saon":"","street":"PARK VIEW","locality":"ASTON ON TRENT","townOrCity":"DERBY","district":"SOUTH DERBYSHIRE","county":"DERBYSHIRE","ppdCategoryType":"Standard","recordStatus":"Addition","latitude":52.860336,"longitude":-1.383784,"postcodeStart":"DE72 2","postcode":["DE72","2AJ"]}
{"price":166500,"dateOfTransfer":"1996-07-04T00:00:00","postcodeFull":"DE72 2AN","propertyType":"Detached","oldOrNew":"Established","duration":"Freehold","paon":"WHITE COTTAGE","saon":"","street":"SHARDLOW ROAD","locality":"ASTON ON TRENT","townOrCity":"DERBY","district":"SOUTH DERBYSHIRE","county":"DERBYSHIRE","ppdCategoryType":"Standard","recordStatus":"Addition","latitude":52.85949,"longitude":-1.380151,"postcodeStart":"DE72 2","postcode":["DE72","2AN"]}
{"price":149000,"dateOfTransfer":"1996-02-16T00:00:00","postcodeFull":"DE72 2GX","propertyType":"Detached","oldOrNew":"Established","duration":"Freehold","paon":"3","saon":"","street":"ASTON LANE","locality":"SHARDLOW","townOrCity":"DERBY","district":"SOUTH DERBYSHIRE","county":"DERBYSHIRE","ppdCategoryType":"Standard","recordStatus":"Addition","latitude":52.868737,"longitude":-1.357668,"postcodeStart":"DE72 2","postcode":["DE72","2GX"]}
{"price":45000,"dateOfTransfer":"1996-10-11T00:00:00","postcodeFull":"DE72 2GY","propertyType":"Semi-detached","oldOrNew":"Established","duration":"Freehold","paon":"10","saon":"","street":"WEST END DRIVE","locality":"SHARDLOW","townOrCity":"DERBY","district":"SOUTH DERBYSHIRE","county":"DERBYSHIRE","ppdCategoryType":"Standard","recordStatus":"Addition","latitude":52.8696,"longitude":-1.359289,"postcodeStart":"DE72 2","postcode":["DE72","2GY"]}
{"price":35000,"dateOfTransfer":"1996-09-13T00:00:00","postcodeFull":"DE72 2AS","propertyType":"Terraced","oldOrNew":"Established","duration":"Freehold","paon":"12","saon":"","street":"WESTON ROAD","locality":"ASTON ON TRENT","townOrCity":"DERBY","district":"SOUTH DERBYSHIRE","county":"DERBYSHIRE","ppdCategoryType":"Standard","recordStatus":"Addition","latitude":52.861304,"longitude":-1.38683,"postcodeStart":"DE72 2","postcode":["DE72","2AS"]}
{"price":97000,"dateOfTransfer":"1996-05-03T00:00:00","postcodeFull":"DE72 2BT","propertyType":"Semi-detached","oldOrNew":"Established","duration":"Freehold","paon":"CHAPEL COTTAGE","saon":"","street":"TRENT LANE","locality":"WESTON ON TRENT","townOrCity":"DERBY","district":"SOUTH DERBYSHIRE","county":"DERBYSHIRE","ppdCategoryType":"Standard","recordStatus":"Addition","latitude":52.84714,"longitude":-1.39963,"postcodeStart":"DE72 2","postcode":["DE72","2BT"]}
{"price":105000,"dateOfTransfer":"1996-07-31T00:00:00","postcodeFull":"DE72 2BT","propertyType":"Detached","oldOrNew":"New build","duration":"Freehold","paon":"FOWLER SYKE","saon":"","street":"TRENT LANE","locality":"WESTON ON TRENT","townOrCity":"DERBY","district":"SOUTH DERBYSHIRE","county":"DERBYSHIRE","ppdCategoryType":"Standard","recordStatus":"Addition","latitude":52.84714,"longitude":-1.39963,"postcodeStart":"DE72 2","postcode":["DE72","2BT"]}
{"price":95000,"dateOfTransfer":"1996-12-11T00:00:00","postcodeFull":"DE72 2AS","propertyType":"Detached","oldOrNew":"Established","duration":"Freehold","paon":"8","saon":"","street":"WESTON ROAD","locality":"ASTON ON TRENT","townOrCity":"DERBY","district":"SOUTH DERBYSHIRE","county":"DERBYSHIRE","ppdCategoryType":"Standard","recordStatus":"Addition","latitude":52.861304,"longitude":-1.38683,"postcodeStart":"DE72 2","postcode":["DE72","2AS"]}
{"price":42250,"dateOfTransfer":"1996-04-26T00:00:00","postcodeFull":"DE72 2BU","propertyType":"Terraced","oldOrNew":"Established","duration":"Freehold","paon":"CHELLASTON COTTAGES","saon":"4","street":"SWARKESTONE ROAD","locality":"WESTON ON TRENT","townOrCity":"DERBY","district":"SOUTH DERBYSHIRE","county":"DERBYSHIRE","ppdCategoryType":"Standard","recordStatus":"Addition","latitude":52.844251,"longitude":-1.417115,"postcodeStart":"DE72 2","postcode":["DE72","2BU"]}
{"price":115000,"dateOfTransfer":"1997-06-27T00:00:00","postcodeFull":"DE72 2GH","propertyType":"Terraced","oldOrNew":"Established","duration":"Freehold","paon":"11","saon":"","street":"THE WHARF","locality":"SHARDLOW","townOrCity":"DERBY","district":"SOUTH DERBYSHIRE","county":"DERBYSHIRE","ppdCategoryType":"Standard","recordStatus":"Addition","latitude":52.869076,"longitude":-1.343966,"postcodeStart":"DE72 2","postcode":["DE72","2GH"]}
{"price":67500,"dateOfTransfer":"1997-05-09T00:00:00","postcodeFull":"DE72 2BW","propertyType":"Detached","oldOrNew":"Established","duration":"Freehold","paon":"23","saon":"","street":"MANOR FARM ROAD","locality":"ASTON ON TRENT","townOrCity":"DERBY","district":"SOUTH DERBYSHIRE","county":"DERBYSHIRE","ppdCategoryType":"Standard","recordStatus":"Addition","latitude":52.862069,"longitude":-1.381799,"postcodeStart":"DE72 2","postcode":["DE72","2BW"]}
{"price":120000,"dateOfTransfer":"1997-10-31T00:00:00","postcodeFull":"DE72 2DR","propertyType":"Detached","oldOrNew":"Established","duration":"Freehold","paon":"8","saon":"","street":"RECTORY FARM MEWS","locality":"WESTON ON TRENT","townOrCity":"DERBY","district":"SOUTH DERBYSHIRE","county":"DERBYSHIRE","ppdCategoryType":"Standard","recordStatus":"Addition","latitude":52.845292,"longitude":-1.405971,"postcodeStart":"DE72 2","postcode":["DE72","2DR"]}
{"price":56500,"dateOfTransfer":"1997-10-10T00:00:00","postcodeFull":"DE72 2AU","propertyType":"Semi-detached","oldOrNew":"Established","duration":"Freehold","paon":"27","saon":"","street":"COMPTON AVENUE","locality":"ASTON ON TRENT","townOrCity":"DERBY","district":"SOUTH DERBYSHIRE","county":"DERBYSHIRE","ppdCategoryType":"Standard","recordStatus":"Addition","latitude":52.862893,"longitude":-1.387996,"postcodeStart":"DE72 2","postcode":["DE72","2AU"]}
{"price":140000,"dateOfTransfer":"1997-08-15T00:00:00","postcodeFull":"DE72 2DD","propertyType":"Detached","oldOrNew":"Established","duration":"Freehold","paon":"1","saon":"","street":"ASTON HALL DRIVE","locality":"ASTON ON TRENT","townOrCity":"DERBY","district":"SOUTH DERBYSHIRE","county":"DERBYSHIRE","ppdCategoryType":"Standard","recordStatus":"Addition","latitude":52.858976,"longitude":-1.385081,"postcodeStart":"DE72 2","postcode":["DE72","2DD"]}
{"price":62500,"dateOfTransfer":"1997-09-26T00:00:00","postcodeFull":"DE72 2AU","propertyType":"Semi-detached","oldOrNew":"Established","duration":"Freehold","paon":"51","saon":"","street":"COMPTON AVENUE","locality":"ASTON ON TRENT","townOrCity":"DERBY","district":"SOUTH DERBYSHIRE","county":"DERBYSHIRE","ppdCategoryType":"Standard","recordStatus":"Addition","latitude":52.862893,"longitude":-1.387996,"postcodeStart":"DE72 2","postcode":["DE72","2AU"]}
{"price":96000,"dateOfTransfer":"1997-08-15T00:00:00","postcodeFull":"DE72 2DD","propertyType":"Detached","oldOrNew":"Established","duration":"Freehold","paon":"3","saon":"","street":"ASTON HALL DRIVE","locality":"ASTON ON TRENT","townOrCity":"DERBY","district":"SOUTH DERBYSHIRE","county":"DERBYSHIRE","ppdCategoryType":"Standard","recordStatus":"Addition","latitude":52.858976,"longitude":-1.385081,"postcodeStart":"DE72 2","postcode":["DE72","2DD"]}
{"price":62500,"dateOfTransfer":"1997-09-26T00:00:00","postcodeFull":"DE72 2BP","propertyType":"Semi-detached","oldOrNew":"Established","duration":"Freehold","paon":"3","saon":"","street":"THE AVENUE","locality":"WESTON ON TRENT","townOrCity":"DERBY","district":"SOUTH DERBYSHIRE","county":"DERBYSHIRE","ppdCategoryType":"Standard","recordStatus":"Addition","latitude":52.849396,"longitude":-1.399694,"postcodeStart":"DE72 2","postcode":["DE72","2BP"]}
{"price":174000,"dateOfTransfer":"1997-07-04T00:00:00","postcodeFull":"DE72 2HF","propertyType":"Detached","oldOrNew":"Established","duration":"Freehold","paon":"WILNE FARM","saon":"ORCHARD BARN","street":"GREAT WILNE","locality":"SHARDLOW","townOrCity":"DERBY","district":"SOUTH DERBYSHIRE","county":"DERBYSHIRE","ppdCategoryType":"Standard","recordStatus":"Addition","latitude":52.873719,"longitude":-1.3351,"postcodeStart":"DE72 2","postcode":["DE72","2HF"]}
{"price":48000,"dateOfTransfer":"1997-05-30T00:00:00","postcodeFull":"DE72 2GR","propertyType":"Semi-detached","oldOrNew":"Established","duration":"Freehold","paon":"18","saon":"","street":"LONDON ROAD","locality":"SHARDLOW","townOrCity":"DERBY","district":"SOUTH DERBYSHIRE","county":"DERBYSHIRE","ppdCategoryType":"Standard","recordStatus":"Addition","latitude":52.871235,"longitude":-1.360522,"postcodeStart":"DE72 2","postcode":["DE72","2GR"]}
{"price":53000,"dateOfTransfer":"1997-06-27T00:00:00","postcodeFull":"DE72 2WE","propertyType":"Terraced","oldOrNew":"Established","duration":"Freehold","paon":"8 - 9","saon":"","street":"MILL GREEN","locality":"SHARDLOW","townOrCity":"DERBY","district":"SOUTH DERBYSHIRE","county":"DERBYSHIRE","ppdCategoryType":"Standard","recordStatus":"Addition","latitude":52.869407,"longitude":-1.343664,"postcodeStart":"DE72 2","postcode":["DE72","2WE"]}
{"price":11250,"dateOfTransfer":"1997-09-15T00:00:00","postcodeFull":"DE72 2BU","propertyType":"Terraced","oldOrNew":"Established","duration":"Leasehold","paon":"CHELLASTON COTTAGES","saon":"5","street":"SWARKESTONE ROAD","locality":"WESTON ON TRENT","townOrCity":"DERBY","district":"SOUTH DERBYSHIRE","county":"DERBYSHIRE","ppdCategoryType":"Standard","recordStatus":"Addition","latitude":52.844251,"longitude":-1.417115,"postcodeStart":"DE72 2","postcode":["DE72","2BU"]}
{"price":61100,"dateOfTransfer":"1997-05-09T00:00:00","postcodeFull":"DE72 2GP","propertyType":"Semi-detached","oldOrNew":"Established","duration":"Freehold","paon":"106","saon":"","street":"LONDON ROAD","locality":"SHARDLOW","townOrCity":"DERBY","district":"SOUTH DERBYSHIRE","county":"DERBYSHIRE","ppdCategoryType":"Standard","recordStatus":"Addition","latitude":52.869044,"longitude":-1.352878,"postcodeStart":"DE72 2","postcode":["DE72","2GP"]}
{"price":108250,"dateOfTransfer":"1997-12-19T00:00:00","postcodeFull":"DE72 2DF","propertyType":"Detached","oldOrNew":"New build","duration":"Freehold","paon":"6","saon":"","street":"WILLOW PARK WAY","locality":"ASTON ON TRENT","townOrCity":"DERBY","district":"SOUTH DERBYSHIRE","county":"DERBYSHIRE","ppdCategoryType":"Standard","recordStatus":"Addition","latitude":52.857238,"longitude":-1.387897,"postcodeStart":"DE72 2","postcode":["DE72","2DF"]}
{"price":66000,"dateOfTransfer":"1997-08-01T00:00:00","postcodeFull":"DE72 2AS","propertyType":"Detached","oldOrNew":"Established","duration":"Freehold","paon":"51","saon":"","street":"WESTON ROAD","locality":"ASTON ON TRENT","townOrCity":"DERBY","district":"SOUTH DERBYSHIRE","county":"DERBYSHIRE","ppdCategoryType":"Standard","recordStatus":"Addition","latitude":52.861304,"longitude":-1.38683,"postcodeStart":"DE72 2","postcode":["DE72","2AS"]}
{"price":33000,"dateOfTransfer":"1997-10-03T00:00:00","postcodeFull":"DE72 2WD","propertyType":"Terraced","oldOrNew":"Established","duration":"Freehold","paon":"21","saon":"","street":"ALTS NOOK WAY","locality":"SHARDLOW","townOrCity":"DERBY","district":"SOUTH DERBYSHIRE","county":"DERBYSHIRE","ppdCategoryType":"Standard","recordStatus":"Addition","latitude":52.869699,"longitude":-1.360862,"postcodeStart":"DE72 2","postcode":["DE72","2WD"]}
{"price":72000,"dateOfTransfer":"1997-01-31T00:00:00","postcodeFull":"DE72 2GZ","propertyType":"Detached","oldOrNew":"Established","duration":"Freehold","paon":"46","saon":"","street":"GLENN WAY","locality":"SHARDLOW","townOrCity":"DERBY","district":"SOUTH DERBYSHIRE","county":"DERBYSHIRE","ppdCategoryType":"Standard","recordStatus":"Addition","latitude":52.870125,"longitude":-1.361525,"postcodeStart":"DE72 2","postcode":["DE72","2GZ"]}
{"price":28500,"dateOfTransfer":"1997-02-28T00:00:00","postcodeFull":"DE72 2HE","propertyType":"Terraced","oldOrNew":"Established","duration":"Freehold","paon":"32","saon":"","street":"LONG ROW","locality":"SHARDLOW","townOrCity":"DERBY","district":"SOUTH DERBYSHIRE","county":"DERBYSHIRE","ppdCategoryType":"Standard","recordStatus":"Addition","latitude":52.871389,"longitude":-1.339622,"postcodeStart":"DE72 2","postcode":["DE72","2HE"]}
{"price":118000,"dateOfTransfer":"1997-11-07T00:00:00","postcodeFull":"DE72 2AA","propertyType":"Detached","oldOrNew":"Established","duration":"Freehold","paon":"LONG COTTAGE","saon":"","street":"THE GREEN","locality":"ASTON ON TRENT","townOrCity":"DERBY","district":"SOUTH DERBYSHIRE","county":"DERBYSHIRE","ppdCategoryType":"Standard","recordStatus":"Addition","latitude":52.861285,"longitude":-1.384914,"postcodeStart":"DE72 2","postcode":["DE72","2AA"]}
{"price":89950,"dateOfTransfer":"1997-11-07T00:00:00","postcodeFull":"DE72 2AE","propertyType":"Detached","oldOrNew":"Established","duration":"Freehold","paon":"71","saon":"","street":"DERBY ROAD","locality":"ASTON ON TRENT","townOrCity":"DERBY","district":"SOUTH DERBYSHIRE","county":"DERBYSHIRE","ppdCategoryType":"Standard","recordStatus":"Addition","latitude":52.864839,"longitude":-1.385399,"postcodeStart":"DE72 2","postcode":["DE72","2AE"]}
{"price":59950,"dateOfTransfer":"1997-02-07T00:00:00","postcodeFull":"DE72 2BZ","propertyType":"Detached","oldOrNew":"Established","duration":"Freehold","paon":"5","saon":"","street":"OLD GATE AVENUE","locality":"WESTON ON TRENT","townOrCity":"DERBY","district":"SOUTH DERBYSHIRE","county":"DERBYSHIRE","ppdCategoryType":"Standard","recordStatus":"Addition","latitude":52.848635,"longitude":-1.400328,"postcodeStart":"DE72 2","postcode":["DE72","2BZ"]}
{"price":67750,"dateOfTransfer":"1997-07-25T00:00:00","postcodeFull":"DE72 2GZ","propertyType":"Detached","oldOrNew":"Established","duration":"Freehold","paon":"53","saon":"","street":"GLENN WAY","locality":"SHARDLOW","townOrCity":"DERBY","district":"SOUTH DERBYSHIRE","county":"DERBYSHIRE","ppdCategoryType":"Standard","recordStatus":"Addition","latitude":52.870125,"longitude":-1.361525,"postcodeStart":"DE72 2","postcode":["DE72","2GZ"]}
{"price":99000,"dateOfTransfer":"1997-11-07T00:00:00","postcodeFull":"DE72 2AX","propertyType":"Semi-detached","oldOrNew":"Established","duration":"Freehold","paon":"WOODSIDE","saon":"","street":"CHELLASTON LANE","locality":"ASTON ON TRENT","townOrCity":"DERBY","district":"SOUTH DERBYSHIRE","county":"DERBYSHIRE","ppdCategoryType":"Standard","recordStatus":"Addition","latitude":52.862348,"longitude":-1.392326,"postcodeStart":"DE72 2","postcode":["DE72","2AX"]}
{"price":30000,"dateOfTransfer":"1997-02-24T00:00:00","postcodeFull":"DE72 2HJ","propertyType":"Detached","oldOrNew":"Established","duration":"Freehold","paon":"14","saon":"","street":"CAVENDISH COURT","locality":"SHARDLOW","townOrCity":"DERBY","district":"SOUTH DERBYSHIRE","county":"DERBYSHIRE","ppdCategoryType":"Standard","recordStatus":"Addition","latitude":52.867738,"longitude":-1.341044,"postcodeStart":"DE72 2","postcode":["DE72","2HJ"]}
{"price":77000,"dateOfTransfer":"1997-07-04T00:00:00","postcodeFull":"DE72 2AU","propertyType":"Detached","oldOrNew":"Established","duration":"Freehold","paon":"59","saon":"","street":"COMPTON AVENUE","locality":"ASTON ON TRENT","townOrCity":"DERBY","district":"SOUTH DERBYSHIRE","county":"DERBYSHIRE","ppdCategoryType":"Standard","recordStatus":"Addition","latitude":52.862893,"longitude":-1.387996,"postcodeStart":"DE72 2","postcode":["DE72","2AU"]}
{"price":125000,"dateOfTransfer":"1997-03-21T00:00:00","postcodeFull":"DE72 2BR","propertyType":"Detached","oldOrNew":"Established","duration":"Freehold","paon":"65","saon":"","street":"PARK LANE","locality":"WESTON ON TRENT","townOrCity":"DERBY","district":"SOUTH DERBYSHIRE","county":"DERBYSHIRE","ppdCategoryType":"Standard","recordStatus":"Addition","latitude":52.846444,"longitude":-1.404307,"postcodeStart":"DE72 2","postcode":["DE72","2BR"]}
{"price":58650,"dateOfTransfer":"1997-02-14T00:00:00","postcodeFull":"DE72 2GP","propertyType":"Semi-detached","oldOrNew":"Established","duration":"Freehold","paon":"108","saon":"","street":"LONDON ROAD","locality":"SHARDLOW","townOrCity":"DERBY","district":"SOUTH DERBYSHIRE","county":"DERBYSHIRE","ppdCategoryType":"Standard","recordStatus":"Addition","latitude":52.869044,"longitude":-1.352878,"postcodeStart":"DE72 2","postcode":["DE72","2GP"]}
{"price":75000,"dateOfTransfer":"1997-11-14T00:00:00","postcodeFull":"DE72 2AE","propertyType":"Detached","oldOrNew":"Established","duration":"Freehold","paon":"47","saon":"","street":"DERBY ROAD","locality":"ASTON ON TRENT","townOrCity":"DERBY","district":"SOUTH DERBYSHIRE","county":"DERBYSHIRE","ppdCategoryType":"Standard","recordStatus":"Addition","latitude":52.864839,"longitude":-1.385399,"postcodeStart":"DE72 2","postcode":["DE72","2AE"]}
{"price":48000,"dateOfTransfer":"1997-07-24T00:00:00","postcodeFull":"DE72 2AS","propertyType":"Detached","oldOrNew":"New build","duration":"Freehold","paon":"44","saon":"","street":"WESTON ROAD","locality":"ASTON ON TRENT","townOrCity":"DERBY","district":"SOUTH DERBYSHIRE","county":"DERBYSHIRE","ppdCategoryType":"Standard","recordStatus":"Addition","latitude":52.861304,"longitude":-1.38683,"postcodeStart":"DE72 2","postcode":["DE72","2AS"]}
{"price":152000,"dateOfTransfer":"1997-08-11T00:00:00","postcodeFull":"DE72 2DJ","propertyType":"Semi-detached","oldOrNew":"Established","duration":"Freehold","paon":"1","saon":"","street":"WESTON COURT","locality":"WESTON ON TRENT","townOrCity":"DERBY","district":"SOUTH DERBYSHIRE","county":"DERBYSHIRE","ppdCategoryType":"Standard","recordStatus":"Addition","latitude":52.847925,"longitude":-1.402104,"postcodeStart":"DE72 2","postcode":["DE72","2DJ"]}
{"price":110000,"dateOfTransfer":"1997-05-27T00:00:00","postcodeFull":"DE72 2HA","propertyType":"Detached","oldOrNew":"Established","duration":"Freehold","paon":"49","saon":"","street":"WILNE LANE","locality":"SHARDLOW","townOrCity":"DERBY","district":"SOUTH DERBYSHIRE","county":"DERBYSHIRE","ppdCategoryType":"Standard","recordStatus":"Addition","latitude":52.869303,"longitude":-1.34114,"postcodeStart":"DE72 2","postcode":["DE72","2HA"]}
{"price":100000,"dateOfTransfer":"1997-10-24T00:00:00","postcodeFull":"DE72 2GR","propertyType":"Detached","oldOrNew":"Established","duration":"Freehold","paon":"41","saon":"","street":"LONDON ROAD","locality":"SHARDLOW","townOrCity":"DERBY","district":"SOUTH DERBYSHIRE","county":"DERBYSHIRE","ppdCategoryType":"Standard","recordStatus":"Addition","latitude":52.871235,"longitude":-1.360522,"postcodeStart":"DE72 2","postcode":["DE72","2GR"]}
{"price":44000,"dateOfTransfer":"1997-05-30T00:00:00","postcodeFull":"DE72 2WD","propertyType":"Terraced","oldOrNew":"Established","duration":"Freehold","paon":"23","saon":"","street":"ALTS NOOK WAY","locality":"SHARDLOW","townOrCity":"DERBY","district":"SOUTH DERBYSHIRE","county":"DERBYSHIRE","ppdCategoryType":"Standard","recordStatus":"Addition","latitude":52.869699,"longitude":-1.360862,"postcodeStart":"DE72 2","postcode":["DE72","2WD"]}
{"price":27000,"dateOfTransfer":"1997-04-22T00:00:00","postcodeFull":"DE72 2BG","propertyType":"Terraced","oldOrNew":"Established","duration":"Freehold","paon":"11","saon":"","street":"YATES AVENUE","locality":"ASTON ON TRENT","townOrCity":"DERBY","district":"SOUTH DERBYSHIRE","county":"DERBYSHIRE","ppdCategoryType":"Standard","recordStatus":"Addition","latitude":52.857415,"longitude":-1.390999,"postcodeStart":"DE72 2","postcode":["DE72","2BG"]}
{"price":75500,"dateOfTransfer":"1997-05-02T00:00:00","postcodeFull":"DE72 2AP","propertyType":"Detached","oldOrNew":"Established","duration":"Freehold","paon":"3","saon":"","street":"SHIRLEY PARK","locality":"ASTON ON TRENT","townOrCity":"DERBY","district":"SOUTH DERBYSHIRE","county":"DERBYSHIRE","ppdCategoryType":"Standard","recordStatus":"Addition","latitude":52.859991,"longitude":-1.383254,"postcodeStart":"DE72 2","postcode":["DE72","2AP"]}
{"price":62000,"dateOfTransfer":"1997-09-19T00:00:00","postcodeFull":"DE72 2BA","propertyType":"Semi-detached","oldOrNew":"Established","duration":"Freehold","paon":"139","saon":"","street":"WESTON ROAD","locality":"ASTON ON TRENT","townOrCity":"DERBY","district":"SOUTH DERBYSHIRE","county":"DERBYSHIRE","ppdCategoryType":"Standard","recordStatus":"Addition","latitude":52.859623,"longitude":-1.390225,"postcodeStart":"DE72 2","postcode":["DE72","2BA"]}
{"price":89000,"dateOfTransfer":"1997-10-16T00:00:00","postcodeFull":"DE72 2HX","propertyType":"Detached","oldOrNew":"Established","duration":"Freehold","paon":"11","saon":"","street":"FORRESTER AVENUE","locality":"WESTON ON TRENT","townOrCity":"DERBY","district":"SOUTH DERBYSHIRE","county":"DERBYSHIRE","ppdCategoryType":"Standard","recordStatus":"Addition","latitude":52.848504,"longitude":-1.39932,"postcodeStart":"DE72 2","postcode":["DE72","2HX"]}
{"price":25500,"dateOfTransfer":"1997-06-20T00:00:00","postcodeFull":"DE72 2HA","propertyType":"Terraced","oldOrNew":"Established","duration":"Freehold","paon":"21","saon":"","street":"WILNE LANE","locality":"SHARDLOW","townOrCity":"DERBY","district":"SOUTH DERBYSHIRE","county":"DERBYSHIRE","ppdCategoryType":"Standard","recordStatus":"Addition","latitude":52.869303,"longitude":-1.34114,"postcodeStart":"DE72 2","postcode":["DE72","2HA"]}
{"price":71000,"dateOfTransfer":"1997-09-05T00:00:00","postcodeFull":"DE72 2BZ","propertyType":"Detached","oldOrNew":"Established","duration":"Freehold","paon":"4","saon":"","street":"OLD GATE AVENUE","locality":"WESTON ON TRENT","townOrCity":"DERBY","district":"SOUTH DERBYSHIRE","county":"DERBYSHIRE","ppdCategoryType":"Standard","recordStatus":"Addition","latitude":52.848635,"longitude":-1.400328,"postcodeStart":"DE72 2","postcode":["DE72","2BZ"]}
{"price":33950,"dateOfTransfer":"1997-05-01T00:00:00","postcodeFull":"DE72 2HE","propertyType":"Terraced","oldOrNew":"Established","duration":"Freehold","paon":"18","saon":"","street":"LONG ROW","locality":"SHARDLOW","townOrCity":"DERBY","district":"SOUTH DERBYSHIRE","county":"DERBYSHIRE","ppdCategoryType":"Standard","recordStatus":"Addition","latitude":52.871389,"longitude":-1.339622,"postcodeStart":"DE72 2","postcode":["DE72","2HE"]}
{"price":79950,"dateOfTransfer":"1997-08-04T00:00:00","postcodeFull":"DE72 2BJ","propertyType":"Semi-detached","oldOrNew":"Established","duration":"Freehold","paon":"5","saon":"","street":"THE GREEN","locality":"WESTON ON TRENT","townOrCity":"DERBY","district":"SOUTH DERBYSHIRE","county":"DERBYSHIRE","ppdCategoryType":"Standard","recordStatus":"Addition","latitude":52.850885,"longitude":-1.400811,"postcodeStart":"DE72 2","postcode":["DE72","2BJ"]}
{"price":85000,"dateOfTransfer":"1997-05-02T00:00:00","postcodeFull":"DE72 2AF","propertyType":"Detached","oldOrNew":"Established","duration":"Freehold","paon":"100","saon":"","street":"DERBY ROAD","locality":"ASTON ON TRENT","townOrCity":"DERBY","district":"SOUTH DERBYSHIRE","county":"DERBYSHIRE","ppdCategoryType":"Standard","recordStatus":"Addition","latitude":52.865007,"longitude":-1.384797,"postcodeStart":"DE72 2","postcode":["DE72","2AF"]}
{"price":120000,"dateOfTransfer":"1997-12-12T00:00:00","postcodeFull":"DE72 2HD","propertyType":"Detached","oldOrNew":"Established","duration":"Freehold","paon":"12","saon":"","street":"MILLFIELD","locality":"SHARDLOW","townOrCity":"DERBY","district":"SOUTH DERBYSHIRE","county":"DERBYSHIRE","ppdCategoryType":"Standard","recordStatus":"Addition","latitude":52.870385,"longitude":-1.338375,"postcodeStart":"DE72 2","postcode":["DE72","2HD"]}
{"price":77500,"dateOfTransfer":"1997-04-25T00:00:00","postcodeFull":"DE72 2HF","propertyType":"Detached","oldOrNew":"Established","duration":"Freehold","paon":"2","saon":"","street":"GREAT WILNE","locality":"SHARDLOW","townOrCity":"DERBY","district":"SOUTH DERBYSHIRE","county":"DERBYSHIRE","ppdCategoryType":"Standard","recordStatus":"Addition","latitude":52.873719,"longitude":-1.3351,"postcodeStart":"DE72 2","postcode":["DE72","2HF"]}
{"price":95000,"dateOfTransfer":"1997-03-21T00:00:00","postcodeFull":"DE72 2UQ","propertyType":"Detached","oldOrNew":"Established","duration":"Freehold","paon":"18","saon":"","street":"GREEN LEAS","locality":"ASTON ON TRENT","townOrCity":"DERBY","district":"SOUTH DERBYSHIRE","county":"DERBYSHIRE","ppdCategoryType":"Standard","recordStatus":"Addition","latitude":52.862356,"longitude":-1.386889,"postcodeStart":"DE72 2","postcode":["DE72","2UQ"]}
{"price":59950,"dateOfTransfer":"1997-11-28T00:00:00","postcodeFull":"DE72 2BA","propertyType":"Semi-detached","oldOrNew":"Established","duration":"Freehold","paon":"147","saon":"","street":"WESTON ROAD","locality":"ASTON ON TRENT","townOrCity":"DERBY","district":"SOUTH DERBYSHIRE","county":"DERBYSHIRE","ppdCategoryType":"Standard","recordStatus":"Addition","latitude":52.859623,"longitude":-1.390225,"postcodeStart":"DE72 2","postcode":["DE72","2BA"]}
{"price":39000,"dateOfTransfer":"1997-12-03T00:00:00","postcodeFull":"DE72 2HD","propertyType":"Terraced","oldOrNew":"Established","duration":"Freehold","paon":"2","saon":"","street":"MILLFIELD","locality":"SHARDLOW","townOrCity":"DERBY","district":"SOUTH DERBYSHIRE","county":"DERBYSHIRE","ppdCategoryType":"Standard","recordStatus":"Addition","latitude":52.870385,"longitude":-1.338375,"postcodeStart":"DE72 2","postcode":["DE72","2HD"]}
{"price":70000,"dateOfTransfer":"1997-11-14T00:00:00","postcodeFull":"DE72 2HW","propertyType":"Detached","oldOrNew":"Established","duration":"Freehold","paon":"1","saon":"","street":"WALNUT CLOSE","locality":"ASTON ON TRENT","townOrCity":"DERBY","district":"SOUTH DERBYSHIRE","county":"DERBYSHIRE","ppdCategoryType":"Standard","recordStatus":"Addition","latitude":52.862933,"longitude":-1.383643,"postcodeStart":"DE72 2","postcode":["DE72","2HW"]}
{"price":119500,"dateOfTransfer":"1997-06-06T00:00:00","postcodeFull":"DE72 2UH","propertyType":"Detached","oldOrNew":"Established","duration":"Freehold","paon":"19","saon":"","street":"LONG CROFT","locality":"ASTON ON TRENT","townOrCity":"DERBY","district":"SOUTH DERBYSHIRE","county":"DERBYSHIRE","ppdCategoryType":"Standard","recordStatus":"Addition","latitude":52.862792,"longitude":-1.385977,"postcodeStart":"DE72 2","postcode":["DE72","2UH"]}
{"price":65500,"dateOfTransfer":"1997-07-11T00:00:00","postcodeFull":"DE72 2AU","propertyType":"Semi-detached","oldOrNew":"Established","duration":"Freehold","paon":"21","saon":"","street":"COMPTON AVENUE","locality":"ASTON ON TRENT","townOrCity":"DERBY","district":"SOUTH DERBYSHIRE","county":"DERBYSHIRE","ppdCategoryType":"Standard","recordStatus":"Addition","latitude":52.862893,"longitude":-1.387996,"postcodeStart":"DE72 2","postcode":["DE72","2AU"]}
{"price":51000,"dateOfTransfer":"1997-09-18T00:00:00","postcodeFull":"DE72 2WE","propertyType":"Terraced","oldOrNew":"Established","duration":"Freehold","paon":"9","saon":"","street":"MILL GREEN","locality":"SHARDLOW","townOrCity":"DERBY","district":"SOUTH DERBYSHIRE","county":"DERBYSHIRE","ppdCategoryType":"Standard","recordStatus":"Addition","latitude":52.869407,"longitude":-1.343664,"postcodeStart":"DE72 2","postcode":["DE72","2WE"]}
{"price":95000,"dateOfTransfer":"1997-07-11T00:00:00","postcodeFull":"DE72 2AX","propertyType":"Detached","oldOrNew":"Established","duration":"Freehold","paon":"25","saon":"","street":"CHELLASTON LANE","locality":"ASTON ON TRENT","townOrCity":"DERBY","district":"SOUTH DERBYSHIRE","county":"DERBYSHIRE","ppdCategoryType":"Standard","recordStatus":"Addition","latitude":52.862348,"longitude":-1.392326,"postcodeStart":"DE72 2","postcode":["DE72","2AX"]}
{"price":50000,"dateOfTransfer":"1997-06-13T00:00:00","postcodeFull":"DE72 2AE","propertyType":"Semi-detached","oldOrNew":"New build","duration":"Freehold","paon":"53","saon":"","street":"DERBY ROAD","locality":"ASTON ON TRENT","townOrCity":"DERBY","district":"SOUTH DERBYSHIRE","county":"DERBYSHIRE","ppdCategoryType":"Standard","recordStatus":"Addition","latitude":52.864839,"longitude":-1.385399,"postcodeStart":"DE72 2","postcode":["DE72","2AE"]}
{"price":129500,"dateOfTransfer":"1997-12-19T00:00:00","postcodeFull":"DE72 2DF","propertyType":"Detached","oldOrNew":"New build","duration":"Freehold","paon":"10","saon":"","street":"WILLOW PARK WAY","locality":"ASTON ON TRENT","townOrCity":"DERBY","district":"SOUTH DERBYSHIRE","county":"DERBYSHIRE","ppdCategoryType":"Standard","recordStatus":"Addition","latitude":52.857238,"longitude":-1.387897,"postcodeStart":"DE72 2","postcode":["DE72","2DF"]}
{"price":48500,"dateOfTransfer":"1997-10-30T00:00:00","postcodeFull":"DE72 2HE","propertyType":"Terraced","oldOrNew":"Established","duration":"Freehold","paon":"5","saon":"","street":"LONG ROW","locality":"SHARDLOW","townOrCity":"DERBY","district":"SOUTH DERBYSHIRE","county":"DERBYSHIRE","ppdCategoryType":"Standard","recordStatus":"Addition","latitude":52.871389,"longitude":-1.339622,"postcodeStart":"DE72 2","postcode":["DE72","2HE"]}
{"price":59995,"dateOfTransfer":"1997-06-19T00:00:00","postcodeFull":"DE72 2HE","propertyType":"Terraced","oldOrNew":"Established","duration":"Freehold","paon":"28","saon":"","street":"LONG ROW","locality":"SHARDLOW","townOrCity":"DERBY","district":"SOUTH DERBYSHIRE","county":"DERBYSHIRE","ppdCategoryType":"Standard","recordStatus":"Addition","latitude":52.871389,"longitude":-1.339622,"postcodeStart":"DE72 2","postcode":["DE72","2HE"]}
{"price":86000,"dateOfTransfer":"1997-07-18T00:00:00","postcodeFull":"DE72 2AF","propertyType":"Detached","oldOrNew":"Established","duration":"Freehold","paon":"48","saon":"","street":"DERBY ROAD","locality":"ASTON ON TRENT","townOrCity":"DERBY","district":"SOUTH DERBYSHIRE","county":"DERBYSHIRE","ppdCategoryType":"Standard","recordStatus":"Addition","latitude":52.865007,"longitude":-1.384797,"postcodeStart":"DE72 2","postcode":["DE72","2AF"]}
{"price":80000,"dateOfTransfer":"1997-01-31T00:00:00","postcodeFull":"DE72 2BD","propertyType":"Detached","oldOrNew":"Established","duration":"Freehold","paon":"3","saon":"","street":"ELLISON AVENUE","locality":"ASTON ON TRENT","townOrCity":"DERBY","district":"SOUTH DERBYSHIRE","county":"DERBYSHIRE","ppdCategoryType":"Standard","recordStatus":"Addition","latitude":52.860496,"longitude":-1.392159,"postcodeStart":"DE72 2","postcode":["DE72","2BD"]}
{"price":43000,"dateOfTransfer":"1997-11-05T00:00:00","postcodeFull":"DE72 2GR","propertyType":"Terraced","oldOrNew":"Established","duration":"Freehold","paon":"70","saon":"","street":"LONDON ROAD","locality":"SHARDLOW","townOrCity":"DERBY","district":"SOUTH DERBYSHIRE","county":"DERBYSHIRE","ppdCategoryType":"Standard","recordStatus":"Addition","latitude":52.871235,"longitude":-1.360522,"postcodeStart":"DE72 2","postcode":["DE72","2GR"]}
{"price":77000,"dateOfTransfer":"1997-02-14T00:00:00","postcodeFull":"DE72 2BA","propertyType":"Detached","oldOrNew":"Established","duration":"Freehold","paon":"82","saon":"","street":"WESTON ROAD","locality":"ASTON ON TRENT","townOrCity":"DERBY","district":"SOUTH DERBYSHIRE","county":"DERBYSHIRE","ppdCategoryType":"Standard","recordStatus":"Addition","latitude":52.859623,"longitude":-1.390225,"postcodeStart":"DE72 2","postcode":["DE72","2BA"]}
{"price":59950,"dateOfTransfer":"1997-05-02T00:00:00","postcodeFull":"DE72 2AP","propertyType":"Detached","oldOrNew":"Established","duration":"Freehold","paon":"20","saon":"","street":"SHIRLEY PARK","locality":"ASTON ON TRENT","townOrCity":"DERBY","district":"SOUTH DERBYSHIRE","county":"DERBYSHIRE","ppdCategoryType":"Standard","recordStatus":"Addition","latitude":52.859991,"longitude":-1.383254,"postcodeStart":"DE72 2","postcode":["DE72","2AP"]}
{"price":59950,"dateOfTransfer":"1997-05-12T00:00:00","postcodeFull":"DE72 2BZ","propertyType":"Detached","oldOrNew":"Established","duration":"Freehold","paon":"2","saon":"","street":"OLD GATE AVENUE","locality":"WESTON ON TRENT","townOrCity":"DERBY","district":"SOUTH DERBYSHIRE","county":"DERBYSHIRE","ppdCategoryType":"Standard","recordStatus":"Addition","latitude":52.848635,"longitude":-1.400328,"postcodeStart":"DE72 2","postcode":["DE72","2BZ"]}
{"price":127000,"dateOfTransfer":"1997-07-11T00:00:00","postcodeFull":"DE72 2HL","propertyType":"Detached","oldOrNew":"Established","duration":"Freehold","paon":"CAVENDISH HOUSE","saon":"","street":"CAVENDISH BRIDGE","locality":"SHARDLOW","townOrCity":"DERBY","district":"NORTH WEST LEICESTERSHIRE","county":"LEICESTERSHIRE","ppdCategoryType":"Standard","recordStatus":"Addition","latitude":52.864236,"longitude":-1.338373,"postcodeStart":"DE72 2","postcode":["DE72","2HL"]}
{"price":162000,"dateOfTransfer":"1997-06-27T00:00:00","postcodeFull":"DE72 2HF","propertyType":"Detached","oldOrNew":"Established","duration":"Freehold","paon":"WILNE FARM","saon":"THE ORCHARD","street":"GREAT WILNE","locality":"SHARDLOW","townOrCity":"DERBY","district":"SOUTH DERBYSHIRE","county":"DERBYSHIRE","ppdCategoryType":"Standard","recordStatus":"Addition","latitude":52.873719,"longitude":-1.3351,"postcodeStart":"DE72 2","postcode":["DE72","2HF"]}
{"price":70000,"dateOfTransfer":"1997-02-14T00:00:00","postcodeFull":"DE72 2HJ","propertyType":"Terraced","oldOrNew":"Established","duration":"Freehold","paon":"5","saon":"","street":"CAVENDISH COURT","locality":"SHARDLOW","townOrCity":"DERBY","district":"SOUTH DERBYSHIRE","county":"DERBYSHIRE","ppdCategoryType":"Standard","recordStatus":"Addition","latitude":52.867738,"longitude":-1.341044,"postcodeStart":"DE72 2","postcode":["DE72","2HJ"]}
{"price":54000,"dateOfTransfer":"1997-10-30T00:00:00","postcodeFull":"DE72 2GZ","propertyType":"Detached","oldOrNew":"Established","duration":"Freehold","paon":"57","saon":"","street":"GLENN WAY","locality":"SHARDLOW","townOrCity":"DERBY","district":"SOUTH DERBYSHIRE","county":"DERBYSHIRE","ppdCategoryType":"Standard","recordStatus":"Addition","latitude":52.870125,"longitude":-1.361525,"postcodeStart":"DE72 2","postcode":["DE72","2GZ"]}
{"price":215000,"dateOfTransfer":"1997-10-10T00:00:00","postcodeFull":"DE72 2HF","propertyType":"Detached","oldOrNew":"Established","duration":"Freehold","paon":"23","saon":"","street":"GREAT WILNE","locality":"SHARDLOW","townOrCity":"DERBY","district":"SOUTH DERBYSHIRE","county":"DERBYSHIRE","ppdCategoryType":"Standard","recordStatus":"Addition","latitude":52.873719,"longitude":-1.3351,"postcodeStart":"DE72 2","postcode":["DE72","2HF"]}
{"price":37600,"dateOfTransfer":"1997-10-31T00:00:00","postcodeFull":"DE72 2GY","propertyType":"Semi-detached","oldOrNew":"Established","duration":"Freehold","paon":"46","saon":"","street":"WEST END DRIVE","locality":"SHARDLOW","townOrCity":"DERBY","district":"SOUTH DERBYSHIRE","county":"DERBYSHIRE","ppdCategoryType":"Standard","recordStatus":"Addition","latitude":52.8696,"longitude":-1.359289,"postcodeStart":"DE72 2","postcode":["DE72","2GY"]}
{"price":48000,"dateOfTransfer":"1997-02-14T00:00:00","postcodeFull":"DE72 2AW","propertyType":"Semi-detached","oldOrNew":"Established","duration":"Freehold","paon":"4","saon":"","street":"HOLDEN AVENUE","locality":"ASTON ON TRENT","townOrCity":"DERBY","district":"SOUTH DERBYSHIRE","county":"DERBYSHIRE","ppdCategoryType":"Standard","recordStatus":"Addition","latitude":52.862498,"longitude":-1.389977,"postcodeStart":"DE72 2","postcode":["DE72","2AW"]}
{"price":113000,"dateOfTransfer":"1997-10-27T00:00:00","postcodeFull":"DE72 2BU","propertyType":"Detached","oldOrNew":"Established","duration":"Freehold","paon":"RIO-VISTA","saon":"","street":"SWARKESTONE ROAD","locality":"WESTON ON TRENT","townOrCity":"DERBY","district":"SOUTH DERBYSHIRE","county":"DERBYSHIRE","ppdCategoryType":"Standard","recordStatus":"Addition","latitude":52.844251,"longitude":-1.417115,"postcodeStart":"DE72 2","postcode":["DE72","2BU"]}
{"price":53500,"dateOfTransfer":"1997-04-16T00:00:00","postcodeFull":"DE72 2HG","propertyType":"Terraced","oldOrNew":"Established","duration":"Freehold","paon":"41","saon":"","street":"THE WHARF","locality":"SHARDLOW","townOrCity":"DERBY","district":"SOUTH DERBYSHIRE","county":"DERBYSHIRE","ppdCategoryType":"Standard","recordStatus":"Addition","latitude":52.870473,"longitude":-1.341186,"postcodeStart":"DE72 2","postcode":["DE72","2HG"]}
{"price":69000,"dateOfTransfer":"1997-01-17T00:00:00","postcodeFull":"DE72 2BR","propertyType":"Detached","oldOrNew":"Established","duration":"Freehold","paon":"8","saon":"","street":"PARK LANE","locality":"WESTON ON TRENT","townOrCity":"DERBY","district":"SOUTH DERBYSHIRE","county":"DERBYSHIRE","ppdCategoryType":"Standard","recordStatus":"Addition","latitude":52.846444,"longitude":-1.404307,"postcodeStart":"DE72 2","postcode":["DE72","2BR"]}
{"price":110675,"dateOfTransfer":"1998-04-24T00:00:00","postcodeFull":"DE72 2DG","propertyType":"Detached","oldOrNew":"New build","duration":"Freehold","paon":"1","saon":"","street":"MAPLE DRIVE","locality":"ASTON ON TRENT","townOrCity":"DERBY","district":"SOUTH DERBYSHIRE","county":"DERBYSHIRE","ppdCategoryType":"Standard","recordStatus":"Addition","latitude":52.857226,"longitude":-1.389219,"postcodeStart":"DE72 2","postcode":["DE72","2DG"]}
{"price":60000,"dateOfTransfer":"1998-02-27T00:00:00","postcodeFull":"DE72 2AS","propertyType":"Terraced","oldOrNew":"Established","duration":"Freehold","paon":"2","saon":"","street":"WESTON ROAD","locality":"ASTON ON TRENT","townOrCity":"DERBY","district":"SOUTH DERBYSHIRE","county":"DERBYSHIRE","ppdCategoryType":"Standard","recordStatus":"Addition","latitude":52.861304,"longitude":-1.38683,"postcodeStart":"DE72 2","postcode":["DE72","2AS"]}
{"price":84000,"dateOfTransfer":"1998-11-22T00:00:00","postcodeFull":"DE72 2DN","propertyType":"Detached","oldOrNew":"New build","duration":"Freehold","paon":"11","saon":"","street":"CEDAR CROFT","locality":"ASTON ON TRENT","townOrCity":"DERBY","district":"SOUTH DERBYSHIRE","county":"DERBYSHIRE","ppdCategoryType":"Standard","recordStatus":"Addition","latitude":52.858401,"longitude":-1.390465,"postcodeStart":"DE72 2","postcode":["DE72","2DN"]}
{"price":75000,"dateOfTransfer":"1998-08-28T00:00:00","postcodeFull":"DE72 2DD","propertyType":"Detached","oldOrNew":"New build","duration":"Freehold","paon":"27","saon":"","street":"ASTON HALL DRIVE","locality":"ASTON ON TRENT","townOrCity":"DERBY","district":"SOUTH DERBYSHIRE","county":"DERBYSHIRE","ppdCategoryType":"Standard","recordStatus":"Addition","latitude":52.858976,"longitude":-1.385081,"postcodeStart":"DE72 2","postcode":["DE72","2DD"]}
{"price":109000,"dateOfTransfer":"1998-11-27T00:00:00","postcodeFull":"DE72 2HW","propertyType":"Detached","oldOrNew":"Established","duration":"Freehold","paon":"18","saon":"","street":"WALNUT CLOSE","locality":"ASTON ON TRENT","townOrCity":"DERBY","district":"SOUTH DERBYSHIRE","county":"DERBYSHIRE","ppdCategoryType":"Standard","recordStatus":"Addition","latitude":52.862933,"longitude":-1.383643,"postcodeStart":"DE72 2","postcode":["DE72","2HW"]}
{"price":53000,"dateOfTransfer":"1998-03-27T00:00:00","postcodeFull":"DE72 2WE","propertyType":"Semi-detached","oldOrNew":"Established","duration":"Freehold","paon":"7","saon":"","street":"MILL GREEN","locality":"SHARDLOW","townOrCity":"DERBY","district":"SOUTH DERBYSHIRE","county":"DERBYSHIRE","ppdCategoryType":"Standard","recordStatus":"Addition","latitude":52.869407,"longitude":-1.343664,"postcodeStart":"DE72 2","postcode":["DE72","2WE"]}
{"price":128000,"dateOfTransfer":"1998-05-29T00:00:00","postcodeFull":"DE72 2BQ","propertyType":"Detached","oldOrNew":"New build","duration":"Freehold","paon":"36","saon":"","street":"KINGS MILL LANE","locality":"WESTON ON TRENT","townOrCity":"DERBY","district":"SOUTH DERBYSHIRE","county":"DERBYSHIRE","ppdCategoryType":"Standard","recordStatus":"Addition","latitude":52.848056,"longitude":-1.399638,"postcodeStart":"DE72 2","postcode":["DE72","2BQ"]}
{"price":111450,"dateOfTransfer":"1998-09-30T00:00:00","postcodeFull":"DE72 2DF","propertyType":"Detached","oldOrNew":"New build","duration":"Freehold","paon":"19","saon":"","street":"WILLOW PARK WAY","locality":"ASTON ON TRENT","townOrCity":"DERBY","district":"SOUTH DERBYSHIRE","county":"DERBYSHIRE","ppdCategoryType":"Standard","recordStatus":"Addition","latitude":52.857238,"longitude":-1.387897,"postcodeStart":"DE72 2","postcode":["DE72","2DF"]}
{"price":87200,"dateOfTransfer":"1998-06-05T00:00:00","postcodeFull":"DE72 2HL","propertyType":"Semi-detached","oldOrNew":"Established","duration":"Freehold","paon":"WEST VIEW","saon":"","street":"CAVENDISH BRIDGE","locality":"SHARDLOW","townOrCity":"DERBY","district":"NORTH WEST LEICESTERSHIRE","county":"LEICESTERSHIRE","ppdCategoryType":"Standard","recordStatus":"Addition","latitude":52.864236,"longitude":-1.338373,"postcodeStart":"DE72 2","postcode":["DE72","2HL"]}
{"price":73000,"dateOfTransfer":"1998-10-30T00:00:00","postcodeFull":"DE72 2BA","propertyType":"Semi-detached","oldOrNew":"Established","duration":"Freehold","paon":"75","saon":"","street":"WESTON ROAD","locality":"ASTON ON TRENT","townOrCity":"DERBY","district":"SOUTH DERBYSHIRE","county":"DERBYSHIRE","ppdCategoryType":"Standard","recordStatus":"Addition","latitude":52.859623,"longitude":-1.390225,"postcodeStart":"DE72 2","postcode":["DE72","2BA"]}
{"price":103950,"dateOfTransfer":"1998-04-30T00:00:00","postcodeFull":"DE72 2BQ","propertyType":"Detached","oldOrNew":"New build","duration":"Freehold","paon":"22","saon":"","street":"KINGS MILL LANE","locality":"WESTON ON TRENT","townOrCity":"DERBY","district":"SOUTH DERBYSHIRE","county":"DERBYSHIRE","ppdCategoryType":"Standard","recordStatus":"Addition","latitude":52.848056,"longitude":-1.399638,"postcodeStart":"DE72 2","postcode":["DE72","2BQ"]}
{"price":122000,"dateOfTransfer":"1998-09-28T00:00:00","postcodeFull":"DE72 2AY","propertyType":"Detached","oldOrNew":"Established","duration":"Freehold","paon":"10","saon":"","street":"ALDERSLADE CLOSE","locality":"ASTON ON TRENT","townOrCity":"DERBY","district":"SOUTH DERBYSHIRE","county":"DERBYSHIRE","ppdCategoryType":"Standard","recordStatus":"Addition","latitude":52.867242,"longitude":-1.384176,"postcodeStart":"DE72 2","postcode":["DE72","2AY"]}
{"price":50000,"dateOfTransfer":"1998-05-01T00:00:00","postcodeFull":"DE72 2GZ","propertyType":"Semi-detached","oldOrNew":"Established","duration":"Freehold","paon":"18","saon":"","street":"GLENN WAY","locality":"SHARDLOW","townOrCity":"DERBY","district":"SOUTH DERBYSHIRE","county":"DERBYSHIRE","ppdCategoryType":"Standard","recordStatus":"Addition","latitude":52.870125,"longitude":-1.361525,"postcodeStart":"DE72 2","postcode":["DE72","2GZ"]}
{"price":195000,"dateOfTransfer":"1998-11-06T00:00:00","postcodeFull":"DE72 2GX","propertyType":"Detached","oldOrNew":"Established","duration":"Freehold","paon":"3","saon":"","street":"ASTON LANE","locality":"SHARDLOW","townOrCity":"DERBY","district":"SOUTH DERBYSHIRE","county":"DERBYSHIRE","ppdCategoryType":"Standard","recordStatus":"Addition","latitude":52.868737,"longitude":-1.357668,"postcodeStart":"DE72 2","postcode":["DE72","2GX"]}
{"price":175000,"dateOfTransfer":"1998-04-20T00:00:00","postcodeFull":"DE72 2BL","propertyType":"Detached","oldOrNew":"Established","duration":"Freehold","paon":"76","saon":"","street":"MAIN STREET","locality":"WESTON ON TRENT","townOrCity":"DERBY","district":"SOUTH DERBYSHIRE","county":"DERBYSHIRE","ppdCategoryType":"Standard","recordStatus":"Addition","latitude":52.848464,"longitude":-1.402052,"postcodeStart":"DE72 2","postcode":["DE72","2BL"]}
{"price":153250,"dateOfTransfer":"1998-05-29T00:00:00","postcodeFull":"DE72 2DF","propertyType":"Detached","oldOrNew":"New build","duration":"Freehold","paon":"15","saon":"","street":"WILLOW PARK WAY","locality":"ASTON ON TRENT","townOrCity":"DERBY","district":"SOUTH DERBYSHIRE","county":"DERBYSHIRE","ppdCategoryType":"Standard","recordStatus":"Addition","latitude":52.857238,"longitude":-1.387897,"postcodeStart":"DE72 2","postcode":["DE72","2DF"]}
{"price":100000,"dateOfTransfer":"1998-08-28T00:00:00","postcodeFull":"DE72 2DD","propertyType":"Semi-detached","oldOrNew":"New build","duration":"Freehold","paon":"17","saon":"","street":"ASTON HALL DRIVE","locality":"ASTON ON TRENT","townOrCity":"DERBY","district":"SOUTH DERBYSHIRE","county":"DERBYSHIRE","ppdCategoryType":"Standard","recordStatus":"Addition","latitude":52.858976,"longitude":-1.385081,"postcodeStart":"DE72 2","postcode":["DE72","2DD"]}
{"price":101000,"dateOfTransfer":"1998-06-24T00:00:00","postcodeFull":"DE72 2WE","propertyType":"Semi-detached","oldOrNew":"Established","duration":"Freehold","paon":"22","saon":"","street":"MILL GREEN","locality":"SHARDLOW","townOrCity":"DERBY","district":"SOUTH DERBYSHIRE","county":"DERBYSHIRE","ppdCategoryType":"Standard","recordStatus":"Addition","latitude":52.869407,"longitude":-1.343664,"postcodeStart":"DE72 2","postcode":["DE72","2WE"]}
{"price":110000,"dateOfTransfer":"1998-10-30T00:00:00","postcodeFull":"DE72 2BL","propertyType":"Detached","oldOrNew":"Established","duration":"Freehold","paon":"20","saon":"","street":"MAIN STREET","locality":"WESTON ON TRENT","townOrCity":"DERBY","district":"SOUTH DERBYSHIRE","county":"DERBYSHIRE","ppdCategoryType":"Standard","recordStatus":"Addition","latitude":52.848464,"longitude":-1.402052,"postcodeStart":"DE72 2","postcode":["DE72","2BL"]}
{"price":89000,"dateOfTransfer":"1998-05-05T00:00:00","postcodeFull":"DE72 2BP","propertyType":"Semi-detached","oldOrNew":"Established","duration":"Freehold","paon":"2","saon":"","street":"THE AVENUE","locality":"WESTON ON TRENT","townOrCity":"DERBY","district":"SOUTH DERBYSHIRE","county":"DERBYSHIRE","ppdCategoryType":"Standard","recordStatus":"Addition","latitude":52.849396,"longitude":-1.399694,"postcodeStart":"DE72 2","postcode":["DE72","2BP"]}
{"price":75000,"dateOfTransfer":"1998-06-05T00:00:00","postcodeFull":"DE72 2BY","propertyType":"Semi-detached","oldOrNew":"Established","duration":"Freehold","paon":"16","saon":"","street":"ASH CLOSE","locality":"ASTON ON TRENT","townOrCity":"DERBY","district":"SOUTH DERBYSHIRE","county":"DERBYSHIRE","ppdCategoryType":"Standard","recordStatus":"Addition","latitude":52.861207,"longitude":-1.383742,"postcodeStart":"DE72 2","postcode":["DE72","2BY"]}
{"price":30000,"dateOfTransfer":"1998-07-10T00:00:00","postcodeFull":"DE72 2HJ","propertyType":"Detached","oldOrNew":"Established","duration":"Freehold","paon":"14","saon":"","street":"CAVENDISH COURT","locality":"SHARDLOW","townOrCity":"DERBY","district":"SOUTH DERBYSHIRE","county":"DERBYSHIRE","ppdCategoryType":"Standard","recordStatus":"Addition","latitude":52.867738,"longitude":-1.341044,"postcodeStart":"DE72 2","postcode":["DE72","2HJ"]}
{"price":54500,"dateOfTransfer":"1998-06-19T00:00:00","postcodeFull":"DE72 2BU","propertyType":"Terraced","oldOrNew":"Established","duration":"Freehold","paon":"CHELLASTON COTTAGES","saon":"2","street":"SWARKESTONE ROAD","locality":"WESTON ON TRENT","townOrCity":"DERBY","district":"SOUTH DERBYSHIRE","county":"DERBYSHIRE","ppdCategoryType":"Standard","recordStatus":"Addition","latitude":52.844251,"longitude":-1.417115,"postcodeStart":"DE72 2","postcode":["DE72","2BU"]}
{"price":84500,"dateOfTransfer":"1998-11-19T00:00:00","postcodeFull":"DE72 2DN","propertyType":"Detached","oldOrNew":"New build","duration":"Freehold","paon":"17","saon":"","street":"CEDAR CROFT","locality":"ASTON ON TRENT","townOrCity":"DERBY","district":"SOUTH DERBYSHIRE","county":"DERBYSHIRE","ppdCategoryType":"Standard","recordStatus":"Addition","latitude":52.858401,"longitude":-1.390465,"postcodeStart":"DE72 2","postcode":["DE72","2DN"]}
{"price":158500,"dateOfTransfer":"1998-11-20T00:00:00","postcodeFull":"DE72 2DF","propertyType":"Detached","oldOrNew":"New build","duration":"Freehold","paon":"21","saon":"","street":"WILLOW PARK WAY","locality":"ASTON ON TRENT","townOrCity":"DERBY","district":"SOUTH DERBYSHIRE","county":"DERBYSHIRE","ppdCategoryType":"Standard","recordStatus":"Addition","latitude":52.857238,"longitude":-1.387897,"postcodeStart":"DE72 2","postcode":["DE72","2DF"]}
{"price":159000,"dateOfTransfer":"1998-05-22T00:00:00","postcodeFull":"DE72 2DF","propertyType":"Detached","oldOrNew":"New build","duration":"Freehold","paon":"7","saon":"","street":"WILLOW PARK WAY","locality":"ASTON ON TRENT","townOrCity":"DERBY","district":"SOUTH DERBYSHIRE","county":"DERBYSHIRE","ppdCategoryType":"Standard","recordStatus":"Addition","latitude":52.857238,"longitude":-1.387897,"postcodeStart":"DE72 2","postcode":["DE72","2DF"]}
{"price":157500,"dateOfTransfer":"1998-04-07T00:00:00","postcodeFull":"DE72 2DD","propertyType":"Semi-detached","oldOrNew":"New build","duration":"Freehold","paon":"9","saon":"","street":"ASTON HALL DRIVE","locality":"ASTON ON TRENT","townOrCity":"DERBY","district":"SOUTH DERBYSHIRE","county":"DERBYSHIRE","ppdCategoryType":"Standard","recordStatus":"Addition","latitude":52.858976,"longitude":-1.385081,"postcodeStart":"DE72 2","postcode":["DE72","2DD"]}
{"price":126950,"dateOfTransfer":"1998-01-30T00:00:00","postcodeFull":"DE72 2DF","propertyType":"Detached","oldOrNew":"New build","duration":"Freehold","paon":"8","saon":"","street":"WILLOW PARK WAY","locality":"ASTON ON TRENT","townOrCity":"DERBY","district":"SOUTH DERBYSHIRE","county":"DERBYSHIRE","ppdCategoryType":"Standard","recordStatus":"Addition","latitude":52.857238,"longitude":-1.387897,"postcodeStart":"DE72 2","postcode":["DE72","2DF"]}
{"price":117500,"dateOfTransfer":"1998-11-26T00:00:00","postcodeFull":"DE72 2HG","propertyType":"Detached","oldOrNew":"New build","duration":"Freehold","paon":"IVY MILL","saon":"","street":"THE WHARF","locality":"SHARDLOW","townOrCity":"DERBY","district":"SOUTH DERBYSHIRE","county":"DERBYSHIRE","ppdCategoryType":"Standard","recordStatus":"Addition","latitude":52.870473,"longitude":-1.341186,"postcodeStart":"DE72 2","postcode":["DE72","2HG"]}
{"price":111250,"dateOfTransfer":"1998-02-27T00:00:00","postcodeFull":"DE72 2DF","propertyType":"Detached","oldOrNew":"New build","duration":"Freehold","paon":"3","saon":"","street":"WILLOW PARK WAY","locality":"ASTON ON TRENT","townOrCity":"DERBY","district":"SOUTH DERBYSHIRE","county":"DERBYSHIRE","ppdCategoryType":"Standard","recordStatus":"Addition","latitude":52.857238,"longitude":-1.387897,"postcodeStart":"DE72 2","postcode":["DE72","2DF"]}
{"price":80000,"dateOfTransfer":"1998-12-18T00:00:00","postcodeFull":"DE72 2AB","propertyType":"Terraced","oldOrNew":"Established","duration":"Freehold","paon":"11","saon":"","street":"CLARKES LANE","locality":"ASTON ON TRENT","townOrCity":"DERBY","district":"SOUTH DERBYSHIRE","county":"DERBYSHIRE","ppdCategoryType":"Standard","recordStatus":"Addition","latitude":52.862488,"longitude":-1.382862,"postcodeStart":"DE72 2","postcode":["DE72","2AB"]}
{"price":37000,"dateOfTransfer":"1998-09-25T00:00:00","postcodeFull":"DE72 2AW","propertyType":"Semi-detached","oldOrNew":"Established","duration":"Freehold","paon":"32","saon":"","street":"HOLDEN AVENUE","locality":"ASTON ON TRENT","townOrCity":"DERBY","district":"SOUTH DERBYSHIRE","county":"DERBYSHIRE","ppdCategoryType":"Standard","recordStatus":"Addition","latitude":52.862498,"longitude":-1.389977,"postcodeStart":"DE72 2","postcode":["DE72","2AW"]}
{"price":66950,"dateOfTransfer":"1998-02-13T00:00:00","postcodeFull":"DE72 2AF","propertyType":"Terraced","oldOrNew":"Established","duration":"Freehold","paon":"82","saon":"","street":"DERBY ROAD","locality":"ASTON ON TRENT","townOrCity":"DERBY","district":"SOUTH DERBYSHIRE","county":"DERBYSHIRE","ppdCategoryType":"Standard","recordStatus":"Addition","latitude":52.865007,"longitude":-1.384797,"postcodeStart":"DE72 2","postcode":["DE72","2AF"]}
{"price":72000,"dateOfTransfer":"1998-02-06T00:00:00","postcodeFull":"DE72 2AG","propertyType":"Detached","oldOrNew":"Established","duration":"Freehold","paon":"7","saon":"","street":"MOOR LANE","locality":"ASTON ON TRENT","townOrCity":"DERBY","district":"EREWASH","county":"DERBYSHIRE","ppdCategoryType":"Standard","recordStatus":"Addition","latitude":52.863877,"longitude":-1.383674,"postcodeStart":"DE72 2","postcode":["DE72","2AG"]}
{"price":79000,"dateOfTransfer":"1998-09-15T00:00:00","postcodeFull":"DE72 2BA","propertyType":"Semi-detached","oldOrNew":"Established","duration":"Freehold","paon":"87","saon":"","street":"WESTON ROAD","locality":"ASTON ON TRENT","townOrCity":"DERBY","district":"SOUTH DERBYSHIRE","county":"DERBYSHIRE","ppdCategoryType":"Standard","recordStatus":"Addition","latitude":52.859623,"longitude":-1.390225,"postcodeStart":"DE72 2","postcode":["DE72","2BA"]}
{"price":54000,"dateOfTransfer":"1998-03-06T00:00:00","postcodeFull":"DE72 2HA","propertyType":"Semi-detached","oldOrNew":"Established","duration":"Freehold","paon":"2","saon":"","street":"WILNE LANE","locality":"SHARDLOW","townOrCity":"DERBY","district":"SOUTH DERBYSHIRE","county":"DERBYSHIRE","ppdCategoryType":"Standard","recordStatus":"Addition","latitude":52.869303,"longitude":-1.34114,"postcodeStart":"DE72 2","postcode":["DE72","2HA"]}
{"price":109950,"dateOfTransfer":"1998-01-30T00:00:00","postcodeFull":"DE72 2BQ","propertyType":"Detached","oldOrNew":"New build","duration":"Freehold","paon":"28","saon":"","street":"KINGS MILL LANE","locality":"WESTON ON TRENT","townOrCity":"DERBY","district":"SOUTH DERBYSHIRE","county":"DERBYSHIRE","ppdCategoryType":"Standard","recordStatus":"Addition","latitude":52.848056,"longitude":-1.399638,"postcodeStart":"DE72 2","postcode":["DE72","2BQ"]}
{"price":115000,"dateOfTransfer":"1998-02-27T00:00:00","postcodeFull":"DE72 2BQ","propertyType":"Detached","oldOrNew":"New build","duration":"Freehold","paon":"34","saon":"","street":"KINGS MILL LANE","locality":"WESTON ON TRENT","townOrCity":"DERBY","district":"SOUTH DERBYSHIRE","county":"DERBYSHIRE","ppdCategoryType":"Standard","recordStatus":"Addition","latitude":52.848056,"longitude":-1.399638,"postcodeStart":"DE72 2","postcode":["DE72","2BQ"]}
{"price":46000,"dateOfTransfer":"1998-08-14T00:00:00","postcodeFull":"DE72 2AS","propertyType":"Semi-detached","oldOrNew":"Established","duration":"Freehold","paon":"38","saon":"","street":"WESTON ROAD","locality":"ASTON ON TRENT","townOrCity":"DERBY","district":"SOUTH DERBYSHIRE","county":"DERBYSHIRE","ppdCategoryType":"Standard","recordStatus":"Addition","latitude":52.861304,"longitude":-1.38683,"postcodeStart":"DE72 2","postcode":["DE72","2AS"]}
{"price":66000,"dateOfTransfer":"1998-10-30T00:00:00","postcodeFull":"DE72 2GR","propertyType":"Detached","oldOrNew":"Established","duration":"Freehold","paon":"84","saon":"","street":"LONDON ROAD","locality":"SHARDLOW","townOrCity":"DERBY","district":"SOUTH DERBYSHIRE","county":"DERBYSHIRE","ppdCategoryType":"Standard","recordStatus":"Addition","latitude":52.871235,"longitude":-1.360522,"postcodeStart":"DE72 2","postcode":["DE72","2GR"]}
{"price":205000,"dateOfTransfer":"1998-12-03T00:00:00","postcodeFull":"DE72 2HF","propertyType":"Detached","oldOrNew":"Established","duration":"Freehold","paon":"WILNE FARM","saon":"THE ORCHARD","street":"GREAT WILNE","locality":"SHARDLOW","townOrCity":"DERBY","district":"SOUTH DERBYSHIRE","county":"DERBYSHIRE","ppdCategoryType":"Standard","recordStatus":"Addition","latitude":52.873719,"longitude":-1.3351,"postcodeStart":"DE72 2","postcode":["DE72","2HF"]}
{"price":84000,"dateOfTransfer":"1998-09-02T00:00:00","postcodeFull":"DE72 2BJ","propertyType":"Terraced","oldOrNew":"Established","duration":"Freehold","paon":"2","saon":"","street":"THE GREEN","locality":"WESTON ON TRENT","townOrCity":"DERBY","district":"SOUTH DERBYSHIRE","county":"DERBYSHIRE","ppdCategoryType":"Standard","recordStatus":"Addition","latitude":52.850885,"longitude":-1.400811,"postcodeStart":"DE72 2","postcode":["DE72","2BJ"]}
{"price":135000,"dateOfTransfer":"1998-10-22T00:00:00","postcodeFull":"DE72 2BU","propertyType":"Detached","oldOrNew":"New build","duration":"Freehold","paon":"GRINDLE BARN","saon":"","street":"BRIDGE LANE","locality":"WESTON ON TRENT","townOrCity":"DERBY","district":"SOUTH DERBYSHIRE","county":"DERBYSHIRE","ppdCategoryType":"Standard","recordStatus":"Addition","latitude":52.844251,"longitude":-1.417115,"postcodeStart":"DE72 2","postcode":["DE72","2BU"]}
{"price":155000,"dateOfTransfer":"1998-05-22T00:00:00","postcodeFull":"DE72 2DF","propertyType":"Detached","oldOrNew":"New build","duration":"Freehold","paon":"1","saon":"","street":"WILLOW PARK WAY","locality":"ASTON ON TRENT","townOrCity":"DERBY","district":"SOUTH DERBYSHIRE","county":"DERBYSHIRE","ppdCategoryType":"Standard","recordStatus":"Addition","latitude":52.857238,"longitude":-1.387897,"postcodeStart":"DE72 2","postcode":["DE72","2DF"]}
{"price":52000,"dateOfTransfer":"1998-05-29T00:00:00","postcodeFull":"DE72 2HE","propertyType":"Terraced","oldOrNew":"Established","duration":"Freehold","paon":"7","saon":"","street":"LONG ROW","locality":"SHARDLOW","townOrCity":"DERBY","district":"SOUTH DERBYSHIRE","county":"DERBYSHIRE","ppdCategoryType":"Standard","recordStatus":"Addition","latitude":52.871389,"longitude":-1.339622,"postcodeStart":"DE72 2","postcode":["DE72","2HE"]}
{"price":107950,"dateOfTransfer":"1998-03-31T00:00:00","postcodeFull":"DE72 2BQ","propertyType":"Semi-detached","oldOrNew":"New build","duration":"Freehold","paon":"18","saon":"","street":"KINGS MILL LANE","locality":"WESTON ON TRENT","townOrCity":"DERBY","district":"SOUTH DERBYSHIRE","county":"DERBYSHIRE","ppdCategoryType":"Standard","recordStatus":"Addition","latitude":52.848056,"longitude":-1.399638,"postcodeStart":"DE72 2","postcode":["DE72","2BQ"]}
{"price":53500,"dateOfTransfer":"1998-04-17T00:00:00","postcodeFull":"DE72 2GZ","propertyType":"Semi-detached","oldOrNew":"Established","duration":"Freehold","paon":"22","saon":"","street":"GLENN WAY","locality":"SHARDLOW","townOrCity":"DERBY","district":"SOUTH DERBYSHIRE","county":"DERBYSHIRE","ppdCategoryType":"Standard","recordStatus":"Addition","latitude":52.870125,"longitude":-1.361525,"postcodeStart":"DE72 2","postcode":["DE72","2GZ"]}
