{"price":36500,"dateOfTransfer":"1995-05-12T00:00:00","postcodeFull":"DY10 3TB","propertyType":"Semi-detached","oldOrNew":"Established","duration":"Freehold","paon":"126","saon":"","street":"CASTLE ROAD","locality":"COOKLEY","townOrCity":"KIDDERMINSTER","district":"WYRE FOREST","county":"WORCESTERSHIRE","ppdCategoryType":"Standard","recordStatus":"Addition","latitude":52.418684,"longitude":-2.231451,"postcodeStart":"DY10 3","postcode":["DY10","3TB"]}
{"price":175000,"dateOfTransfer":"1995-12-21T00:00:00","postcodeFull":"DY10 3QA","propertyType":"Detached","oldOrNew":"Established","duration":"Freehold","paon":"FOURWINDS","saon":"","street":"WOLVERLEY ROAD","locality":"WOLVERLEY","townOrCity":"KIDDERMINSTER","district":"WYRE FOREST","county":"WORCESTERSHIRE","ppdCategoryType":"Standard","recordStatus":"Addition","latitude":52.406947,"longitude":-2.2338,"postcodeStart":"DY10 3","postcode":["DY10","3QA"]}
{"price":56750,"dateOfTransfer":"1995-03-31T00:00:00","postcodeFull":"DY10 3JZ","propertyType":"Semi-detached","oldOrNew":"New build","duration":"Freehold","paon":"57","saon":"","street":"LYNWOOD DRIVE","locality":"BLAKEDOWN","townOrCity":"KIDDERMINSTER","district":"WYRE FOREST","county":"WORCESTERSHIRE","ppdCategoryType":"Standard","recordStatus":"Addition","latitude":52.405004,"longitude":-2.177786,"postcodeStart":"DY10 3","postcode":["DY10","3JZ"]}
{"price":59750,"dateOfTransfer":"1995-01-04T00:00:00","postcodeFull":"DY10 3JZ","propertyType":"Detached","oldOrNew":"New build","duration":"Freehold","paon":"51","saon":"","street":"LYNWOOD DRIVE","locality":"BLAKEDOWN","townOrCity":"KIDDERMINSTER","district":"WYRE FOREST","county":"WORCESTERSHIRE","ppdCategoryType":"Standard","recordStatus":"Addition","latitude":52.405004,"longitude":-2.177786,"postcodeStart":"DY10 3","postcode":["DY10","3JZ"]}
{"price":63000,"dateOfTransfer":"1995-05-12T00:00:00","postcodeFull":"DY10 3TG","propertyType":"Terraced","oldOrNew":"Established","duration":"Freehold","paon":"6","saon":"","street":"WESTHEAD ROAD","locality":"COOKLEY","townOrCity":"KIDDERMINSTER","district":"WYRE FOREST","county":"WORCESTERSHIRE","ppdCategoryType":"Standard","recordStatus":"Addition","latitude":52.415519,"longitude":-2.23161,"postcodeStart":"DY10 3","postcode":["DY10","3TG"]}
{"price":32000,"dateOfTransfer":"1995-04-28T00:00:00","postcodeFull":"DY10 3EE","propertyType":"Semi-detached","oldOrNew":"Established","duration":"Freehold","paon":"8","saon":"","street":"DUNCLENT CRESCENT","locality":"KIDDERMINSTER","townOrCity":"KIDDERMINSTER","district":"WYRE FOREST","county":"WORCESTERSHIRE","ppdCategoryType":"Standard","recordStatus":"Addition","latitude":52.381928,"longitude":-2.223545,"postcodeStart":"DY10 3","postcode":["DY10","3EE"]}
{"price":120000,"dateOfTransfer":"1995-02-17T00:00:00","postcodeFull":"DY10 3RP","propertyType":"Detached","oldOrNew":"Established","duration":"Freehold","paon":"THE MOUNT","saon":"","street":"WOLVERLEY ROAD","locality":"WOLVERLEY","townOrCity":"KIDDERMINSTER","district":"WYRE FOREST","county":"WORCESTERSHIRE","ppdCategoryType":"Standard","recordStatus":"Addition","latitude":52.407878,"longitude":-2.249078,"postcodeStart":"DY10 3","postcode":["DY10","3RP"]}
{"price":217000,"dateOfTransfer":"1995-09-04T00:00:00","postcodeFull":"DY10 3LY","propertyType":"Detached","oldOrNew":"Established","duration":"Freehold","paon":"ATTLEE HOUSE","saon":"","street":"","locality":"CHURCHILL","townOrCity":"KIDDERMINSTER","district":"WYRE FOREST","county":"WORCESTERSHIRE","ppdCategoryType":"Standard","recordStatus":"Addition","latitude":52.412518,"longitude":-2.178801,"postcodeStart":"DY10 3","postcode":["DY10","3LY"]}
{"price":58750,"dateOfTransfer":"1995-09-15T00:00:00","postcodeFull":"DY10 3AG","propertyType":"Semi-detached","oldOrNew":"Established","duration":"Freehold","paon":"42","saon":"","street":"HOLMCROFT ROAD","locality":"KIDDERMINSTER","townOrCity":"KIDDERMINSTER","district":"WYRE FOREST","county":"WORCESTERSHIRE","ppdCategoryType":"Standard","recordStatus":"Addition","latitude":52.385612,"longitude":-2.230381,"postcodeStart":"DY10 3","postcode":["DY10","3AG"]}
{"price":84000,"dateOfTransfer":"1995-12-13T00:00:00","postcodeFull":"DY10 3AS","propertyType":"Semi-detached","oldOrNew":"Established","duration":"Freehold","paon":"14","saon":"","street":"SOMERLEYTON AVENUE","locality":"KIDDERMINSTER","townOrCity":"KIDDERMINSTER","district":"WYRE FOREST","county":"WORCESTERSHIRE","ppdCategoryType":"Standard","recordStatus":"Addition","latitude":52.384499,"longitude":-2.229317,"postcodeStart":"DY10 3","postcode":["DY10","3AS"]}
{"price":57600,"dateOfTransfer":"1995-06-16T00:00:00","postcodeFull":"DY10 3JS","propertyType":"Terraced","oldOrNew":"Established","duration":"Freehold","paon":"15","saon":"","street":"WHEATMILL CLOSE","locality":"BLAKEDOWN","townOrCity":"KIDDERMINSTER","district":"WYRE FOREST","county":"WORCESTERSHIRE","ppdCategoryType":"Standard","recordStatus":"Addition","latitude":52.406989,"longitude":-2.179102,"postcodeStart":"DY10 3","postcode":["DY10","3JS"]}
{"price":139000,"dateOfTransfer":"1995-02-10T00:00:00","postcodeFull":"DY10 3AA","propertyType":"Detached","oldOrNew":"Established","duration":"Freehold","paon":"9","saon":"","street":"LINDEN AVENUE","locality":"KIDDERMINSTER","townOrCity":"KIDDERMINSTER","district":"WYRE FOREST","county":"WORCESTERSHIRE","ppdCategoryType":"Standard","recordStatus":"Addition","latitude":52.39112,"longitude":-2.231468,"postcodeStart":"DY10 3","postcode":["DY10","3AA"]}
{"price":32500,"dateOfTransfer":"1995-10-06T00:00:00","postcodeFull":"DY10 3BB","propertyType":"Terraced","oldOrNew":"Established","duration":"Freehold","paon":"13","saon":"","street":"AMBLECOTE ROAD","locality":"KIDDERMINSTER","townOrCity":"KIDDERMINSTER","district":"WYRE FOREST","county":"WORCESTERSHIRE","ppdCategoryType":"Standard","recordStatus":"Addition","latitude":52.383978,"longitude":-2.224363,"postcodeStart":"DY10 3","postcode":["DY10","3BB"]}
{"price":60000,"dateOfTransfer":"1995-06-30T00:00:00","postcodeFull":"DY10 3SA","propertyType":"Detached","oldOrNew":"Established","duration":"Freehold","paon":"14","saon":"","street":"BRIDGE ROAD","locality":"COOKLEY","townOrCity":"KIDDERMINSTER","district":"WYRE FOREST","county":"WORCESTERSHIRE","ppdCategoryType":"Standard","recordStatus":"Addition","latitude":52.421207,"longitude":-2.232729,"postcodeStart":"DY10 3","postcode":["DY10","3SA"]}
{"price":97500,"dateOfTransfer":"1995-03-27T00:00:00","postcodeFull":"DY10 3JZ","propertyType":"Detached","oldOrNew":"Established","duration":"Freehold","paon":"5","saon":"","street":"LYNWOOD DRIVE","locality":"BLAKEDOWN","townOrCity":"KIDDERMINSTER","district":"WYRE FOREST","county":"WORCESTERSHIRE","ppdCategoryType":"Standard","recordStatus":"Addition","latitude":52.405004,"longitude":-2.177786,"postcodeStart":"DY10 3","postcode":["DY10","3JZ"]}
{"price":42750,"dateOfTransfer":"1995-01-20T00:00:00","postcodeFull":"DY10 3TY","propertyType":"Semi-detached","oldOrNew":"Established","duration":"Freehold","paon":"7","saon":"","street":"ELEANOR HARRISON DRIVE","locality":"COOKLEY","townOrCity":"KIDDERMINSTER","district":"WYRE FOREST","county":"WORCESTERSHIRE","ppdCategoryType":"Standard","recordStatus":"Addition","latitude":52.420047,"longitude":-2.226483,"postcodeStart":"DY10 3","postcode":["DY10","3TY"]}
{"price":49950,"dateOfTransfer":"1995-04-28T00:00:00","postcodeFull":"DY10 3ET","propertyType":"Semi-detached","oldOrNew":"Established","duration":"Freehold","paon":"16","saon":"","street":"BURNS CLOSE","locality":"KIDDERMINSTER","townOrCity":"KIDDERMINSTER","district":"WYRE FOREST","county":"WORCESTERSHIRE","ppdCategoryType":"Standard","recordStatus":"Addition","latitude":52.387278,"longitude":-2.224204,"postcodeStart":"DY10 3","postcode":["DY10","3ET"]}
{"price":58000,"dateOfTransfer":"1995-03-17T00:00:00","postcodeFull":"DY10 3EG","propertyType":"Semi-detached","oldOrNew":"Established","duration":"Freehold","paon":"18","saon":"","street":"COMBERTON AVENUE","locality":"KIDDERMINSTER","townOrCity":"KIDDERMINSTER","district":"WYRE FOREST","county":"WORCESTERSHIRE","ppdCategoryType":"Standard","recordStatus":"Addition","latitude":52.382841,"longitude":-2.226752,"postcodeStart":"DY10 3","postcode":["DY10","3EG"]}
{"price":55000,"dateOfTransfer":"1995-09-22T00:00:00","postcodeFull":"DY10 3UP","propertyType":"Semi-detached","oldOrNew":"Established","duration":"Freehold","paon":"52","saon":"","street":"AUSTCLIFFE ROAD","locality":"COOKLEY","townOrCity":"KIDDERMINSTER","district":"WYRE FOREST","county":"WORCESTERSHIRE","ppdCategoryType":"Standard","recordStatus":"Addition","latitude":52.421382,"longitude":-2.230053,"postcodeStart":"DY10 3","postcode":["DY10","3UP"]}
{"price":51000,"dateOfTransfer":"1995-04-28T00:00:00","postcodeFull":"DY10 3DY","propertyType":"Semi-detached","oldOrNew":"Established","duration":"Freehold","paon":"39","saon":"","street":"COMBERTON PARK ROAD","locality":"KIDDERMINSTER","townOrCity":"KIDDERMINSTER","district":"WYRE FOREST","county":"WORCESTERSHIRE","ppdCategoryType":"Standard","recordStatus":"Addition","latitude":52.379681,"longitude":-2.226614,"postcodeStart":"DY10 3","postcode":["DY10","3DY"]}
{"price":59500,"dateOfTransfer":"1995-11-01T00:00:00","postcodeFull":"DY10 3JZ","propertyType":"Semi-detached","oldOrNew":"Established","duration":"Freehold","paon":"37","saon":"","street":"LYNWOOD DRIVE","locality":"BLAKEDOWN","townOrCity":"KIDDERMINSTER","district":"WYRE FOREST","county":"WORCESTERSHIRE","ppdCategoryType":"Standard","recordStatus":"Addition","latitude":52.405004,"longitude":-2.177786,"postcodeStart":"DY10 3","postcode":["DY10","3JZ"]}
{"price":59500,"dateOfTransfer":"1995-06-02T00:00:00","postcodeFull":"DY10 3RT","propertyType":"Flat/Maisonette/Townhouse","oldOrNew":"Established","duration":"Leasehold","paon":"WESTLEY COURT","saon":"38","street":"AUSTCLIFFE LANE","locality":"COOKLEY","townOrCity":"KIDDERMINSTER","district":"WYRE FOREST","county":"WORCESTERSHIRE","ppdCategoryType":"Standard","recordStatus":"Addition","latitude":52.422197,"longitude":-2.218455,"postcodeStart":"DY10 3","postcode":["DY10","3RT"]}
{"price":76300,"dateOfTransfer":"1995-10-13T00:00:00","postcodeFull":"DY10 3UN","propertyType":"Detached","oldOrNew":"Established","duration":"Freehold","paon":"3","saon":"","street":"SHRUBBERY HILL","locality":"COOKLEY","townOrCity":"KIDDERMINSTER","district":"WYRE FOREST","county":"WORCESTERSHIRE","ppdCategoryType":"Standard","recordStatus":"Addition","latitude":52.41909,"longitude":-2.230997,"postcodeStart":"DY10 3","postcode":["DY10","3UN"]}
{"price":210000,"dateOfTransfer":"1995-03-20T00:00:00","postcodeFull":"DY10 3LT","propertyType":"Detached","oldOrNew":"Established","duration":"Freehold","paon":"DAMAS","saon":"","street":"STAKENBRIDGE LANE","locality":"CHURCHILL","townOrCity":"KIDDERMINSTER","district":"WYRE FOREST","county":"WORCESTERSHIRE","ppdCategoryType":"Standard","recordStatus":"Addition","latitude":52.414446,"longitude":-2.169943,"postcodeStart":"DY10 3","postcode":["DY10","3LT"]}
{"price":59950,"dateOfTransfer":"1995-11-10T00:00:00","postcodeFull":"DY10 3JL","propertyType":"Semi-detached","oldOrNew":"Established","duration":"Freehold","paon":"16","saon":"","street":"SCULTHORPE ROAD","locality":"BLAKEDOWN","townOrCity":"KIDDERMINSTER","district":"WYRE FOREST","county":"WORCESTERSHIRE","ppdCategoryType":"Standard","recordStatus":"Addition","latitude":52.407072,"longitude":-2.1775,"postcodeStart":"DY10 3","postcode":["DY10","3JL"]}
{"price":54500,"dateOfTransfer":"1995-10-30T00:00:00","postcodeFull":"DY10 3XF","propertyType":"Flat/Maisonette/Townhouse","oldOrNew":"Established","duration":"Leasehold","paon":"34","saon":"","street":"CHAUCER CRESCENT","locality":"KIDDERMINSTER","townOrCity":"KIDDERMINSTER","district":"WYRE FOREST","county":"WORCESTERSHIRE","ppdCategoryType":"Standard","recordStatus":"Addition","latitude":52.386155,"longitude":-2.218615,"postcodeStart":"DY10 3","postcode":["DY10","3XF"]}
{"price":44500,"dateOfTransfer":"1995-09-29T00:00:00","postcodeFull":"DY10 3DX","propertyType":"Semi-detached","oldOrNew":"Established","duration":"Freehold","paon":"129","saon":"","street":"COMBERTON ROAD","locality":"KIDDERMINSTER","townOrCity":"KIDDERMINSTER","district":"WYRE FOREST","county":"WORCESTERSHIRE","ppdCategoryType":"Standard","recordStatus":"Addition","latitude":52.379549,"longitude":-2.227206,"postcodeStart":"DY10 3","postcode":["DY10","3DX"]}
{"price":46500,"dateOfTransfer":"1995-05-12T00:00:00","postcodeFull":"DY10 3TD","propertyType":"Semi-detached","oldOrNew":"Established","duration":"Freehold","paon":"115","saon":"","street":"CASTLE ROAD","locality":"COOKLEY","townOrCity":"KIDDERMINSTER","district":"WYRE FOREST","county":"WORCESTERSHIRE","ppdCategoryType":"Standard","recordStatus":"Addition","latitude":52.418072,"longitude":-2.231683,"postcodeStart":"DY10 3","postcode":["DY10","3TD"]}
{"price":38500,"dateOfTransfer":"1995-11-30T00:00:00","postcodeFull":"DY10 3XN","propertyType":"Terraced","oldOrNew":"Established","duration":"Freehold","paon":"19","saon":"","street":"LONGFELLOW GREEN","locality":"KIDDERMINSTER","townOrCity":"KIDDERMINSTER","district":"WYRE FOREST","county":"WORCESTERSHIRE","ppdCategoryType":"Standard","recordStatus":"Addition","latitude":52.387652,"longitude":-2.221194,"postcodeStart":"DY10 3","postcode":["DY10","3XN"]}
{"price":56750,"dateOfTransfer":"1995-03-17T00:00:00","postcodeFull":"DY10 3JZ","propertyType":"Semi-detached","oldOrNew":"New build","duration":"Freehold","paon":"47","saon":"","street":"LYNWOOD DRIVE","locality":"BLAKEDOWN","townOrCity":"KIDDERMINSTER","district":"WYRE FOREST","county":"WORCESTERSHIRE","ppdCategoryType":"Standard","recordStatus":"Addition","latitude":52.405004,"longitude":-2.177786,"postcodeStart":"DY10 3","postcode":["DY10","3JZ"]}
{"price":59750,"dateOfTransfer":"1995-02-17T00:00:00","postcodeFull":"DY10 3JZ","propertyType":"Semi-detached","oldOrNew":"New build","duration":"Freehold","paon":"45","saon":"","street":"LYNWOOD DRIVE","locality":"BLAKEDOWN","townOrCity":"KIDDERMINSTER","district":"WYRE FOREST","county":"WORCESTERSHIRE","ppdCategoryType":"Standard","recordStatus":"Addition","latitude":52.405004,"longitude":-2.177786,"postcodeStart":"DY10 3","postcode":["DY10","3JZ"]}
{"price":50000,"dateOfTransfer":"1995-03-31T00:00:00","postcodeFull":"DY10 3AE","propertyType":"Semi-detached","oldOrNew":"Established","duration":"Leasehold","paon":"15","saon":"","street":"MERTON CLOSE","locality":"KIDDERMINSTER","townOrCity":"KIDDERMINSTER","district":"WYRE FOREST","county":"WORCESTERSHIRE","ppdCategoryType":"Standard","recordStatus":"Addition","latitude":52.391587,"longitude":-2.227091,"postcodeStart":"DY10 3","postcode":["DY10","3AE"]}
{"price":54000,"dateOfTransfer":"1995-12-15T00:00:00","postcodeFull":"DY10 3AW","propertyType":"Semi-detached","oldOrNew":"Established","duration":"Freehold","paon":"1","saon":"","street":"EASTWOOD DRIVE","locality":"KIDDERMINSTER","townOrCity":"KIDDERMINSTER","district":"WYRE FOREST","county":"WORCESTERSHIRE","ppdCategoryType":"Standard","recordStatus":"Addition","latitude":52.382254,"longitude":-2.22791,"postcodeStart":"DY10 3","postcode":["DY10","3AW"]}
{"price":60000,"dateOfTransfer":"1995-12-14T00:00:00","postcodeFull":"DY10 3HN","propertyType":"Flat/Maisonette/Townhouse","oldOrNew":"Established","duration":"Leasehold","paon":"FAIRWAYS COURT","saon":"FLAT 16","street":"OLDNALL ROAD","locality":"KIDDERMINSTER","townOrCity":"KIDDERMINSTER","district":"WYRE FOREST","county":"WORCESTERSHIRE","ppdCategoryType":"Standard","recordStatus":"Addition","latitude":52.380182,"longitude":-2.234863,"postcodeStart":"DY10 3","postcode":["DY10","3HN"]}
{"price":36000,"dateOfTransfer":"1995-09-29T00:00:00","postcodeFull":"DY10 3EY","propertyType":"Semi-detached","oldOrNew":"Established","duration":"Freehold","paon":"51","saon":"","street":"WORDSWORTH CRESCENT","locality":"KIDDERMINSTER","townOrCity":"KIDDERMINSTER","district":"WYRE FOREST","county":"WORCESTERSHIRE","ppdCategoryType":"Standard","recordStatus":"Addition","latitude":52.38785,"longitude":-2.225838,"postcodeStart":"DY10 3","postcode":["DY10","3EY"]}
{"price":53000,"dateOfTransfer":"1995-06-27T00:00:00","postcodeFull":"DY10 3XB","propertyType":"Semi-detached","oldOrNew":"Established","duration":"Freehold","paon":"8","saon":"","street":"ASHDENE CLOSE","locality":"KIDDERMINSTER","townOrCity":"KIDDERMINSTER","district":"WYRE FOREST","county":"WORCESTERSHIRE","ppdCategoryType":"Standard","recordStatus":"Addition","latitude":52.384328,"longitude":-2.219664,"postcodeStart":"DY10 3","postcode":["DY10","3XB"]}
{"price":97500,"dateOfTransfer":"1995-12-20T00:00:00","postcodeFull":"DY10 3XJ","propertyType":"Semi-detached","oldOrNew":"New build","duration":"Freehold","paon":"OFFMORE COURT","saon":"3","street":"OFFMORE FARM CLOSE","locality":"KIDDERMINSTER","townOrCity":"KIDDERMINSTER","district":"WYRE FOREST","county":"WORCESTERSHIRE","ppdCategoryType":"Standard","recordStatus":"Addition","latitude":52.387389,"longitude":-2.217622,"postcodeStart":"DY10 3","postcode":["DY10","3XJ"]}
{"price":255000,"dateOfTransfer":"1995-08-04T00:00:00","postcodeFull":"DY10 3LP","propertyType":"Detached","oldOrNew":"Established","duration":"Freehold","paon":"WHITE HOUSE","saon":"","street":"BROOME LANE","locality":"BLAKEDOWN","townOrCity":"KIDDERMINSTER","district":"BROMSGROVE","county":"WORCESTERSHIRE","ppdCategoryType":"Standard","recordStatus":"Addition","latitude":52.409745,"longitude":-2.156357,"postcodeStart":"DY10 3","postcode":["DY10","3LP"]}
{"price":56750,"dateOfTransfer":"1995-04-13T00:00:00","postcodeFull":"DY10 3JZ","propertyType":"Semi-detached","oldOrNew":"New build","duration":"Freehold","paon":"49","saon":"","street":"LYNWOOD DRIVE","locality":"BLAKEDOWN","townOrCity":"KIDDERMINSTER","district":"WYRE FOREST","county":"WORCESTERSHIRE","ppdCategoryType":"Standard","recordStatus":"Addition","latitude":52.405004,"longitude":-2.177786,"postcodeStart":"DY10 3","postcode":["DY10","3JZ"]}
{"price":35250,"dateOfTransfer":"1995-01-12T00:00:00","postcodeFull":"DY10 3AH","propertyType":"Flat/Maisonette/Townhouse","oldOrNew":"Established","duration":"Leasehold","paon":"BALMORAL COURT","saon":"1","street":"CHADDESLEY ROAD","locality":"KIDDERMINSTER","townOrCity":"KIDDERMINSTER","district":"WYRE FOREST","county":"WORCESTERSHIRE","ppdCategoryType":"Standard","recordStatus":"Addition","latitude":52.386199,"longitude":-2.233293,"postcodeStart":"DY10 3","postcode":["DY10","3AH"]}
{"price":48500,"dateOfTransfer":"1995-07-17T00:00:00","postcodeFull":"DY10 3AE","propertyType":"Semi-detached","oldOrNew":"Established","duration":"Leasehold","paon":"27","saon":"","street":"MERTON CLOSE","locality":"KIDDERMINSTER","townOrCity":"KIDDERMINSTER","district":"WYRE FOREST","county":"WORCESTERSHIRE","ppdCategoryType":"Standard","recordStatus":"Addition","latitude":52.391587,"longitude":-2.227091,"postcodeStart":"DY10 3","postcode":["DY10","3AE"]}
{"price":65000,"dateOfTransfer":"1995-07-17T00:00:00","postcodeFull":"DY10 3JF","propertyType":"Detached","oldOrNew":"Established","duration":"Freehold","paon":"15","saon":"","street":"FORGE LANE","locality":"BLAKEDOWN","townOrCity":"KIDDERMINSTER","district":"WYRE FOREST","county":"WORCESTERSHIRE","ppdCategoryType":"Standard","recordStatus":"Addition","latitude":52.402585,"longitude":-2.178599,"postcodeStart":"DY10 3","postcode":["DY10","3JF"]}
{"price":131000,"dateOfTransfer":"1995-05-05T00:00:00","postcodeFull":"DY10 3JG","propertyType":"Detached","oldOrNew":"Established","duration":"Freehold","paon":"36","saon":"","street":"BELBROUGHTON ROAD","locality":"BLAKEDOWN","townOrCity":"KIDDERMINSTER","district":"WYRE FOREST","county":"WORCESTERSHIRE","ppdCategoryType":"Standard","recordStatus":"Addition","latitude":52.403192,"longitude":-2.175588,"postcodeStart":"DY10 3","postcode":["DY10","3JG"]}
{"price":145000,"dateOfTransfer":"1995-09-22T00:00:00","postcodeFull":"DY10 3AP","propertyType":"Detached","oldOrNew":"Established","duration":"Freehold","paon":"28","saon":"","street":"HILLGROVE CRESCENT","locality":"KIDDERMINSTER","townOrCity":"KIDDERMINSTER","district":"WYRE FOREST","county":"WORCESTERSHIRE","ppdCategoryType":"Standard","recordStatus":"Addition","latitude":52.382037,"longitude":-2.2355,"postcodeStart":"DY10 3","postcode":["DY10","3AP"]}
{"price":160000,"dateOfTransfer":"1995-08-10T00:00:00","postcodeFull":"DY10 3NG","propertyType":"Detached","oldOrNew":"Established","duration":"Freehold","paon":"18","saon":"","street":"WANNERTON ROAD","locality":"BLAKEDOWN","townOrCity":"KIDDERMINSTER","district":"WYRE FOREST","county":"WORCESTERSHIRE","ppdCategoryType":"Standard","recordStatus":"Addition","latitude":52.40401,"longitude":-2.181589,"postcodeStart":"DY10 3","postcode":["DY10","3NG"]}
{"price":43000,"dateOfTransfer":"1995-06-30T00:00:00","postcodeFull":"DY10 3UW","propertyType":"Semi-detached","oldOrNew":"Established","duration":"Freehold","paon":"9","saon":"","street":"SHRUBBERY HILL","locality":"COOKLEY","townOrCity":"KIDDERMINSTER","district":"WYRE FOREST","county":"WORCESTERSHIRE","ppdCategoryType":"Standard","recordStatus":"Addition","latitude":52.41953,"longitude":-2.231161,"postcodeStart":"DY10 3","postcode":["DY10","3UW"]}
{"price":62500,"dateOfTransfer":"1995-08-25T00:00:00","postcodeFull":"DY10 3QY","propertyType":"Terraced","oldOrNew":"Established","duration":"Freehold","paon":"67","saon":"","street":"SHAKESPEARE DRIVE","locality":"KIDDERMINSTER","townOrCity":"KIDDERMINSTER","district":"WYRE FOREST","county":"WORCESTERSHIRE","ppdCategoryType":"Standard","recordStatus":"Addition","latitude":52.390448,"longitude":-2.225983,"postcodeStart":"DY10 3","postcode":["DY10","3QY"]}
{"price":42500,"dateOfTransfer":"1995-06-23T00:00:00","postcodeFull":"DY10 3TY","propertyType":"Terraced","oldOrNew":"Established","duration":"Freehold","paon":"48","saon":"","street":"ELEANOR HARRISON DRIVE","locality":"COOKLEY","townOrCity":"KIDDERMINSTER","district":"WYRE FOREST","county":"WORCESTERSHIRE","ppdCategoryType":"Standard","recordStatus":"Addition","latitude":52.420047,"longitude":-2.226483,"postcodeStart":"DY10 3","postcode":["DY10","3TY"]}
{"price":75950,"dateOfTransfer":"1995-10-02T00:00:00","postcodeFull":"DY10 3RT","propertyType":"Flat/Maisonette/Townhouse","oldOrNew":"Established","duration":"Leasehold","paon":"WESTLEY COURT","saon":"78","street":"AUSTCLIFFE LANE","locality":"COOKLEY","townOrCity":"KIDDERMINSTER","district":"WYRE FOREST","county":"WORCESTERSHIRE","ppdCategoryType":"Standard","recordStatus":"Addition","latitude":52.422197,"longitude":-2.218455,"postcodeStart":"DY10 3","postcode":["DY10","3RT"]}
{"price":59750,"dateOfTransfer":"1995-02-03T00:00:00","postcodeFull":"DY10 3AW","propertyType":"Detached","oldOrNew":"Established","duration":"Freehold","paon":"22","saon":"","street":"EASTWOOD DRIVE","locality":"KIDDERMINSTER","townOrCity":"KIDDERMINSTER","district":"WYRE FOREST","county":"WORCESTERSHIRE","ppdCategoryType":"Standard","recordStatus":"Addition","latitude":52.382254,"longitude":-2.22791,"postcodeStart":"DY10 3","postcode":["DY10","3AW"]}
{"price":76000,"dateOfTransfer":"1995-12-08T00:00:00","postcodeFull":"DY10 3JG","propertyType":"Semi-detached","oldOrNew":"Established","duration":"Freehold","paon":"46","saon":"","street":"BELBROUGHTON ROAD","locality":"BLAKEDOWN","townOrCity":"KIDDERMINSTER","district":"WYRE FOREST","county":"WORCESTERSHIRE","ppdCategoryType":"Standard","recordStatus":"Addition","latitude":52.403192,"longitude":-2.175588,"postcodeStart":"DY10 3","postcode":["DY10","3JG"]}
{"price":50000,"dateOfTransfer":"1995-10-31T00:00:00","postcodeFull":"DY10 3HN","propertyType":"Flat/Maisonette/Townhouse","oldOrNew":"Established","duration":"Leasehold","paon":"LIME COURT","saon":"FLAT 11","street":"OLDNALL ROAD","locality":"KIDDERMINSTER","townOrCity":"KIDDERMINSTER","district":"WYRE FOREST","county":"WORCESTERSHIRE","ppdCategoryType":"Standard","recordStatus":"Addition","latitude":52.380182,"longitude":-2.234863,"postcodeStart":"DY10 3","postcode":["DY10","3HN"]}
{"price":112000,"dateOfTransfer":"1995-11-20T00:00:00","postcodeFull":"DY10 3JJ","propertyType":"Semi-detached","oldOrNew":"Established","duration":"Freehold","paon":"100","saon":"","street":"BELBROUGHTON ROAD","locality":"BLAKEDOWN","townOrCity":"KIDDERMINSTER","district":"WYRE FOREST","county":"WORCESTERSHIRE","ppdCategoryType":"Standard","recordStatus":"Addition","latitude":52.401513,"longitude":-2.167748,"postcodeStart":"DY10 3","postcode":["DY10","3JJ"]}
{"price":54500,"dateOfTransfer":"1995-10-20T00:00:00","postcodeFull":"DY10 3TN","propertyType":"Semi-detached","oldOrNew":"Established","duration":"Freehold","paon":"22","saon":"","street":"KIMBERLEE AVENUE","locality":"COOKLEY","townOrCity":"KIDDERMINSTER","district":"WYRE FOREST","county":"WORCESTERSHIRE","ppdCategoryType":"Standard","recordStatus":"Addition","latitude":52.416148,"longitude":-2.227144,"postcodeStart":"DY10 3","postcode":["DY10","3TN"]}
{"price":88000,"dateOfTransfer":"1995-09-29T00:00:00","postcodeFull":"DY10 3JJ","propertyType":"Detached","oldOrNew":"Established","duration":"Freehold","paon":"106","saon":"","street":"BELBROUGHTON ROAD","locality":"BLAKEDOWN","townOrCity":"KIDDERMINSTER","district":"WYRE FOREST","county":"WORCESTERSHIRE","ppdCategoryType":"Standard","recordStatus":"Addition","latitude":52.401513,"longitude":-2.167748,"postcodeStart":"DY10 3","postcode":["DY10","3JJ"]}
{"price":85000,"dateOfTransfer":"1995-09-29T00:00:00","postcodeFull":"DY10 3TG","propertyType":"Detached","oldOrNew":"Established","duration":"Freehold","paon":"29","saon":"","street":"WESTHEAD ROAD","locality":"COOKLEY","townOrCity":"KIDDERMINSTER","district":"WYRE FOREST","county":"WORCESTERSHIRE","ppdCategoryType":"Standard","recordStatus":"Addition","latitude":52.415519,"longitude":-2.23161,"postcodeStart":"DY10 3","postcode":["DY10","3TG"]}
{"price":75000,"dateOfTransfer":"1995-03-31T00:00:00","postcodeFull":"DY10 3DG","propertyType":"Detached","oldOrNew":"Established","duration":"Freehold","paon":"46","saon":"","street":"BARNETTS CLOSE","locality":"KIDDERMINSTER","townOrCity":"KIDDERMINSTER","district":"WYRE FOREST","county":"WORCESTERSHIRE","ppdCategoryType":"Standard","recordStatus":"Addition","latitude":52.378451,"longitude":-2.227905,"postcodeStart":"DY10 3","postcode":["DY10","3DG"]}
{"price":41500,"dateOfTransfer":"1995-05-12T00:00:00","postcodeFull":"DY10 3HN","propertyType":"Flat/Maisonette/Townhouse","oldOrNew":"Established","duration":"Leasehold","paon":"LIME COURT","saon":"FLAT 8","street":"OLDNALL ROAD","locality":"KIDDERMINSTER","townOrCity":"KIDDERMINSTER","district":"WYRE FOREST","county":"WORCESTERSHIRE","ppdCategoryType":"Standard","recordStatus":"Addition","latitude":52.380182,"longitude":-2.234863,"postcodeStart":"DY10 3","postcode":["DY10","3HN"]}
{"price":130000,"dateOfTransfer":"1995-07-28T00:00:00","postcodeFull":"DY10 3AS","propertyType":"Detached","oldOrNew":"Established","duration":"Freehold","paon":"5","saon":"","street":"SOMERLEYTON AVENUE","locality":"KIDDERMINSTER","townOrCity":"KIDDERMINSTER","district":"WYRE FOREST","county":"WORCESTERSHIRE","ppdCategoryType":"Standard","recordStatus":"Addition","latitude":52.384499,"longitude":-2.229317,"postcodeStart":"DY10 3","postcode":["DY10","3AS"]}
{"price":58000,"dateOfTransfer":"1995-05-05T00:00:00","postcodeFull":"DY10 3YX","propertyType":"Detached","oldOrNew":"Established","duration":"Freehold","paon":"3","saon":"","street":"SHAW AVENUE","locality":"KIDDERMINSTER","townOrCity":"KIDDERMINSTER","district":"WYRE FOREST","county":"WORCESTERSHIRE","ppdCategoryType":"Standard","recordStatus":"Addition","latitude":52.389778,"longitude":-2.223467,"postcodeStart":"DY10 3","postcode":["DY10","3YX"]}
{"price":88000,"dateOfTransfer":"1995-12-22T00:00:00","postcodeFull":"DY10 3XJ","propertyType":"Semi-detached","oldOrNew":"New build","duration":"Freehold","paon":"OFFMORE COURT","saon":"1","street":"OFFMORE FARM CLOSE","locality":"KIDDERMINSTER","townOrCity":"KIDDERMINSTER","district":"WYRE FOREST","county":"WORCESTERSHIRE","ppdCategoryType":"Standard","recordStatus":"Addition","latitude":52.387389,"longitude":-2.217622,"postcodeStart":"DY10 3","postcode":["DY10","3XJ"]}
{"price":39000,"dateOfTransfer":"1995-04-28T00:00:00","postcodeFull":"DY10 3TS","propertyType":"Terraced","oldOrNew":"Established","duration":"Freehold","paon":"28","saon":"","street":"ELM PLACE","locality":"COOKLEY","townOrCity":"KIDDERMINSTER","district":"WYRE FOREST","county":"WORCESTERSHIRE","ppdCategoryType":"Standard","recordStatus":"Addition","latitude":52.417252,"longitude":-2.228017,"postcodeStart":"DY10 3","postcode":["DY10","3TS"]}
{"price":91500,"dateOfTransfer":"1995-06-21T00:00:00","postcodeFull":"DY10 3PG","propertyType":"Terraced","oldOrNew":"Established","duration":"Freehold","paon":"DIXON COURT","saon":"6","street":"HURCOTT VILLAGE","locality":"KIDDERMINSTER","townOrCity":"KIDDERMINSTER","district":"WYRE FOREST","county":"WORCESTERSHIRE","ppdCategoryType":"Standard","recordStatus":"Addition","latitude":52.398127,"longitude":-2.220452,"postcodeStart":"DY10 3","postcode":["DY10","3PG"]}
{"price":58000,"dateOfTransfer":"1995-04-06T00:00:00","postcodeFull":"DY10 3JG","propertyType":"Semi-detached","oldOrNew":"Established","duration":"Freehold","paon":"57","saon":"","street":"BELBROUGHTON ROAD","locality":"BLAKEDOWN","townOrCity":"KIDDERMINSTER","district":"WYRE FOREST","county":"WORCESTERSHIRE","ppdCategoryType":"Standard","recordStatus":"Addition","latitude":52.403192,"longitude":-2.175588,"postcodeStart":"DY10 3","postcode":["DY10","3JG"]}
{"price":73000,"dateOfTransfer":"1995-12-01T00:00:00","postcodeFull":"DY10 3AB","propertyType":"Detached","oldOrNew":"Established","duration":"Freehold","paon":"26","saon":"","street":"LINDEN AVENUE","locality":"KIDDERMINSTER","townOrCity":"KIDDERMINSTER","district":"WYRE FOREST","county":"WORCESTERSHIRE","ppdCategoryType":"Standard","recordStatus":"Addition","latitude":52.391852,"longitude":-2.229885,"postcodeStart":"DY10 3","postcode":["DY10","3AB"]}
{"price":62000,"dateOfTransfer":"1995-08-31T00:00:00","postcodeFull":"DY10 3QW","propertyType":"Detached","oldOrNew":"Established","duration":"Freehold","paon":"11","saon":"","street":"SHAKESPEARE DRIVE","locality":"KIDDERMINSTER","townOrCity":"KIDDERMINSTER","district":"WYRE FOREST","county":"WORCESTERSHIRE","ppdCategoryType":"Standard","recordStatus":"Addition","latitude":52.390643,"longitude":-2.22187,"postcodeStart":"DY10 3","postcode":["DY10","3QW"]}
{"price":49000,"dateOfTransfer":"1995-12-08T00:00:00","postcodeFull":"DY10 3TB","propertyType":"Terraced","oldOrNew":"Established","duration":"Freehold","paon":"102","saon":"","street":"CASTLE ROAD","locality":"COOKLEY","townOrCity":"KIDDERMINSTER","district":"WYRE FOREST","county":"WORCESTERSHIRE","ppdCategoryType":"Standard","recordStatus":"Addition","latitude":52.418684,"longitude":-2.231451,"postcodeStart":"DY10 3","postcode":["DY10","3TB"]}
{"price":37950,"dateOfTransfer":"1995-11-07T00:00:00","postcodeFull":"DY10 3EY","propertyType":"Semi-detached","oldOrNew":"Established","duration":"Freehold","paon":"53","saon":"","street":"WORDSWORTH CRESCENT","locality":"KIDDERMINSTER","townOrCity":"KIDDERMINSTER","district":"WYRE FOREST","county":"WORCESTERSHIRE","ppdCategoryType":"Standard","recordStatus":"Addition","latitude":52.38785,"longitude":-2.225838,"postcodeStart":"DY10 3","postcode":["DY10","3EY"]}
{"price":35000,"dateOfTransfer":"1995-01-20T00:00:00","postcodeFull":"DY10 3TS","propertyType":"Terraced","oldOrNew":"Established","duration":"Freehold","paon":"36","saon":"","street":"ELM PLACE","locality":"COOKLEY","townOrCity":"KIDDERMINSTER","district":"WYRE FOREST","county":"WORCESTERSHIRE","ppdCategoryType":"Standard","recordStatus":"Addition","latitude":52.417252,"longitude":-2.228017,"postcodeStart":"DY10 3","postcode":["DY10","3TS"]}
{"price":83333,"dateOfTransfer":"1995-09-15T00:00:00","postcodeFull":"DY10 3JA","propertyType":"Detached","oldOrNew":"Established","duration":"Freehold","paon":"1","saon":"","street":"CHURCHILL LANE","locality":"KIDDERMINSTER","townOrCity":"KIDDERMINSTER","district":"WYRE FOREST","county":"WORCESTERSHIRE","ppdCategoryType":"Standard","recordStatus":"Addition","latitude":52.402693,"longitude":-2.184244,"postcodeStart":"DY10 3","postcode":["DY10","3JA"]}
{"price":56750,"dateOfTransfer":"1995-04-28T00:00:00","postcodeFull":"DY10 3JZ","propertyType":"Semi-detached","oldOrNew":"New build","duration":"Freehold","paon":"55","saon":"","street":"LYNWOOD DRIVE","locality":"BLAKEDOWN","townOrCity":"KIDDERMINSTER","district":"WYRE FOREST","county":"WORCESTERSHIRE","ppdCategoryType":"Standard","recordStatus":"Addition","latitude":52.405004,"longitude":-2.177786,"postcodeStart":"DY10 3","postcode":["DY10","3JZ"]}
{"price":30000,"dateOfTransfer":"1995-06-23T00:00:00","postcodeFull":"DY10 3UJ","propertyType":"Terraced","oldOrNew":"Established","duration":"Freehold","paon":"9","saon":"","street":"PORTWAY PLACE","locality":"COOKLEY","townOrCity":"KIDDERMINSTER","district":"WYRE FOREST","county":"WORCESTERSHIRE","ppdCategoryType":"Standard","recordStatus":"Addition","latitude":52.418434,"longitude":-2.23042,"postcodeStart":"DY10 3","postcode":["DY10","3UJ"]}
{"price":40000,"dateOfTransfer":"1995-05-17T00:00:00","postcodeFull":"DY10 3DH","propertyType":"Flat/Maisonette/Townhouse","oldOrNew":"Established","duration":"Leasehold","paon":"12","saon":"","street":"THE HAWTHORNS","locality":"KIDDERMINSTER","townOrCity":"KIDDERMINSTER","district":"WYRE FOREST","county":"WORCESTERSHIRE","ppdCategoryType":"Standard","recordStatus":"Addition","latitude":52.384471,"longitude":-2.234298,"postcodeStart":"DY10 3","postcode":["DY10","3DH"]}
{"price":59000,"dateOfTransfer":"1995-09-29T00:00:00","postcodeFull":"DY10 3QR","propertyType":"Terraced","oldOrNew":"Established","duration":"Freehold","paon":"48","saon":"","street":"SHERATON DRIVE","locality":"KIDDERMINSTER","townOrCity":"KIDDERMINSTER","district":"WYRE FOREST","county":"WORCESTERSHIRE","ppdCategoryType":"Standard","recordStatus":"Addition","latitude":52.38932,"longitude":-2.227227,"postcodeStart":"DY10 3","postcode":["DY10","3QR"]}
{"price":34500,"dateOfTransfer":"1995-02-03T00:00:00","postcodeFull":"DY10 3BA","propertyType":"Semi-detached","oldOrNew":"Established","duration":"Freehold","paon":"7","saon":"","street":"CORONATION WAY","locality":"KIDDERMINSTER","townOrCity":"KIDDERMINSTER","district":"WYRE FOREST","county":"WORCESTERSHIRE","ppdCategoryType":"Standard","recordStatus":"Addition","latitude":52.383671,"longitude":-2.224994,"postcodeStart":"DY10 3","postcode":["DY10","3BA"]}
{"price":85000,"dateOfTransfer":"1995-09-21T00:00:00","postcodeFull":"DY10 3PG","propertyType":"Terraced","oldOrNew":"Established","duration":"Freehold","paon":"LANCELOT HOUSE","saon":"3","street":"HURCOTT VILLAGE","locality":"KIDDERMINSTER","townOrCity":"KIDDERMINSTER","district":"WYRE FOREST","county":"WORCESTERSHIRE","ppdCategoryType":"Standard","recordStatus":"Addition","latitude":52.398127,"longitude":-2.220452,"postcodeStart":"DY10 3","postcode":["DY10","3PG"]}
{"price":98000,"dateOfTransfer":"1995-06-30T00:00:00","postcodeFull":"DY10 3AD","propertyType":"Detached","oldOrNew":"Established","duration":"Freehold","paon":"10","saon":"","street":"CHADDESLEY ROAD","locality":"KIDDERMINSTER","townOrCity":"KIDDERMINSTER","district":"WYRE FOREST","county":"WORCESTERSHIRE","ppdCategoryType":"Standard","recordStatus":"Addition","latitude":52.384825,"longitude":-2.232258,"postcodeStart":"DY10 3","postcode":["DY10","3AD"]}
{"price":47000,"dateOfTransfer":"1995-12-08T00:00:00","postcodeFull":"DY10 3QN","propertyType":"Semi-detached","oldOrNew":"Established","duration":"Freehold","paon":"19","saon":"","street":"BARRIE AVENUE","locality":"KIDDERMINSTER","townOrCity":"KIDDERMINSTER","district":"WYRE FOREST","county":"WORCESTERSHIRE","ppdCategoryType":"Standard","recordStatus":"Addition","latitude":52.390988,"longitude":-2.22077,"postcodeStart":"DY10 3","postcode":["DY10","3QN"]}
{"price":64500,"dateOfTransfer":"1995-01-20T00:00:00","postcodeFull":"DY10 3TB","propertyType":"Semi-detached","oldOrNew":"Established","duration":"Freehold","paon":"148","saon":"","street":"CASTLE ROAD","locality":"COOKLEY","townOrCity":"KIDDERMINSTER","district":"WYRE FOREST","county":"WORCESTERSHIRE","ppdCategoryType":"Standard","recordStatus":"Addition","latitude":52.418684,"longitude":-2.231451,"postcodeStart":"DY10 3","postcode":["DY10","3TB"]}
{"price":160000,"dateOfTransfer":"1995-02-17T00:00:00","postcodeFull":"DY10 3HR","propertyType":"Detached","oldOrNew":"Established","duration":"Freehold","paon":"8","saon":"","street":"BARNETTS LANE","locality":"KIDDERMINSTER","townOrCity":"KIDDERMINSTER","district":"WYRE FOREST","county":"WORCESTERSHIRE","ppdCategoryType":"Standard","recordStatus":"Addition","latitude":52.377225,"longitude":-2.239049,"postcodeStart":"DY10 3","postcode":["DY10","3HR"]}
{"price":63000,"dateOfTransfer":"1995-11-30T00:00:00","postcodeFull":"DY10 3RY","propertyType":"Semi-detached","oldOrNew":"Established","duration":"Freehold","paon":"2","saon":"","street":"THE CRESCENT","locality":"COOKLEY","townOrCity":"KIDDERMINSTER","district":"WYRE FOREST","county":"WORCESTERSHIRE","ppdCategoryType":"Standard","recordStatus":"Addition","latitude":52.414462,"longitude":-2.223279,"postcodeStart":"DY10 3","postcode":["DY10","3RY"]}
{"price":45000,"dateOfTransfer":"1995-02-24T00:00:00","postcodeFull":"DY10 3TB","propertyType":"Semi-detached","oldOrNew":"Established","duration":"Freehold","paon":"90","saon":"","street":"CASTLE ROAD","locality":"COOKLEY","townOrCity":"KIDDERMINSTER","district":"WYRE FOREST","county":"WORCESTERSHIRE","ppdCategoryType":"Standard","recordStatus":"Addition","latitude":52.418684,"longitude":-2.231451,"postcodeStart":"DY10 3","postcode":["DY10","3TB"]}
{"price":35000,"dateOfTransfer":"1995-05-26T00:00:00","postcodeFull":"DY10 3AH","propertyType":"Flat/Maisonette/Townhouse","oldOrNew":"Established","duration":"Leasehold","paon":"BALMORAL COURT","saon":"36","street":"CHADDESLEY ROAD","locality":"KIDDERMINSTER","townOrCity":"KIDDERMINSTER","district":"WYRE FOREST","county":"WORCESTERSHIRE","ppdCategoryType":"Standard","recordStatus":"Addition","latitude":52.386199,"longitude":-2.233293,"postcodeStart":"DY10 3","postcode":["DY10","3AH"]}
{"price":110000,"dateOfTransfer":"1995-04-20T00:00:00","postcodeFull":"DY10 3LT","propertyType":"Terraced","oldOrNew":"Established","duration":"Freehold","paon":"HALFSHIRE COTTAGE","saon":"","street":"STAKENBRIDGE LANE","locality":"CHURCHILL","townOrCity":"KIDDERMINSTER","district":"WYRE FOREST","county":"WORCESTERSHIRE","ppdCategoryType":"Standard","recordStatus":"Addition","latitude":52.414446,"longitude":-2.169943,"postcodeStart":"DY10 3","postcode":["DY10","3LT"]}
{"price":57000,"dateOfTransfer":"1995-09-29T00:00:00","postcodeFull":"DY10 3AF","propertyType":"Detached","oldOrNew":"Established","duration":"Leasehold","paon":"72","saon":"","street":"MERTON CLOSE","locality":"KIDDERMINSTER","townOrCity":"KIDDERMINSTER","district":"WYRE FOREST","county":"WORCESTERSHIRE","ppdCategoryType":"Standard","recordStatus":"Addition","latitude":52.3912,"longitude":-2.227795,"postcodeStart":"DY10 3","postcode":["DY10","3AF"]}
{"price":34000,"dateOfTransfer":"1995-02-03T00:00:00","postcodeFull":"DY10 3BU","propertyType":"Terraced","oldOrNew":"Established","duration":"Freehold","paon":"40","saon":"","street":"CLAINES CRESCENT","locality":"KIDDERMINSTER","townOrCity":"KIDDERMINSTER","district":"WYRE FOREST","county":"WORCESTERSHIRE","ppdCategoryType":"Standard","recordStatus":"Addition","latitude":52.386392,"longitude":-2.226403,"postcodeStart":"DY10 3","postcode":["DY10","3BU"]}
{"price":60000,"dateOfTransfer":"1995-06-09T00:00:00","postcodeFull":"DY10 3QP","propertyType":"Detached","oldOrNew":"Established","duration":"Freehold","paon":"6","saon":"","street":"ALBANY CLOSE","locality":"KIDDERMINSTER","townOrCity":"KIDDERMINSTER","district":"WYRE FOREST","county":"WORCESTERSHIRE","ppdCategoryType":"Standard","recordStatus":"Addition","latitude":52.389888,"longitude":-2.227318,"postcodeStart":"DY10 3","postcode":["DY10","3QP"]}
{"price":30000,"dateOfTransfer":"1995-08-18T00:00:00","postcodeFull":"DY10 3AH","propertyType":"Flat/Maisonette/Townhouse","oldOrNew":"Established","duration":"Leasehold","paon":"BALMORAL COURT","saon":"28","street":"CHADDESLEY ROAD","locality":"KIDDERMINSTER","townOrCity":"KIDDERMINSTER","district":"WYRE FOREST","county":"WORCESTERSHIRE","ppdCategoryType":"Standard","recordStatus":"Addition","latitude":52.386199,"longitude":-2.233293,"postcodeStart":"DY10 3","postcode":["DY10","3AH"]}
{"price":214000,"dateOfTransfer":"1995-07-21T00:00:00","postcodeFull":"DY10 3PB","propertyType":"Detached","oldOrNew":"Established","duration":"Freehold","paon":"ASHFIELD HOUSE","saon":"","street":"SUGAR LOAF LANE","locality":"IVERLEY","townOrCity":"KIDDERMINSTER","district":"WYRE FOREST","county":"WORCESTERSHIRE","ppdCategoryType":"Standard","recordStatus":"Addition","latitude":52.429333,"longitude":-2.182399,"postcodeStart":"DY10 3","postcode":["DY10","3PB"]}
{"price":79000,"dateOfTransfer":"1995-03-03T00:00:00","postcodeFull":"DY10 3EG","propertyType":"Detached","oldOrNew":"Established","duration":"Freehold","paon":"11","saon":"","street":"COMBERTON AVENUE","locality":"KIDDERMINSTER","townOrCity":"KIDDERMINSTER","district":"WYRE FOREST","county":"WORCESTERSHIRE","ppdCategoryType":"Standard","recordStatus":"Addition","latitude":52.382841,"longitude":-2.226752,"postcodeStart":"DY10 3","postcode":["DY10","3EG"]}
{"price":53000,"dateOfTransfer":"1995-06-02T00:00:00","postcodeFull":"DY10 3QY","propertyType":"Semi-detached","oldOrNew":"Established","duration":"Freehold","paon":"45","saon":"","street":"SHAKESPEARE DRIVE","locality":"KIDDERMINSTER","townOrCity":"KIDDERMINSTER","district":"WYRE FOREST","county":"WORCESTERSHIRE","ppdCategoryType":"Standard","recordStatus":"Addition","latitude":52.390448,"longitude":-2.225983,"postcodeStart":"DY10 3","postcode":["DY10","3QY"]}
{"price":90000,"dateOfTransfer":"1995-03-10T00:00:00","postcodeFull":"DY10 3PG","propertyType":"Semi-detached","oldOrNew":"Established","duration":"Freehold","paon":"LANCELOT HOUSE","saon":"1","street":"HURCOTT VILLAGE","locality":"KIDDERMINSTER","townOrCity":"KIDDERMINSTER","district":"WYRE FOREST","county":"WORCESTERSHIRE","ppdCategoryType":"Standard","recordStatus":"Addition","latitude":52.398127,"longitude":-2.220452,"postcodeStart":"DY10 3","postcode":["DY10","3PG"]}
{"price":26000,"dateOfTransfer":"1995-02-17T00:00:00","postcodeFull":"DY10 3DS","propertyType":"Flat/Maisonette/Townhouse","oldOrNew":"Established","duration":"Leasehold","paon":"COMBERTON MANSIONS","saon":"FLAT 4","street":"COMBERTON ROAD","locality":"KIDDERMINSTER","townOrCity":"KIDDERMINSTER","district":"WYRE FOREST","county":"WORCESTERSHIRE","ppdCategoryType":"Standard","recordStatus":"Addition","latitude":52.382448,"longitude":-2.230144,"postcodeStart":"DY10 3","postcode":["DY10","3DS"]}
{"price":51000,"dateOfTransfer":"1995-08-23T00:00:00","postcodeFull":"DY10 3XD","propertyType":"Semi-detached","oldOrNew":"Established","duration":"Leasehold","paon":"19","saon":"","street":"SILVER BIRCH DRIVE","locality":"KIDDERMINSTER","townOrCity":"KIDDERMINSTER","district":"WYRE FOREST","county":"WORCESTERSHIRE","ppdCategoryType":"Standard","recordStatus":"Addition","latitude":52.38459,"longitude":-2.219474,"postcodeStart":"DY10 3","postcode":["DY10","3XD"]}
{"price":55000,"dateOfTransfer":"1995-05-12T00:00:00","postcodeFull":"DY10 3TL","propertyType":"Semi-detached","oldOrNew":"Established","duration":"Freehold","paon":"17","saon":"","street":"WOODLANDS ROAD","locality":"COOKLEY","townOrCity":"KIDDERMINSTER","district":"WYRE FOREST","county":"WORCESTERSHIRE","ppdCategoryType":"Standard","recordStatus":"Addition","latitude":52.415867,"longitude":-2.233332,"postcodeStart":"DY10 3","postcode":["DY10","3TL"]}
{"price":38750,"dateOfTransfer":"1995-06-09T00:00:00","postcodeFull":"DY10 3AH","propertyType":"Flat/Maisonette/Townhouse","oldOrNew":"Established","duration":"Leasehold","paon":"BALMORAL COURT","saon":"29","street":"CHADDESLEY ROAD","locality":"KIDDERMINSTER","townOrCity":"KIDDERMINSTER","district":"WYRE FOREST","county":"WORCESTERSHIRE","ppdCategoryType":"Standard","recordStatus":"Addition","latitude":52.386199,"longitude":-2.233293,"postcodeStart":"DY10 3","postcode":["DY10","3AH"]}
{"price":25000,"dateOfTransfer":"1995-11-30T00:00:00","postcodeFull":"DY10 3AH","propertyType":"Flat/Maisonette/Townhouse","oldOrNew":"Established","duration":"Leasehold","paon":"BALMORAL COURT","saon":"39","street":"CHADDESLEY ROAD","locality":"KIDDERMINSTER","townOrCity":"KIDDERMINSTER","district":"WYRE FOREST","county":"WORCESTERSHIRE","ppdCategoryType":"Standard","recordStatus":"Addition","latitude":52.386199,"longitude":-2.233293,"postcodeStart":"DY10 3","postcode":["DY10","3AH"]}
{"price":69950,"dateOfTransfer":"1995-12-15T00:00:00","postcodeFull":"DY10 3JP","propertyType":"Semi-detached","oldOrNew":"Established","duration":"Freehold","paon":"7","saon":"","street":"THE CROFT","locality":"BLAKEDOWN","townOrCity":"KIDDERMINSTER","district":"WYRE FOREST","county":"WORCESTERSHIRE","ppdCategoryType":"Standard","recordStatus":"Addition","latitude":52.407901,"longitude":-2.17618,"postcodeStart":"DY10 3","postcode":["DY10","3JP"]}
{"price":55000,"dateOfTransfer":"1995-10-06T00:00:00","postcodeFull":"DY10 3DY","propertyType":"Semi-detached","oldOrNew":"Established","duration":"Freehold","paon":"4","saon":"","street":"COMBERTON PARK ROAD","locality":"KIDDERMINSTER","townOrCity":"KIDDERMINSTER","district":"WYRE FOREST","county":"WORCESTERSHIRE","ppdCategoryType":"Standard","recordStatus":"Addition","latitude":52.379681,"longitude":-2.226614,"postcodeStart":"DY10 3","postcode":["DY10","3DY"]}
{"price":57000,"dateOfTransfer":"1995-01-27T00:00:00","postcodeFull":"DY10 3TU","propertyType":"Semi-detached","oldOrNew":"Established","duration":"Freehold","paon":"27","saon":"","street":"GAYMORE ROAD","locality":"COOKLEY","townOrCity":"KIDDERMINSTER","district":"WYRE FOREST","county":"WORCESTERSHIRE","ppdCategoryType":"Standard","recordStatus":"Addition","latitude":52.419564,"longitude":-2.227426,"postcodeStart":"DY10 3","postcode":["DY10","3TU"]}
{"price":52000,"dateOfTransfer":"1995-06-28T00:00:00","postcodeFull":"DY10 3RY","propertyType":"Semi-detached","oldOrNew":"Established","duration":"Freehold","paon":"17","saon":"","street":"THE CRESCENT","locality":"COOKLEY","townOrCity":"KIDDERMINSTER","district":"WYRE FOREST","county":"WORCESTERSHIRE","ppdCategoryType":"Standard","recordStatus":"Addition","latitude":52.414462,"longitude":-2.223279,"postcodeStart":"DY10 3","postcode":["DY10","3RY"]}
{"price":69000,"dateOfTransfer":"1995-08-15T00:00:00","postcodeFull":"DY10 3EQ","propertyType":"Semi-detached","oldOrNew":"Established","duration":"Freehold","paon":"1A","saon":"","street":"COMBERTON AVENUE","locality":"KIDDERMINSTER","townOrCity":"KIDDERMINSTER","district":"WYRE FOREST","county":"WORCESTERSHIRE","ppdCategoryType":"Standard","recordStatus":"Addition","latitude":52.384323,"longitude":-2.227377,"postcodeStart":"DY10 3","postcode":["DY10","3EQ"]}
{"price":59950,"dateOfTransfer":"1995-01-26T00:00:00","postcodeFull":"DY10 3JZ","propertyType":"Semi-detached","oldOrNew":"New build","duration":"Freehold","paon":"67","saon":"","street":"LYNWOOD DRIVE","locality":"BLAKEDOWN","townOrCity":"KIDDERMINSTER","district":"WYRE FOREST","county":"WORCESTERSHIRE","ppdCategoryType":"Standard","recordStatus":"Addition","latitude":52.405004,"longitude":-2.177786,"postcodeStart":"DY10 3","postcode":["DY10","3JZ"]}
{"price":46500,"dateOfTransfer":"1995-04-28T00:00:00","postcodeFull":"DY10 3XD","propertyType":"Semi-detached","oldOrNew":"Established","duration":"Leasehold","paon":"18","saon":"","street":"SILVER BIRCH DRIVE","locality":"KIDDERMINSTER","townOrCity":"KIDDERMINSTER","district":"WYRE FOREST","county":"WORCESTERSHIRE","ppdCategoryType":"Standard","recordStatus":"Addition","latitude":52.38459,"longitude":-2.219474,"postcodeStart":"DY10 3","postcode":["DY10","3XD"]}
{"price":140000,"dateOfTransfer":"1995-12-01T00:00:00","postcodeFull":"DY10 3NE","propertyType":"Detached","oldOrNew":"Established","duration":"Freehold","paon":"1","saon":"","street":"BROOKSIDE WAY","locality":"BLAKEDOWN","townOrCity":"KIDDERMINSTER","district":"WYRE FOREST","county":"WORCESTERSHIRE","ppdCategoryType":"Standard","recordStatus":"Addition","latitude":52.405349,"longitude":-2.181785,"postcodeStart":"DY10 3","postcode":["DY10","3NE"]}
{"price":65000,"dateOfTransfer":"1995-05-12T00:00:00","postcodeFull":"DY10 3AP","propertyType":"Semi-detached","oldOrNew":"Established","duration":"Freehold","paon":"3","saon":"","street":"HILLGROVE CRESCENT","locality":"KIDDERMINSTER","townOrCity":"KIDDERMINSTER","district":"WYRE FOREST","county":"WORCESTERSHIRE","ppdCategoryType":"Standard","recordStatus":"Addition","latitude":52.382037,"longitude":-2.2355,"postcodeStart":"DY10 3","postcode":["DY10","3AP"]}
{"price":46000,"dateOfTransfer":"1995-01-20T00:00:00","postcodeFull":"DY10 3YD","propertyType":"Terraced","oldOrNew":"Established","duration":"Freehold","paon":"5","saon":"","street":"CHATTERTON WALK","locality":"KIDDERMINSTER","townOrCity":"KIDDERMINSTER","district":"WORCESTER","county":"WORCESTERSHIRE","ppdCategoryType":"Standard","recordStatus":"Addition","latitude":52.386751,"longitude":-2.222291,"postcodeStart":"DY10 3","postcode":["DY10","3YD"]}
{"price":83500,"dateOfTransfer":"1995-07-07T00:00:00","postcodeFull":"DY10 3JW","propertyType":"Semi-detached","oldOrNew":"Established","duration":"Freehold","paon":"43","saon":"","street":"BIRMINGHAM ROAD","locality":"BLAKEDOWN","townOrCity":"KIDDERMINSTER","district":"WYRE FOREST","county":"WORCESTERSHIRE","ppdCategoryType":"Standard","recordStatus":"Addition","latitude":52.404051,"longitude":-2.177855,"postcodeStart":"DY10 3","postcode":["DY10","3JW"]}
{"price":26100,"dateOfTransfer":"1995-10-30T00:00:00","postcodeFull":"DY10 3JS","propertyType":"Terraced","oldOrNew":"Established","duration":"Freehold","paon":"1","saon":"","street":"WHEATMILL CLOSE","locality":"BLAKEDOWN","townOrCity":"KIDDERMINSTER","district":"WYRE FOREST","county":"WORCESTERSHIRE","ppdCategoryType":"Standard","recordStatus":"Addition","latitude":52.406989,"longitude":-2.179102,"postcodeStart":"DY10 3","postcode":["DY10","3JS"]}
{"price":43500,"dateOfTransfer":"1995-11-17T00:00:00","postcodeFull":"DY10 3EP","propertyType":"Terraced","oldOrNew":"Established","duration":"Freehold","paon":"101","saon":"","street":"TENNYSON WAY","locality":"KIDDERMINSTER","townOrCity":"KIDDERMINSTER","district":"WYRE FOREST","county":"WORCESTERSHIRE","ppdCategoryType":"Standard","recordStatus":"Addition","latitude":52.386668,"longitude":-2.22326,"postcodeStart":"DY10 3","postcode":["DY10","3EP"]}
{"price":45000,"dateOfTransfer":"1995-10-16T00:00:00","postcodeFull":"DY10 3UA","propertyType":"Semi-detached","oldOrNew":"Established","duration":"Freehold","paon":"67","saon":"","street":"STAITE DRIVE","locality":"COOKLEY","townOrCity":"KIDDERMINSTER","district":"WYRE FOREST","county":"WORCESTERSHIRE","ppdCategoryType":"Standard","recordStatus":"Addition","latitude":52.420857,"longitude":-2.228286,"postcodeStart":"DY10 3","postcode":["DY10","3UA"]}
{"price":51000,"dateOfTransfer":"1995-11-17T00:00:00","postcodeFull":"DY10 3HN","propertyType":"Flat/Maisonette/Townhouse","oldOrNew":"Established","duration":"Leasehold","paon":"LIME COURT","saon":"12","street":"OLDNALL ROAD","locality":"KIDDERMINSTER","townOrCity":"KIDDERMINSTER","district":"WYRE FOREST","county":"WORCESTERSHIRE","ppdCategoryType":"Standard","recordStatus":"Addition","latitude":52.380182,"longitude":-2.234863,"postcodeStart":"DY10 3","postcode":["DY10","3HN"]}
{"price":28800,"dateOfTransfer":"1995-06-16T00:00:00","postcodeFull":"DY10 3JS","propertyType":"Flat/Maisonette/Townhouse","oldOrNew":"New build","duration":"Leasehold","paon":"15","saon":"","street":"WHEATMILL CLOSE","locality":"BLAKEDOWN","townOrCity":"KIDDERMINSTER","district":"WYRE FOREST","county":"WORCESTERSHIRE","ppdCategoryType":"Standard","recordStatus":"Addition","latitude":52.406989,"longitude":-2.179102,"postcodeStart":"DY10 3","postcode":["DY10","3JS"]}
{"price":53000,"dateOfTransfer":"1995-12-08T00:00:00","postcodeFull":"DY10 3TU","propertyType":"Semi-detached","oldOrNew":"Established","duration":"Freehold","paon":"38","saon":"","street":"GAYMORE ROAD","locality":"COOKLEY","townOrCity":"KIDDERMINSTER","district":"WYRE FOREST","county":"WORCESTERSHIRE","ppdCategoryType":"Standard","recordStatus":"Addition","latitude":52.419564,"longitude":-2.227426,"postcodeStart":"DY10 3","postcode":["DY10","3TU"]}
{"price":34000,"dateOfTransfer":"1995-05-26T00:00:00","postcodeFull":"DY10 3AH","propertyType":"Flat/Maisonette/Townhouse","oldOrNew":"Established","duration":"Leasehold","paon":"BALMORAL COURT","saon":"11","street":"CHADDESLEY ROAD","locality":"KIDDERMINSTER","townOrCity":"KIDDERMINSTER","district":"WYRE FOREST","county":"WORCESTERSHIRE","ppdCategoryType":"Standard","recordStatus":"Addition","latitude":52.386199,"longitude":-2.233293,"postcodeStart":"DY10 3","postcode":["DY10","3AH"]}
{"price":40000,"dateOfTransfer":"1995-04-28T00:00:00","postcodeFull":"DY10 3RY","propertyType":"Semi-detached","oldOrNew":"Established","duration":"Freehold","paon":"20","saon":"","street":"THE CRESCENT","locality":"COOKLEY","townOrCity":"KIDDERMINSTER","district":"WYRE FOREST","county":"WORCESTERSHIRE","ppdCategoryType":"Standard","recordStatus":"Addition","latitude":52.414462,"longitude":-2.223279,"postcodeStart":"DY10 3","postcode":["DY10","3RY"]}
{"price":42500,"dateOfTransfer":"1995-05-01T00:00:00","postcodeFull":"DY10 3UA","propertyType":"Semi-detached","oldOrNew":"Established","duration":"Freehold","paon":"73","saon":"","street":"STAITE DRIVE","locality":"COOKLEY","townOrCity":"KIDDERMINSTER","district":"WYRE FOREST","county":"WORCESTERSHIRE","ppdCategoryType":"Standard","recordStatus":"Addition","latitude":52.420857,"longitude":-2.228286,"postcodeStart":"DY10 3","postcode":["DY10","3UA"]}
{"price":59995,"dateOfTransfer":"1995-05-19T00:00:00","postcodeFull":"DY10 3HN","propertyType":"Flat/Maisonette/Townhouse","oldOrNew":"Established","duration":"Leasehold","paon":"FAIRWAYS COURT","saon":"FLAT 5","street":"OLDNALL ROAD","locality":"KIDDERMINSTER","townOrCity":"KIDDERMINSTER","district":"WYRE FOREST","county":"WORCESTERSHIRE","ppdCategoryType":"Standard","recordStatus":"Addition","latitude":52.380182,"longitude":-2.234863,"postcodeStart":"DY10 3","postcode":["DY10","3HN"]}
{"price":55000,"dateOfTransfer":"1995-09-22T00:00:00","postcodeFull":"DY10 3UP","propertyType":"Detached","oldOrNew":"Established","duration":"Freehold","paon":"57","saon":"","street":"AUSTCLIFFE ROAD","locality":"COOKLEY","townOrCity":"KIDDERMINSTER","district":"WYRE FOREST","county":"WORCESTERSHIRE","ppdCategoryType":"Standard","recordStatus":"Addition","latitude":52.421382,"longitude":-2.230053,"postcodeStart":"DY10 3","postcode":["DY10","3UP"]}
{"price":50950,"dateOfTransfer":"1995-07-07T00:00:00","postcodeFull":"DY10 3DY","propertyType":"Semi-detached","oldOrNew":"Established","duration":"Freehold","paon":"37","saon":"","street":"COMBERTON PARK ROAD","locality":"KIDDERMINSTER","townOrCity":"KIDDERMINSTER","district":"WYRE FOREST","county":"WORCESTERSHIRE","ppdCategoryType":"Standard","recordStatus":"Addition","latitude":52.379681,"longitude":-2.226614,"postcodeStart":"DY10 3","postcode":["DY10","3DY"]}
{"price":144000,"dateOfTransfer":"1995-02-10T00:00:00","postcodeFull":"DY10 3AL","propertyType":"Detached","oldOrNew":"Established","duration":"Freehold","paon":"2","saon":"","street":"OAK GROVE","locality":"KIDDERMINSTER","townOrCity":"KIDDERMINSTER","district":"WYRE FOREST","county":"WORCESTERSHIRE","ppdCategoryType":"Standard","recordStatus":"Addition","latitude":52.381678,"longitude":-2.230782,"postcodeStart":"DY10 3","postcode":["DY10","3AL"]}
{"price":59750,"dateOfTransfer":"1995-02-22T00:00:00","postcodeFull":"DY10 3JZ","propertyType":"Semi-detached","oldOrNew":"New build","duration":"Freehold","paon":"43","saon":"","street":"LYNWOOD DRIVE","locality":"BLAKEDOWN","townOrCity":"KIDDERMINSTER","district":"WYRE FOREST","county":"WORCESTERSHIRE","ppdCategoryType":"Standard","recordStatus":"Addition","latitude":52.405004,"longitude":-2.177786,"postcodeStart":"DY10 3","postcode":["DY10","3JZ"]}
{"price":106750,"dateOfTransfer":"1995-04-28T00:00:00","postcodeFull":"DY10 3DG","propertyType":"Detached","oldOrNew":"Established","duration":"Freehold","paon":"24","saon":"","street":"BARNETTS CLOSE","locality":"KIDDERMINSTER","townOrCity":"KIDDERMINSTER","district":"WYRE FOREST","county":"WORCESTERSHIRE","ppdCategoryType":"Standard","recordStatus":"Addition","latitude":52.378451,"longitude":-2.227905,"postcodeStart":"DY10 3","postcode":["DY10","3DG"]}
{"price":60000,"dateOfTransfer":"1995-03-08T00:00:00","postcodeFull":"DY10 3JG","propertyType":"Detached","oldOrNew":"Established","duration":"Freehold","paon":"22","saon":"","street":"BELBROUGHTON ROAD","locality":"BLAKEDOWN","townOrCity":"KIDDERMINSTER","district":"WYRE FOREST","county":"WORCESTERSHIRE","ppdCategoryType":"Standard","recordStatus":"Addition","latitude":52.403192,"longitude":-2.175588,"postcodeStart":"DY10 3","postcode":["DY10","3JG"]}
{"price":59950,"dateOfTransfer":"1995-10-27T00:00:00","postcodeFull":"DY10 3AF","propertyType":"Terraced","oldOrNew":"Established","duration":"Leasehold","paon":"65","saon":"","street":"MERTON CLOSE","locality":"KIDDERMINSTER","townOrCity":"KIDDERMINSTER","district":"WYRE FOREST","county":"WORCESTERSHIRE","ppdCategoryType":"Standard","recordStatus":"Addition","latitude":52.3912,"longitude":-2.227795,"postcodeStart":"DY10 3","postcode":["DY10","3AF"]}
{"price":79000,"dateOfTransfer":"1995-12-01T00:00:00","postcodeFull":"DY10 3TQ","propertyType":"Detached","oldOrNew":"Established","duration":"Freehold","paon":"2A","saon":"","street":"WEST HEAD ROAD NORTH","locality":"COOKLEY","townOrCity":"KIDDERMINSTER","district":"WYRE FOREST","county":"WORCESTERSHIRE","ppdCategoryType":"Standard","recordStatus":"Addition","latitude":52.416113,"longitude":-2.231231,"postcodeStart":"DY10 3","postcode":["DY10","3TQ"]}
{"price":108000,"dateOfTransfer":"1995-11-01T00:00:00","postcodeFull":"DY10 3JT","propertyType":"Detached","oldOrNew":"Established","duration":"Freehold","paon":"17","saon":"","street":"SWAN CLOSE","locality":"BLAKEDOWN","townOrCity":"KIDDERMINSTER","district":"WYRE FOREST","county":"WORCESTERSHIRE","ppdCategoryType":"Standard","recordStatus":"Addition","latitude":52.403896,"longitude":-2.179325,"postcodeStart":"DY10 3","postcode":["DY10","3JT"]}
{"price":35500,"dateOfTransfer":"1995-09-29T00:00:00","postcodeFull":"DY10 3YD","propertyType":"Terraced","oldOrNew":"Established","duration":"Freehold","paon":"7","saon":"","street":"CHATTERTON WALK","locality":"KIDDERMINSTER","townOrCity":"KIDDERMINSTER","district":"WYRE FOREST","county":"WORCESTERSHIRE","ppdCategoryType":"Standard","recordStatus":"Addition","latitude":52.386751,"longitude":-2.222291,"postcodeStart":"DY10 3","postcode":["DY10","3YD"]}
{"price":43000,"dateOfTransfer":"1995-10-27T00:00:00","postcodeFull":"DY10 3BG","propertyType":"Semi-detached","oldOrNew":"Established","duration":"Freehold","paon":"92","saon":"","street":"QUEEN ELIZABETH ROAD","locality":"KIDDERMINSTER","townOrCity":"KIDDERMINSTER","district":"WYRE FOREST","county":"WORCESTERSHIRE","ppdCategoryType":"Standard","recordStatus":"Addition","latitude":52.38696,"longitude":-2.225701,"postcodeStart":"DY10 3","postcode":["DY10","3BG"]}
{"price":38500,"dateOfTransfer":"1995-02-17T00:00:00","postcodeFull":"DY10 3TB","propertyType":"Terraced","oldOrNew":"Established","duration":"Freehold","paon":"84","saon":"","street":"CASTLE ROAD","locality":"COOKLEY","townOrCity":"KIDDERMINSTER","district":"WYRE FOREST","county":"WORCESTERSHIRE","ppdCategoryType":"Standard","recordStatus":"Addition","latitude":52.418684,"longitude":-2.231451,"postcodeStart":"DY10 3","postcode":["DY10","3TB"]}
{"price":94000,"dateOfTransfer":"1995-09-12T00:00:00","postcodeFull":"DY10 3AS","propertyType":"Detached","oldOrNew":"Established","duration":"Freehold","paon":"11","saon":"","street":"SOMERLEYTON AVENUE","locality":"KIDDERMINSTER","townOrCity":"KIDDERMINSTER","district":"WYRE FOREST","county":"WORCESTERSHIRE","ppdCategoryType":"Standard","recordStatus":"Addition","latitude":52.384499,"longitude":-2.229317,"postcodeStart":"DY10 3","postcode":["DY10","3AS"]}
{"price":36500,"dateOfTransfer":"1995-05-05T00:00:00","postcodeFull":"DY10 3BN","propertyType":"Terraced","oldOrNew":"Established","duration":"Freehold","paon":"87","saon":"","street":"BROOM CRESCENT","locality":"KIDDERMINSTER","townOrCity":"KIDDERMINSTER","district":"WYRE FOREST","county":"WORCESTERSHIRE","ppdCategoryType":"Standard","recordStatus":"Addition","latitude":52.38697,"longitude":-2.229727,"postcodeStart":"DY10 3","postcode":["DY10","3BN"]}
{"price":40000,"dateOfTransfer":"1995-08-16T00:00:00","postcodeFull":"DY10 3UG","propertyType":"Terraced","oldOrNew":"Established","duration":"Freehold","paon":"27","saon":"","street":"LIONFIELDS ROAD","locality":"COOKLEY","townOrCity":"KIDDERMINSTER","district":"WYRE FOREST","county":"WORCESTERSHIRE","ppdCategoryType":"Standard","recordStatus":"Addition","latitude":52.417953,"longitude":-2.228521,"postcodeStart":"DY10 3","postcode":["DY10","3UG"]}
{"price":23500,"dateOfTransfer":"1995-03-17T00:00:00","postcodeFull":"DY10 3DS","propertyType":"Flat/Maisonette/Townhouse","oldOrNew":"Established","duration":"Leasehold","paon":"COMBERTON MANSIONS","saon":"FLAT 18","street":"COMBERTON ROAD","locality":"KIDDERMINSTER","townOrCity":"KIDDERMINSTER","district":"WYRE FOREST","county":"WORCESTERSHIRE","ppdCategoryType":"Standard","recordStatus":"Addition","latitude":52.382448,"longitude":-2.230144,"postcodeStart":"DY10 3","postcode":["DY10","3DS"]}
{"price":50500,"dateOfTransfer":"1995-05-12T00:00:00","postcodeFull":"DY10 3AW","propertyType":"Semi-detached","oldOrNew":"Established","duration":"Freehold","paon":"32","saon":"","street":"EASTWOOD DRIVE","locality":"KIDDERMINSTER","townOrCity":"KIDDERMINSTER","district":"WYRE FOREST","county":"WORCESTERSHIRE","ppdCategoryType":"Standard","recordStatus":"Addition","latitude":52.382254,"longitude":-2.22791,"postcodeStart":"DY10 3","postcode":["DY10","3AW"]}
{"price":42000,"dateOfTransfer":"1995-01-11T00:00:00","postcodeFull":"DY10 3AG","propertyType":"Detached","oldOrNew":"Established","duration":"Freehold","paon":"26","saon":"","street":"HOLMCROFT ROAD","locality":"KIDDERMINSTER","townOrCity":"KIDDERMINSTER","district":"WYRE FOREST","county":"WORCESTERSHIRE","ppdCategoryType":"Standard","recordStatus":"Addition","latitude":52.385612,"longitude":-2.230381,"postcodeStart":"DY10 3","postcode":["DY10","3AG"]}
{"price":59960,"dateOfTransfer":"1995-05-26T00:00:00","postcodeFull":"DY10 3DX","propertyType":"Detached","oldOrNew":"Established","duration":"Freehold","paon":"68","saon":"","street":"COMBERTON ROAD","locality":"KIDDERMINSTER","townOrCity":"KIDDERMINSTER","district":"WYRE FOREST","county":"WORCESTERSHIRE","ppdCategoryType":"Standard","recordStatus":"Addition","latitude":52.379549,"longitude":-2.227206,"postcodeStart":"DY10 3","postcode":["DY10","3DX"]}
{"price":59000,"dateOfTransfer":"1995-03-17T00:00:00","postcodeFull":"DY10 3QZ","propertyType":"Semi-detached","oldOrNew":"Established","duration":"Freehold","paon":"1","saon":"","street":"CARLYLE AVENUE","locality":"KIDDERMINSTER","townOrCity":"KIDDERMINSTER","district":"WYRE FOREST","county":"WORCESTERSHIRE","ppdCategoryType":"Standard","recordStatus":"Addition","latitude":52.390154,"longitude":-2.224571,"postcodeStart":"DY10 3","postcode":["DY10","3QZ"]}
{"price":56000,"dateOfTransfer":"1995-08-09T00:00:00","postcodeFull":"DY10 3YX","propertyType":"Semi-detached","oldOrNew":"Established","duration":"Freehold","paon":"22","saon":"","street":"SHAW AVENUE","locality":"KIDDERMINSTER","townOrCity":"KIDDERMINSTER","district":"WYRE FOREST","county":"WORCESTERSHIRE","ppdCategoryType":"Standard","recordStatus":"Addition","latitude":52.389778,"longitude":-2.223467,"postcodeStart":"DY10 3","postcode":["DY10","3YX"]}
{"price":43000,"dateOfTransfer":"1995-10-20T00:00:00","postcodeFull":"DY10 3TY","propertyType":"Terraced","oldOrNew":"Established","duration":"Freehold","paon":"50","saon":"","street":"ELEANOR HARRISON DRIVE","locality":"COOKLEY","townOrCity":"KIDDERMINSTER","district":"WYRE FOREST","county":"WORCESTERSHIRE","ppdCategoryType":"Standard","recordStatus":"Addition","latitude":52.420047,"longitude":-2.226483,"postcodeStart":"DY10 3","postcode":["DY10","3TY"]}
{"price":41000,"dateOfTransfer":"1995-11-24T00:00:00","postcodeFull":"DY10 3TY","propertyType":"Terraced","oldOrNew":"Established","duration":"Freehold","paon":"15","saon":"","street":"ELEANOR HARRISON DRIVE","locality":"COOKLEY","townOrCity":"KIDDERMINSTER","district":"WYRE FOREST","county":"WORCESTERSHIRE","ppdCategoryType":"Standard","recordStatus":"Addition","latitude":52.420047,"longitude":-2.226483,"postcodeStart":"DY10 3","postcode":["DY10","3TY"]}
{"price":46250,"dateOfTransfer":"1995-10-27T00:00:00","postcodeFull":"DY10 3XR","propertyType":"Terraced","oldOrNew":"Established","duration":"Leasehold","paon":"221","saon":"","street":"TENNYSON WAY","locality":"KIDDERMINSTER","townOrCity":"KIDDERMINSTER","district":"WYRE FOREST","county":"WORCESTERSHIRE","ppdCategoryType":"Standard","recordStatus":"Addition","latitude":52.38814,"longitude":-2.21958,"postcodeStart":"DY10 3","postcode":["DY10","3XR"]}
{"price":69950,"dateOfTransfer":"1995-04-13T00:00:00","postcodeFull":"DY10 3QR","propertyType":"Detached","oldOrNew":"Established","duration":"Freehold","paon":"39","saon":"","street":"SHERATON DRIVE","locality":"KIDDERMINSTER","townOrCity":"KIDDERMINSTER","district":"WYRE FOREST","county":"WORCESTERSHIRE","ppdCategoryType":"Standard","recordStatus":"Addition","latitude":52.38932,"longitude":-2.227227,"postcodeStart":"DY10 3","postcode":["DY10","3QR"]}
{"price":41250,"dateOfTransfer":"1995-03-01T00:00:00","postcodeFull":"DY10 3DW","propertyType":"Flat/Maisonette/Townhouse","oldOrNew":"Established","duration":"Leasehold","paon":"8","saon":"","street":"SOMERLEYTON COURT","locality":"KIDDERMINSTER","townOrCity":"KIDDERMINSTER","district":"WYRE FOREST","county":"WORCESTERSHIRE","ppdCategoryType":"Standard","recordStatus":"Addition","latitude":52.383328,"longitude":-2.230472,"postcodeStart":"DY10 3","postcode":["DY10","3DW"]}
{"price":53000,"dateOfTransfer":"1995-07-18T00:00:00","postcodeFull":"DY10 3HN","propertyType":"Flat/Maisonette/Townhouse","oldOrNew":"Established","duration":"Leasehold","paon":"LIME COURT","saon":"FLAT 3","street":"OLDNALL ROAD","locality":"KIDDERMINSTER","townOrCity":"KIDDERMINSTER","district":"WYRE FOREST","county":"WORCESTERSHIRE","ppdCategoryType":"Standard","recordStatus":"Addition","latitude":52.380182,"longitude":-2.234863,"postcodeStart":"DY10 3","postcode":["DY10","3HN"]}
{"price":36000,"dateOfTransfer":"1995-08-01T00:00:00","postcodeFull":"DY10 3HN","propertyType":"Flat/Maisonette/Townhouse","oldOrNew":"Established","duration":"Leasehold","paon":"JUNIPER COURT","saon":"FLAT 10","street":"OLDNALL ROAD","locality":"KIDDERMINSTER","townOrCity":"KIDDERMINSTER","district":"WYRE FOREST","county":"WORCESTERSHIRE","ppdCategoryType":"Standard","recordStatus":"Addition","latitude":52.380182,"longitude":-2.234863,"postcodeStart":"DY10 3","postcode":["DY10","3HN"]}
{"price":127000,"dateOfTransfer":"1996-08-23T00:00:00","postcodeFull":"DY10 3AR","propertyType":"Detached","oldOrNew":"Established","duration":"Freehold","paon":"66","saon":"","street":"HILLGROVE CRESCENT","locality":"KIDDERMINSTER","townOrCity":"KIDDERMINSTER","district":"WYRE FOREST","county":"WORCESTERSHIRE","ppdCategoryType":"Standard","recordStatus":"Addition","latitude":52.381624,"longitude":-2.232917,"postcodeStart":"DY10 3","postcode":["DY10","3AR"]}
{"price":41950,"dateOfTransfer":"1996-10-04T00:00:00","postcodeFull":"DY10 3EP","propertyType":"Terraced","oldOrNew":"Established","duration":"Freehold","paon":"57","saon":"","street":"TENNYSON WAY","locality":"KIDDERMINSTER","townOrCity":"KIDDERMINSTER","district":"WYRE FOREST","county":"WORCESTERSHIRE","ppdCategoryType":"Standard","recordStatus":"Addition","latitude":52.386668,"longitude":-2.22326,"postcodeStart":"DY10 3","postcode":["DY10","3EP"]}
{"price":55000,"dateOfTransfer":"1996-05-16T00:00:00","postcodeFull":"DY10 3RT","propertyType":"Flat/Maisonette/Townhouse","oldOrNew":"New build","duration":"Leasehold","paon":"WESTLEY COURT","saon":"31","street":"AUSTCLIFFE LANE","locality":"COOKLEY","townOrCity":"KIDDERMINSTER","district":"WYRE FOREST","county":"WORCESTERSHIRE","ppdCategoryType":"Standard","recordStatus":"Addition","latitude":52.422197,"longitude":-2.218455,"postcodeStart":"DY10 3","postcode":["DY10","3RT"]}
{"price":19500,"dateOfTransfer":"1996-06-28T00:00:00","postcodeFull":"DY10 3DS","propertyType":"Flat/Maisonette/Townhouse","oldOrNew":"Established","duration":"Leasehold","paon":"COMBERTON MANSIONS","saon":"FLAT 18","street":"COMBERTON ROAD","locality":"KIDDERMINSTER","townOrCity":"KIDDERMINSTER","district":"WYRE FOREST","county":"WORCESTERSHIRE","ppdCategoryType":"Standard","recordStatus":"Addition","latitude":52.382448,"longitude":-2.230144,"postcodeStart":"DY10 3","postcode":["DY10","3DS"]}
{"price":120000,"dateOfTransfer":"1996-03-04T00:00:00","postcodeFull":"DY10 3AR","propertyType":"Detached","oldOrNew":"Established","duration":"Freehold","paon":"43","saon":"","street":"HILLGROVE CRESCENT","locality":"KIDDERMINSTER","townOrCity":"KIDDERMINSTER","district":"WYRE FOREST","county":"WORCESTERSHIRE","ppdCategoryType":"Standard","recordStatus":"Addition","latitude":52.381624,"longitude":-2.232917,"postcodeStart":"DY10 3","postcode":["DY10","3AR"]}
{"price":81000,"dateOfTransfer":"1996-12-11T00:00:00","postcodeFull":"DY10 3PJ","propertyType":"Terraced","oldOrNew":"Established","duration":"Freehold","paon":"207","saon":"","street":"HURCOTT LANE","locality":"KIDDERMINSTER","townOrCity":"KIDDERMINSTER","district":"WYRE FOREST","county":"WORCESTERSHIRE","ppdCategoryType":"Standard","recordStatus":"Addition","latitude":52.397723,"longitude":-2.219936,"postcodeStart":"DY10 3","postcode":["DY10","3PJ"]}
{"price":38000,"dateOfTransfer":"1996-01-17T00:00:00","postcodeFull":"DY10 3EF","propertyType":"Terraced","oldOrNew":"Established","duration":"Freehold","paon":"55","saon":"","street":"DUNCLENT CRESCENT","locality":"KIDDERMINSTER","townOrCity":"KIDDERMINSTER","district":"WYRE FOREST","county":"WORCESTERSHIRE","ppdCategoryType":"Standard","recordStatus":"Addition","latitude":52.382505,"longitude":-2.223842,"postcodeStart":"DY10 3","postcode":["DY10","3EF"]}
{"price":28500,"dateOfTransfer":"1996-05-31T00:00:00","postcodeFull":"DY10 3EE","propertyType":"Semi-detached","oldOrNew":"Established","duration":"Freehold","paon":"26","saon":"","street":"DUNCLENT CRESCENT","locality":"KIDDERMINSTER","townOrCity":"KIDDERMINSTER","district":"WYRE FOREST","county":"WORCESTERSHIRE","ppdCategoryType":"Standard","recordStatus":"Addition","latitude":52.381928,"longitude":-2.223545,"postcodeStart":"DY10 3","postcode":["DY10","3EE"]}
{"price":59500,"dateOfTransfer":"1996-10-11T00:00:00","postcodeFull":"DY10 3HN","propertyType":"Flat/Maisonette/Townhouse","oldOrNew":"Established","duration":"Leasehold","paon":"FAIRWAYS COURT","saon":"FLAT 17","street":"OLDNALL ROAD","locality":"KIDDERMINSTER","townOrCity":"KIDDERMINSTER","district":"WYRE FOREST","county":"WORCESTERSHIRE","ppdCategoryType":"Standard","recordStatus":"Addition","latitude":52.380182,"longitude":-2.234863,"postcodeStart":"DY10 3","postcode":["DY10","3HN"]}
{"price":56950,"dateOfTransfer":"1996-04-30T00:00:00","postcodeFull":"DY10 3XE","propertyType":"Semi-detached","oldOrNew":"Established","duration":"Freehold","paon":"7","saon":"","street":"ELMDALE DRIVE","locality":"KIDDERMINSTER","townOrCity":"KIDDERMINSTER","district":"WYRE FOREST","county":"WORCESTERSHIRE","ppdCategoryType":"Standard","recordStatus":"Addition","latitude":52.384933,"longitude":-2.218726,"postcodeStart":"DY10 3","postcode":["DY10","3XE"]}
{"price":51000,"dateOfTransfer":"1996-01-26T00:00:00","postcodeFull":"DY10 3QY","propertyType":"Detached","oldOrNew":"Established","duration":"Freehold","paon":"106","saon":"","street":"SHAKESPEARE DRIVE","locality":"KIDDERMINSTER","townOrCity":"KIDDERMINSTER","district":"WYRE FOREST","county":"WORCESTERSHIRE","ppdCategoryType":"Standard","recordStatus":"Addition","latitude":52.390448,"longitude":-2.225983,"postcodeStart":"DY10 3","postcode":["DY10","3QY"]}
{"price":58000,"dateOfTransfer":"1996-11-04T00:00:00","postcodeFull":"DY10 3AG","propertyType":"Semi-detached","oldOrNew":"Established","duration":"Freehold","paon":"96","saon":"","street":"HOLMCROFT ROAD","locality":"KIDDERMINSTER","townOrCity":"KIDDERMINSTER","district":"WYRE FOREST","county":"WORCESTERSHIRE","ppdCategoryType":"Standard","recordStatus":"Addition","latitude":52.385612,"longitude":-2.230381,"postcodeStart":"DY10 3","postcode":["DY10","3AG"]}
{"price":45500,"dateOfTransfer":"1996-10-21T00:00:00","postcodeFull":"DY10 3TY","propertyType":"Terraced","oldOrNew":"Established","duration":"Freehold","paon":"40","saon":"","street":"ELEANOR HARRISON DRIVE","locality":"COOKLEY","townOrCity":"KIDDERMINSTER","district":"WYRE FOREST","county":"WORCESTERSHIRE","ppdCategoryType":"Standard","recordStatus":"Addition","latitude":52.420047,"longitude":-2.226483,"postcodeStart":"DY10 3","postcode":["DY10","3TY"]}
{"price":55000,"dateOfTransfer":"1996-05-31T00:00:00","postcodeFull":"DY10 3YR","propertyType":"Semi-detached","oldOrNew":"Established","duration":"Freehold","paon":"16","saon":"","street":"PRIOR CLOSE","locality":"KIDDERMINSTER","townOrCity":"KIDDERMINSTER","district":"WYRE FOREST","county":"WORCESTERSHIRE","ppdCategoryType":"Standard","recordStatus":"Addition","latitude":52.385376,"longitude":-2.217392,"postcodeStart":"DY10 3","postcode":["DY10","3YR"]}
{"price":28000,"dateOfTransfer":"1996-12-12T00:00:00","postcodeFull":"DY10 3DS","propertyType":"Flat/Maisonette/Townhouse","oldOrNew":"Established","duration":"Leasehold","paon":"COMBERTON MANSIONS","saon":"FLAT 4","street":"COMBERTON ROAD","locality":"KIDDERMINSTER","townOrCity":"KIDDERMINSTER","district":"WYRE FOREST","county":"WORCESTERSHIRE","ppdCategoryType":"Standard","recordStatus":"Addition","latitude":52.382448,"longitude":-2.230144,"postcodeStart":"DY10 3","postcode":["DY10","3DS"]}
{"price":42000,"dateOfTransfer":"1996-11-15T00:00:00","postcodeFull":"DY10 3XN","propertyType":"Terraced","oldOrNew":"Established","duration":"Freehold","paon":"17","saon":"","street":"LONGFELLOW GREEN","locality":"KIDDERMINSTER","townOrCity":"KIDDERMINSTER","district":"WYRE FOREST","county":"WORCESTERSHIRE","ppdCategoryType":"Standard","recordStatus":"Addition","latitude":52.387652,"longitude":-2.221194,"postcodeStart":"DY10 3","postcode":["DY10","3XN"]}
{"price":31000,"dateOfTransfer":"1996-05-01T00:00:00","postcodeFull":"DY10 3BH","propertyType":"Terraced","oldOrNew":"Established","duration":"Freehold","paon":"22","saon":"","street":"HAWFORD AVENUE","locality":"KIDDERMINSTER","townOrCity":"KIDDERMINSTER","district":"WYRE FOREST","county":"WORCESTERSHIRE","ppdCategoryType":"Standard","recordStatus":"Addition","latitude":52.386594,"longitude":-2.229137,"postcodeStart":"DY10 3","postcode":["DY10","3BH"]}
{"price":90000,"dateOfTransfer":"1996-09-10T00:00:00","postcodeFull":"DY10 3AA","propertyType":"Detached","oldOrNew":"Established","duration":"Freehold","paon":"2","saon":"","street":"LINDEN AVENUE","locality":"KIDDERMINSTER","townOrCity":"KIDDERMINSTER","district":"WYRE FOREST","county":"WORCESTERSHIRE","ppdCategoryType":"Standard","recordStatus":"Addition","latitude":52.39112,"longitude":-2.231468,"postcodeStart":"DY10 3","postcode":["DY10","3AA"]}
{"price":35000,"dateOfTransfer":"1996-10-17T00:00:00","postcodeFull":"DY10 3AJ","propertyType":"Flat/Maisonette/Townhouse","oldOrNew":"Established","duration":"Leasehold","paon":"6","saon":"","street":"CHADDESLEY GARDENS","locality":"KIDDERMINSTER","townOrCity":"KIDDERMINSTER","district":"WYRE FOREST","county":"WORCESTERSHIRE","ppdCategoryType":"Standard","recordStatus":"Addition","latitude":52.383801,"longitude":-2.23212,"postcodeStart":"DY10 3","postcode":["DY10","3AJ"]}
{"price":54000,"dateOfTransfer":"1996-12-06T00:00:00","postcodeFull":"DY10 3XF","propertyType":"Terraced","oldOrNew":"Established","duration":"Freehold","paon":"9","saon":"","street":"CHAUCER CRESCENT","locality":"KIDDERMINSTER","townOrCity":"KIDDERMINSTER","district":"WYRE FOREST","county":"WORCESTERSHIRE","ppdCategoryType":"Standard","recordStatus":"Addition","latitude":52.386155,"longitude":-2.218615,"postcodeStart":"DY10 3","postcode":["DY10","3XF"]}
{"price":54000,"dateOfTransfer":"1996-09-27T00:00:00","postcodeFull":"DY10 3XJ","propertyType":"Semi-detached","oldOrNew":"New build","duration":"Freehold","paon":"OFFMORE COURT","saon":"6","street":"OFFMORE FARM CLOSE","locality":"KIDDERMINSTER","townOrCity":"KIDDERMINSTER","district":"WYRE FOREST","county":"WORCESTERSHIRE","ppdCategoryType":"Standard","recordStatus":"Addition","latitude":52.387389,"longitude":-2.217622,"postcodeStart":"DY10 3","postcode":["DY10","3XJ"]}
{"price":85000,"dateOfTransfer":"1996-06-28T00:00:00","postcodeFull":"DY10 3PG","propertyType":"Flat/Maisonette/Townhouse","oldOrNew":"Established","duration":"Leasehold","paon":"PENSTOCK COURT","saon":"FLAT 1","street":"HURCOTT VILLAGE","locality":"KIDDERMINSTER","townOrCity":"KIDDERMINSTER","district":"WYRE FOREST","county":"WORCESTERSHIRE","ppdCategoryType":"Standard","recordStatus":"Addition","latitude":52.398127,"longitude":-2.220452,"postcodeStart":"DY10 3","postcode":["DY10","3PG"]}
{"price":53000,"dateOfTransfer":"1996-06-14T00:00:00","postcodeFull":"DY10 3AF","propertyType":"Semi-detached","oldOrNew":"Established","duration":"Freehold","paon":"46","saon":"","street":"MERTON CLOSE","locality":"KIDDERMINSTER","townOrCity":"KIDDERMINSTER","district":"WYRE FOREST","county":"WORCESTERSHIRE","ppdCategoryType":"Standard","recordStatus":"Addition","latitude":52.3912,"longitude":-2.227795,"postcodeStart":"DY10 3","postcode":["DY10","3AF"]}
{"price":76000,"dateOfTransfer":"1996-05-03T00:00:00","postcodeFull":"DY10 3RT","propertyType":"Flat/Maisonette/Townhouse","oldOrNew":"New build","duration":"Leasehold","paon":"WESTLEY COURT","saon":"65","street":"AUSTCLIFFE LANE","locality":"COOKLEY","townOrCity":"KIDDERMINSTER","district":"WYRE FOREST","county":"WORCESTERSHIRE","ppdCategoryType":"Standard","recordStatus":"Addition","latitude":52.422197,"longitude":-2.218455,"postcodeStart":"DY10 3","postcode":["DY10","3RT"]}
{"price":62750,"dateOfTransfer":"1996-11-15T00:00:00","postcodeFull":"DY10 3QJ","propertyType":"Detached","oldOrNew":"Established","duration":"Freehold","paon":"31","saon":"","street":"HUSUM WAY","locality":"KIDDERMINSTER","townOrCity":"KIDDERMINSTER","district":"WYRE FOREST","county":"WORCESTERSHIRE","ppdCategoryType":"Standard","recordStatus":"Addition","latitude":52.392256,"longitude":-2.220835,"postcodeStart":"DY10 3","postcode":["DY10","3QJ"]}
{"price":43500,"dateOfTransfer":"1996-11-29T00:00:00","postcodeFull":"DY10 3TY","propertyType":"Terraced","oldOrNew":"Established","duration":"Freehold","paon":"54","saon":"","street":"ELEANOR HARRISON DRIVE","locality":"COOKLEY","townOrCity":"KIDDERMINSTER","district":"WYRE FOREST","county":"WORCESTERSHIRE","ppdCategoryType":"Standard","recordStatus":"Addition","latitude":52.420047,"longitude":-2.226483,"postcodeStart":"DY10 3","postcode":["DY10","3TY"]}
{"price":69000,"dateOfTransfer":"1996-07-31T00:00:00","postcodeFull":"DY10 3RT","propertyType":"Flat/Maisonette/Townhouse","oldOrNew":"Established","duration":"Leasehold","paon":"WESTLEY COURT","saon":"32","street":"AUSTCLIFFE LANE","locality":"COOKLEY","townOrCity":"KIDDERMINSTER","district":"WYRE FOREST","county":"WORCESTERSHIRE","ppdCategoryType":"Standard","recordStatus":"Addition","latitude":52.422197,"longitude":-2.218455,"postcodeStart":"DY10 3","postcode":["DY10","3RT"]}
{"price":49000,"dateOfTransfer":"1996-04-26T00:00:00","postcodeFull":"DY10 3XB","propertyType":"Semi-detached","oldOrNew":"Established","duration":"Leasehold","paon":"14","saon":"","street":"ASHDENE CLOSE","locality":"KIDDERMINSTER","townOrCity":"KIDDERMINSTER","district":"WYRE FOREST","county":"WORCESTERSHIRE","ppdCategoryType":"Standard","recordStatus":"Addition","latitude":52.384328,"longitude":-2.219664,"postcodeStart":"DY10 3","postcode":["DY10","3XB"]}
{"price":90000,"dateOfTransfer":"1996-10-28T00:00:00","postcodeFull":"DY10 3JG","propertyType":"Semi-detached","oldOrNew":"Established","duration":"Freehold","paon":"44","saon":"","street":"BELBROUGHTON ROAD","locality":"BLAKEDOWN","townOrCity":"KIDDERMINSTER","district":"WYRE FOREST","county":"WORCESTERSHIRE","ppdCategoryType":"Standard","recordStatus":"Addition","latitude":52.403192,"longitude":-2.175588,"postcodeStart":"DY10 3","postcode":["DY10","3JG"]}
{"price":155000,"dateOfTransfer":"1996-10-08T00:00:00","postcodeFull":"DY10 3ND","propertyType":"Detached","oldOrNew":"Established","duration":"Freehold","paon":"9","saon":"","street":"MILL LANE","locality":"BLAKEDOWN","townOrCity":"KIDDERMINSTER","district":"WYRE FOREST","county":"WORCESTERSHIRE","ppdCategoryType":"Standard","recordStatus":"Addition","latitude":52.406556,"longitude":-2.179835,"postcodeStart":"DY10 3","postcode":["DY10","3ND"]}
{"price":63000,"dateOfTransfer":"1996-04-12T00:00:00","postcodeFull":"DY10 3QR","propertyType":"Detached","oldOrNew":"Established","duration":"Freehold","paon":"38","saon":"","street":"SHERATON DRIVE","locality":"KIDDERMINSTER","townOrCity":"KIDDERMINSTER","district":"WYRE FOREST","county":"WORCESTERSHIRE","ppdCategoryType":"Standard","recordStatus":"Addition","latitude":52.38932,"longitude":-2.227227,"postcodeStart":"DY10 3","postcode":["DY10","3QR"]}
{"price":57500,"dateOfTransfer":"1996-04-26T00:00:00","postcodeFull":"DY10 3JE","propertyType":"Semi-detached","oldOrNew":"Established","duration":"Freehold","paon":"6","saon":"","street":"BIRMINGHAM ROAD","locality":"BLAKEDOWN","townOrCity":"KIDDERMINSTER","district":"WYRE FOREST","county":"WORCESTERSHIRE","ppdCategoryType":"Standard","recordStatus":"Addition","latitude":52.402905,"longitude":-2.180511,"postcodeStart":"DY10 3","postcode":["DY10","3JE"]}
{"price":58500,"dateOfTransfer":"1996-06-27T00:00:00","postcodeFull":"DY10 3JZ","propertyType":"Semi-detached","oldOrNew":"Established","duration":"Freehold","paon":"35","saon":"","street":"LYNWOOD DRIVE","locality":"BLAKEDOWN","townOrCity":"KIDDERMINSTER","district":"WYRE FOREST","county":"WORCESTERSHIRE","ppdCategoryType":"Standard","recordStatus":"Addition","latitude":52.405004,"longitude":-2.177786,"postcodeStart":"DY10 3","postcode":["DY10","3JZ"]}
{"price":70000,"dateOfTransfer":"1996-12-19T00:00:00","postcodeFull":"DY10 3JW","propertyType":"Terraced","oldOrNew":"Established","duration":"Freehold","paon":"45","saon":"","street":"BIRMINGHAM ROAD","locality":"BLAKEDOWN","townOrCity":"KIDDERMINSTER","district":"WYRE FOREST","county":"WORCESTERSHIRE","ppdCategoryType":"Standard","recordStatus":"Addition","latitude":52.404051,"longitude":-2.177855,"postcodeStart":"DY10 3","postcode":["DY10","3JW"]}
{"price":64000,"dateOfTransfer":"1996-07-12T00:00:00","postcodeFull":"DY10 3JS","propertyType":"Terraced","oldOrNew":"Established","duration":"Freehold","paon":"17","saon":"","street":"WHEATMILL CLOSE","locality":"BLAKEDOWN","townOrCity":"KIDDERMINSTER","district":"WYRE FOREST","county":"WORCESTERSHIRE","ppdCategoryType":"Standard","recordStatus":"Addition","latitude":52.406989,"longitude":-2.179102,"postcodeStart":"DY10 3","postcode":["DY10","3JS"]}
{"price":132000,"dateOfTransfer":"1996-06-28T00:00:00","postcodeFull":"DY10 3XJ","propertyType":"Detached","oldOrNew":"New build","duration":"Freehold","paon":"OFFMORE COURT","saon":"5","street":"OFFMORE FARM CLOSE","locality":"","townOrCity":"KIDDERMINSTER","district":"WYRE FOREST","county":"WORCESTERSHIRE","ppdCategoryType":"Standard","recordStatus":"Addition","latitude":52.387389,"longitude":-2.217622,"postcodeStart":"DY10 3","postcode":["DY10","3XJ"]}
{"price":57000,"dateOfTransfer":"1996-08-08T00:00:00","postcodeFull":"DY10 3JF","propertyType":"Semi-detached","oldOrNew":"Established","duration":"Freehold","paon":"26","saon":"","street":"FORGE LANE","locality":"BLAKEDOWN","townOrCity":"KIDDERMINSTER","district":"WYRE FOREST","county":"WORCESTERSHIRE","ppdCategoryType":"Standard","recordStatus":"Addition","latitude":52.402585,"longitude":-2.178599,"postcodeStart":"DY10 3","postcode":["DY10","3JF"]}
{"price":108000,"dateOfTransfer":"1996-08-02T00:00:00","postcodeFull":"DY10 3DG","propertyType":"Detached","oldOrNew":"Established","duration":"Freehold","paon":"38","saon":"","street":"BARNETTS CLOSE","locality":"KIDDERMINSTER","townOrCity":"KIDDERMINSTER","district":"WYRE FOREST","county":"WORCESTERSHIRE","ppdCategoryType":"Standard","recordStatus":"Addition","latitude":52.378451,"longitude":-2.227905,"postcodeStart":"DY10 3","postcode":["DY10","3DG"]}
{"price":48000,"dateOfTransfer":"1996-01-22T00:00:00","postcodeFull":"DY10 3AF","propertyType":"Semi-detached","oldOrNew":"Established","duration":"Freehold","paon":"40","saon":"","street":"MERTON CLOSE","locality":"KIDDERMINSTER","townOrCity":"KIDDERMINSTER","district":"WYRE FOREST","county":"WORCESTERSHIRE","ppdCategoryType":"Standard","recordStatus":"Addition","latitude":52.3912,"longitude":-2.227795,"postcodeStart":"DY10 3","postcode":["DY10","3AF"]}
{"price":50500,"dateOfTransfer":"1996-08-02T00:00:00","postcodeFull":"DY10 3QZ","propertyType":"Semi-detached","oldOrNew":"Established","duration":"Leasehold","paon":"15","saon":"","street":"CARLYLE AVENUE","locality":"KIDDERMINSTER","townOrCity":"KIDDERMINSTER","district":"WYRE FOREST","county":"WORCESTERSHIRE","ppdCategoryType":"Standard","recordStatus":"Addition","latitude":52.390154,"longitude":-2.224571,"postcodeStart":"DY10 3","postcode":["DY10","3QZ"]}
{"price":138000,"dateOfTransfer":"1996-11-08T00:00:00","postcodeFull":"DY10 3DG","propertyType":"Detached","oldOrNew":"Established","duration":"Freehold","paon":"4","saon":"","street":"BARNETTS CLOSE","locality":"KIDDERMINSTER","townOrCity":"KIDDERMINSTER","district":"WYRE FOREST","county":"WORCESTERSHIRE","ppdCategoryType":"Standard","recordStatus":"Addition","latitude":52.378451,"longitude":-2.227905,"postcodeStart":"DY10 3","postcode":["DY10","3DG"]}
{"price":38700,"dateOfTransfer":"1996-11-08T00:00:00","postcodeFull":"DY10 3BW","propertyType":"Terraced","oldOrNew":"Established","duration":"Freehold","paon":"17","saon":"","street":"BROOM CRESCENT","locality":"KIDDERMINSTER","townOrCity":"KIDDERMINSTER","district":"WYRE FOREST","county":"WORCESTERSHIRE","ppdCategoryType":"Standard","recordStatus":"Addition","latitude":52.385729,"longitude":-2.229912,"postcodeStart":"DY10 3","postcode":["DY10","3BW"]}
{"price":33000,"dateOfTransfer":"1996-03-01T00:00:00","postcodeFull":"DY10 3DH","propertyType":"Flat/Maisonette/Townhouse","oldOrNew":"Established","duration":"Leasehold","paon":"3","saon":"","street":"THE HAWTHORNS","locality":"KIDDERMINSTER","townOrCity":"KIDDERMINSTER","district":"WYRE FOREST","county":"WORCESTERSHIRE","ppdCategoryType":"Standard","recordStatus":"Addition","latitude":52.384471,"longitude":-2.234298,"postcodeStart":"DY10 3","postcode":["DY10","3DH"]}
{"price":59500,"dateOfTransfer":"1996-06-27T00:00:00","postcodeFull":"DY10 3QR","propertyType":"Detached","oldOrNew":"Established","duration":"Freehold","paon":"24","saon":"","street":"SHERATON DRIVE","locality":"KIDDERMINSTER","townOrCity":"KIDDERMINSTER","district":"WYRE FOREST","county":"WORCESTERSHIRE","ppdCategoryType":"Standard","recordStatus":"Addition","latitude":52.38932,"longitude":-2.227227,"postcodeStart":"DY10 3","postcode":["DY10","3QR"]}
{"price":57500,"dateOfTransfer":"1996-05-31T00:00:00","postcodeFull":"DY10 3JZ","propertyType":"Semi-detached","oldOrNew":"Established","duration":"Freehold","paon":"55","saon":"","street":"LYNWOOD DRIVE","locality":"BLAKEDOWN","townOrCity":"KIDDERMINSTER","district":"WYRE FOREST","county":"WORCESTERSHIRE","ppdCategoryType":"Standard","recordStatus":"Addition","latitude":52.405004,"longitude":-2.177786,"postcodeStart":"DY10 3","postcode":["DY10","3JZ"]}
{"price":64000,"dateOfTransfer":"1996-12-13T00:00:00","postcodeFull":"DY10 3TQ","propertyType":"Terraced","oldOrNew":"Established","duration":"Freehold","paon":"7","saon":"","street":"WEST HEAD ROAD NORTH","locality":"COOKLEY","townOrCity":"KIDDERMINSTER","district":"WYRE FOREST","county":"WORCESTERSHIRE","ppdCategoryType":"Standard","recordStatus":"Addition","latitude":52.416113,"longitude":-2.231231,"postcodeStart":"DY10 3","postcode":["DY10","3TQ"]}
{"price":500000,"dateOfTransfer":"1996-05-24T00:00:00","postcodeFull":"DY10 3LY","propertyType":"Detached","oldOrNew":"Established","duration":"Freehold","paon":"CHURCHILL COURT","saon":"","street":"","locality":"CHURCHILL","townOrCity":"KIDDERMINSTER","district":"WYRE FOREST","county":"WORCESTERSHIRE","ppdCategoryType":"Standard","recordStatus":"Addition","latitude":52.412518,"longitude":-2.178801,"postcodeStart":"DY10 3","postcode":["DY10","3LY"]}
{"price":44500,"dateOfTransfer":"1996-03-29T00:00:00","postcodeFull":"DY10 3XP","propertyType":"Semi-detached","oldOrNew":"Established","duration":"Freehold","paon":"11","saon":"","street":"ELIOT WALK","locality":"KIDDERMINSTER","townOrCity":"KIDDERMINSTER","district":"WYRE FOREST","county":"WORCESTERSHIRE","ppdCategoryType":"Standard","recordStatus":"Addition","latitude":52.387635,"longitude":-2.220415,"postcodeStart":"DY10 3","postcode":["DY10","3XP"]}
{"price":159000,"dateOfTransfer":"1996-12-31T00:00:00","postcodeFull":"DY10 3TJ","propertyType":"Detached","oldOrNew":"Established","duration":"Freehold","paon":"36","saon":"","street":"WEST HEAD ROAD NORTH","locality":"COOKLEY","townOrCity":"KIDDERMINSTER","district":"WYRE FOREST","county":"WORCESTERSHIRE","ppdCategoryType":"Standard","recordStatus":"Addition","latitude":52.416713,"longitude":-2.232455,"postcodeStart":"DY10 3","postcode":["DY10","3TJ"]}
{"price":54000,"dateOfTransfer":"1996-05-31T00:00:00","postcodeFull":"DY10 3YR","propertyType":"Semi-detached","oldOrNew":"Established","duration":"Leasehold","paon":"17","saon":"","street":"PRIOR CLOSE","locality":"KIDDERMINSTER","townOrCity":"KIDDERMINSTER","district":"WYRE FOREST","county":"WORCESTERSHIRE","ppdCategoryType":"Standard","recordStatus":"Addition","latitude":52.385376,"longitude":-2.217392,"postcodeStart":"DY10 3","postcode":["DY10","3YR"]}
{"price":99000,"dateOfTransfer":"1996-03-01T00:00:00","postcodeFull":"DY10 3XJ","propertyType":"Detached","oldOrNew":"New build","duration":"Freehold","paon":"OFFMORE COURT","saon":"4","street":"OFFMORE FARM CLOSE","locality":"KIDDERMINSTER","townOrCity":"KIDDERMINSTER","district":"WYRE FOREST","county":"WORCESTERSHIRE","ppdCategoryType":"Standard","recordStatus":"Addition","latitude":52.387389,"longitude":-2.217622,"postcodeStart":"DY10 3","postcode":["DY10","3XJ"]}
{"price":59000,"dateOfTransfer":"1996-12-06T00:00:00","postcodeFull":"DY10 3QR","propertyType":"Detached","oldOrNew":"Established","duration":"Freehold","paon":"21","saon":"","street":"SHERATON DRIVE","locality":"KIDDERMINSTER","townOrCity":"KIDDERMINSTER","district":"WYRE FOREST","county":"WORCESTERSHIRE","ppdCategoryType":"Standard","recordStatus":"Addition","latitude":52.38932,"longitude":-2.227227,"postcodeStart":"DY10 3","postcode":["DY10","3QR"]}
{"price":55000,"dateOfTransfer":"1996-05-17T00:00:00","postcodeFull":"DY10 3RT","propertyType":"Flat/Maisonette/Townhouse","oldOrNew":"New build","duration":"Leasehold","paon":"WESTLEY COURT","saon":"45","street":"AUSTCLIFFE LANE","locality":"COOKLEY","townOrCity":"KIDDERMINSTER","district":"WYRE FOREST","county":"WORCESTERSHIRE","ppdCategoryType":"Standard","recordStatus":"Addition","latitude":52.422197,"longitude":-2.218455,"postcodeStart":"DY10 3","postcode":["DY10","3RT"]}
{"price":266000,"dateOfTransfer":"1996-02-05T00:00:00","postcodeFull":"DY10 3JJ","propertyType":"Detached","oldOrNew":"Established","duration":"Freehold","paon":"81","saon":"","street":"BELBROUGHTON ROAD","locality":"BLAKEDOWN","townOrCity":"KIDDERMINSTER","district":"WYRE FOREST","county":"WORCESTERSHIRE","ppdCategoryType":"Standard","recordStatus":"Addition","latitude":52.401513,"longitude":-2.167748,"postcodeStart":"DY10 3","postcode":["DY10","3JJ"]}
{"price":75750,"dateOfTransfer":"1996-10-31T00:00:00","postcodeFull":"DY10 3DX","propertyType":"Detached","oldOrNew":"Established","duration":"Freehold","paon":"68","saon":"","street":"COMBERTON ROAD","locality":"KIDDERMINSTER","townOrCity":"KIDDERMINSTER","district":"WYRE FOREST","county":"WORCESTERSHIRE","ppdCategoryType":"Standard","recordStatus":"Addition","latitude":52.379549,"longitude":-2.227206,"postcodeStart":"DY10 3","postcode":["DY10","3DX"]}
{"price":72000,"dateOfTransfer":"1996-09-27T00:00:00","postcodeFull":"DY10 3UG","propertyType":"Detached","oldOrNew":"Established","duration":"Freehold","paon":"40","saon":"","street":"LIONFIELDS ROAD","locality":"COOKLEY","townOrCity":"KIDDERMINSTER","district":"WYRE FOREST","county":"WORCESTERSHIRE","ppdCategoryType":"Standard","recordStatus":"Addition","latitude":52.417953,"longitude":-2.228521,"postcodeStart":"DY10 3","postcode":["DY10","3UG"]}
{"price":52000,"dateOfTransfer":"1996-05-23T00:00:00","postcodeFull":"DY10 3UE","propertyType":"Semi-detached","oldOrNew":"Established","duration":"Freehold","paon":"12","saon":"","street":"BEESTON ROAD","locality":"COOKLEY","townOrCity":"KIDDERMINSTER","district":"WYRE FOREST","county":"WORCESTERSHIRE","ppdCategoryType":"Standard","recordStatus":"Addition","latitude":52.419388,"longitude":-2.230234,"postcodeStart":"DY10 3","postcode":["DY10","3UE"]}
{"price":41600,"dateOfTransfer":"1996-11-15T00:00:00","postcodeFull":"DY10 3BJ","propertyType":"Semi-detached","oldOrNew":"Established","duration":"Freehold","paon":"1","saon":"","street":"NORTON ROAD","locality":"KIDDERMINSTER","townOrCity":"KIDDERMINSTER","district":"WYRE FOREST","county":"WORCESTERSHIRE","ppdCategoryType":"Standard","recordStatus":"Addition","latitude":52.387116,"longitude":-2.228111,"postcodeStart":"DY10 3","postcode":["DY10","3BJ"]}
{"price":59500,"dateOfTransfer":"1996-11-25T00:00:00","postcodeFull":"DY10 3JZ","propertyType":"Semi-detached","oldOrNew":"Established","duration":"Freehold","paon":"27","saon":"","street":"LYNWOOD DRIVE","locality":"BLAKEDOWN","townOrCity":"KIDDERMINSTER","district":"WYRE FOREST","county":"WORCESTERSHIRE","ppdCategoryType":"Standard","recordStatus":"Addition","latitude":52.405004,"longitude":-2.177786,"postcodeStart":"DY10 3","postcode":["DY10","3JZ"]}
{"price":30000,"dateOfTransfer":"1996-01-26T00:00:00","postcodeFull":"DY10 3DH","propertyType":"Flat/Maisonette/Townhouse","oldOrNew":"Established","duration":"Leasehold","paon":"8","saon":"","street":"THE HAWTHORNS","locality":"KIDDERMINSTER","townOrCity":"KIDDERMINSTER","district":"WYRE FOREST","county":"WORCESTERSHIRE","ppdCategoryType":"Standard","recordStatus":"Addition","latitude":52.384471,"longitude":-2.234298,"postcodeStart":"DY10 3","postcode":["DY10","3DH"]}
{"price":38000,"dateOfTransfer":"1996-06-19T00:00:00","postcodeFull":"DY10 3DW","propertyType":"Flat/Maisonette/Townhouse","oldOrNew":"Established","duration":"Leasehold","paon":"6","saon":"","street":"SOMERLEYTON COURT","locality":"KIDDERMINSTER","townOrCity":"KIDDERMINSTER","district":"WYRE FOREST","county":"WORCESTERSHIRE","ppdCategoryType":"Standard","recordStatus":"Addition","latitude":52.383328,"longitude":-2.230472,"postcodeStart":"DY10 3","postcode":["DY10","3DW"]}
{"price":41800,"dateOfTransfer":"1996-07-31T00:00:00","postcodeFull":"DY10 3DT","propertyType":"Detached","oldOrNew":"Established","duration":"Freehold","paon":"45","saon":"","street":"COMBERTON ROAD","locality":"KIDDERMINSTER","townOrCity":"KIDDERMINSTER","district":"WYRE FOREST","county":"WORCESTERSHIRE","ppdCategoryType":"Standard","recordStatus":"Addition","latitude":52.381615,"longitude":-2.22823,"postcodeStart":"DY10 3","postcode":["DY10","3DT"]}
{"price":77900,"dateOfTransfer":"1996-12-20T00:00:00","postcodeFull":"DY10 3AG","propertyType":"Detached","oldOrNew":"Established","duration":"Freehold","paon":"22","saon":"","street":"HOLMCROFT ROAD","locality":"KIDDERMINSTER","townOrCity":"KIDDERMINSTER","district":"WYRE FOREST","county":"WORCESTERSHIRE","ppdCategoryType":"Standard","recordStatus":"Addition","latitude":52.385612,"longitude":-2.230381,"postcodeStart":"DY10 3","postcode":["DY10","3AG"]}
{"price":55000,"dateOfTransfer":"1996-08-09T00:00:00","postcodeFull":"DY10 3AE","propertyType":"Semi-detached","oldOrNew":"Established","duration":"Leasehold","paon":"31","saon":"","street":"MERTON CLOSE","locality":"KIDDERMINSTER","townOrCity":"KIDDERMINSTER","district":"WYRE FOREST","county":"WORCESTERSHIRE","ppdCategoryType":"Standard","recordStatus":"Addition","latitude":52.391587,"longitude":-2.227091,"postcodeStart":"DY10 3","postcode":["DY10","3AE"]}
{"price":115000,"dateOfTransfer":"1996-07-05T00:00:00","postcodeFull":"DY10 3JZ","propertyType":"Detached","oldOrNew":"Established","duration":"Freehold","paon":"3","saon":"","street":"LYNWOOD DRIVE","locality":"BLAKEDOWN","townOrCity":"KIDDERMINSTER","district":"WYRE FOREST","county":"WORCESTERSHIRE","ppdCategoryType":"Standard","recordStatus":"Addition","latitude":52.405004,"longitude":-2.177786,"postcodeStart":"DY10 3","postcode":["DY10","3JZ"]}
{"price":67000,"dateOfTransfer":"1996-03-27T00:00:00","postcodeFull":"DY10 3XJ","propertyType":"Detached","oldOrNew":"New build","duration":"Freehold","paon":"OFFMORE COURT","saon":"2","street":"OFFMORE FARM CLOSE","locality":"KIDDERMINSTER","townOrCity":"KIDDERMINSTER","district":"WYRE FOREST","county":"WORCESTERSHIRE","ppdCategoryType":"Standard","recordStatus":"Addition","latitude":52.387389,"longitude":-2.217622,"postcodeStart":"DY10 3","postcode":["DY10","3XJ"]}
{"price":255000,"dateOfTransfer":"1996-04-30T00:00:00","postcodeFull":"DY10 3LD","propertyType":"Detached","oldOrNew":"Established","duration":"Freehold","paon":"9","saon":"","street":"NEW WOOD LANE","locality":"BLAKEDOWN","townOrCity":"KIDDERMINSTER","district":"WYRE FOREST","county":"WORCESTERSHIRE","ppdCategoryType":"Standard","recordStatus":"Addition","latitude":52.398685,"longitude":-2.183331,"postcodeStart":"DY10 3","postcode":["DY10","3LD"]}
{"price":70000,"dateOfTransfer":"1996-07-30T00:00:00","postcodeFull":"DY10 3EG","propertyType":"Detached","oldOrNew":"Established","duration":"Freehold","paon":"40","saon":"","street":"COMBERTON AVENUE","locality":"KIDDERMINSTER","townOrCity":"KIDDERMINSTER","district":"WYRE FOREST","county":"WORCESTERSHIRE","ppdCategoryType":"Standard","recordStatus":"Addition","latitude":52.382841,"longitude":-2.226752,"postcodeStart":"DY10 3","postcode":["DY10","3EG"]}
{"price":30000,"dateOfTransfer":"1996-07-19T00:00:00","postcodeFull":"DY10 3DH","propertyType":"Flat/Maisonette/Townhouse","oldOrNew":"Established","duration":"Leasehold","paon":"6","saon":"","street":"THE HAWTHORNS","locality":"KIDDERMINSTER","townOrCity":"KIDDERMINSTER","district":"WYRE FOREST","county":"WORCESTERSHIRE","ppdCategoryType":"Standard","recordStatus":"Addition","latitude":52.384471,"longitude":-2.234298,"postcodeStart":"DY10 3","postcode":["DY10","3DH"]}
