{"price":132000,"dateOfTransfer":"1995-12-11T00:00:00","postcodeFull":"E14 8EG","propertyType":"Flat/Maisonette/Townhouse","oldOrNew":"Established","duration":"Leasehold","paon":"25A","saon":"","street":"GOODHART PLACE","locality":"LONDON","townOrCity":"LONDON","district":"TOWER HAMLETS","county":"GREATER LONDON","ppdCategoryType":"Standard","recordStatus":"Addition","latitude":51.510467,"longitude":-0.037672,"postcodeStart":"E14 8","postcode":["E14","8EG"]}
{"price":135000,"dateOfTransfer":"1995-08-03T00:00:00","postcodeFull":"E14 8EG","propertyType":"Flat/Maisonette/Townhouse","oldOrNew":"Established","duration":"Leasehold","paon":"36","saon":"","street":"GOODHART PLACE","locality":"LONDON","townOrCity":"LONDON","district":"TOWER HAMLETS","county":"GREATER LONDON","ppdCategoryType":"Standard","recordStatus":"Addition","latitude":51.510467,"longitude":-0.037672,"postcodeStart":"E14 8","postcode":["E14","8EG"]}
{"price":107000,"dateOfTransfer":"1995-04-03T00:00:00","postcodeFull":"E14 8EG","propertyType":"Flat/Maisonette/Townhouse","oldOrNew":"Established","duration":"Leasehold","paon":"3","saon":"","street":"GOODHART PLACE","locality":"LONDON","townOrCity":"LONDON","district":"TOWER HAMLETS","county":"GREATER LONDON","ppdCategoryType":"Standard","recordStatus":"Addition","latitude":51.510467,"longitude":-0.037672,"postcodeStart":"E14 8","postcode":["E14","8EG"]}
{"price":103000,"dateOfTransfer":"1995-08-10T00:00:00","postcodeFull":"E14 8JL","propertyType":"Flat/Maisonette/Townhouse","oldOrNew":"Established","duration":"Leasehold","paon":"CASCADES TOWER, 4","saon":"FLAT 310","street":"WESTFERRY ROAD","locality":"LONDON","townOrCity":"LONDON","district":"TOWER HAMLETS","county":"GREATER LONDON","ppdCategoryType":"Standard","recordStatus":"Addition","latitude":51.502456,"longitude":-0.027008,"postcodeStart":"E14 8","postcode":["E14","8JL"]}
{"price":105000,"dateOfTransfer":"1995-12-21T00:00:00","postcodeFull":"E14 8BZ","propertyType":"Flat/Maisonette/Townhouse","oldOrNew":"Established","duration":"Leasehold","paon":"PAPER MILL WHARF, 50","saon":"FLAT 57","street":"NARROW STREET","locality":"LONDON","townOrCity":"LONDON","district":"TOWER HAMLETS","county":"GREATER LONDON","ppdCategoryType":"Standard","recordStatus":"Addition","latitude":51.509219,"longitude":-0.035665,"postcodeStart":"E14 8","postcode":["E14","8BZ"]}
{"price":93950,"dateOfTransfer":"1995-08-15T00:00:00","postcodeFull":"E14 8EG","propertyType":"Flat/Maisonette/Townhouse","oldOrNew":"Established","duration":"Leasehold","paon":"26","saon":"","street":"GOODHART PLACE","locality":"LONDON","townOrCity":"LONDON","district":"TOWER HAMLETS","county":"GREATER LONDON","ppdCategoryType":"Standard","recordStatus":"Addition","latitude":51.510467,"longitude":-0.037672,"postcodeStart":"E14 8","postcode":["E14","8EG"]}
{"price":130000,"dateOfTransfer":"1995-06-02T00:00:00","postcodeFull":"E14 8EQ","propertyType":"Flat/Maisonette/Townhouse","oldOrNew":"Established","duration":"Leasehold","paon":"56","saon":"","street":"GOODHART PLACE","locality":"LONDON","townOrCity":"LONDON","district":"TOWER HAMLETS","county":"GREATER LONDON","ppdCategoryType":"Standard","recordStatus":"Addition","latitude":51.510044,"longitude":-0.037128,"postcodeStart":"E14 8","postcode":["E14","8EQ"]}
{"price":88000,"dateOfTransfer":"1995-09-05T00:00:00","postcodeFull":"E14 8JL","propertyType":"Flat/Maisonette/Townhouse","oldOrNew":"Established","duration":"Leasehold","paon":"CASCADES TOWER, 4","saon":"FLAT 2","street":"WESTFERRY ROAD","locality":"LONDON","townOrCity":"LONDON","district":"TOWER HAMLETS","county":"GREATER LONDON","ppdCategoryType":"Standard","recordStatus":"Addition","latitude":51.502456,"longitude":-0.027008,"postcodeStart":"E14 8","postcode":["E14","8JL"]}
{"price":65000,"dateOfTransfer":"1995-04-21T00:00:00","postcodeFull":"E14 8NJ","propertyType":"Terraced","oldOrNew":"Established","duration":"Freehold","paon":"13","saon":"","street":"CLAIRE PLACE","locality":"LONDON","townOrCity":"LONDON","district":"TOWER HAMLETS","county":"GREATER LONDON","ppdCategoryType":"Standard","recordStatus":"Addition","latitude":51.495958,"longitude":-0.022995,"postcodeStart":"E14 8","postcode":["E14","8NJ"]}
{"price":148000,"dateOfTransfer":"1995-10-19T00:00:00","postcodeFull":"E14 8BU","propertyType":"Flat/Maisonette/Townhouse","oldOrNew":"Established","duration":"Leasehold","paon":"DUKE SHORE WHARF, 106","saon":"FLAT 15","street":"NARROW STREET","locality":"LONDON","townOrCity":"LONDON","district":"TOWER HAMLETS","county":"GREATER LONDON","ppdCategoryType":"Standard","recordStatus":"Addition","latitude":51.508467,"longitude":-0.032599,"postcodeStart":"E14 8","postcode":["E14","8BU"]}
{"price":139000,"dateOfTransfer":"1995-06-28T00:00:00","postcodeFull":"E14 8EG","propertyType":"Flat/Maisonette/Townhouse","oldOrNew":"Established","duration":"Leasehold","paon":"37","saon":"","street":"GOODHART PLACE","locality":"LONDON","townOrCity":"LONDON","district":"TOWER HAMLETS","county":"GREATER LONDON","ppdCategoryType":"Standard","recordStatus":"Addition","latitude":51.510467,"longitude":-0.037672,"postcodeStart":"E14 8","postcode":["E14","8EG"]}
{"price":75500,"dateOfTransfer":"1995-06-02T00:00:00","postcodeFull":"E14 8JG","propertyType":"Semi-detached","oldOrNew":"Established","duration":"Freehold","paon":"16","saon":"","street":"GARFORD STREET","locality":"LONDON","townOrCity":"LONDON","district":"TOWER HAMLETS","county":"GREATER LONDON","ppdCategoryType":"Standard","recordStatus":"Addition","latitude":51.508638,"longitude":-0.025646,"postcodeStart":"E14 8","postcode":["E14","8JG"]}
{"price":29750,"dateOfTransfer":"1995-02-28T00:00:00","postcodeFull":"E14 8NJ","propertyType":"Terraced","oldOrNew":"Established","duration":"Leasehold","paon":"22","saon":"","street":"CLAIRE PLACE","locality":"","townOrCity":"LONDON","district":"TOWER HAMLETS","county":"GREATER LONDON","ppdCategoryType":"Standard","recordStatus":"Addition","latitude":51.495958,"longitude":-0.022995,"postcodeStart":"E14 8","postcode":["E14","8NJ"]}
{"price":39995,"dateOfTransfer":"1995-03-24T00:00:00","postcodeFull":"E14 8EL","propertyType":"Flat/Maisonette/Townhouse","oldOrNew":"Established","duration":"Leasehold","paon":"72","saon":"","street":"MORANT STREET","locality":"","townOrCity":"LONDON","district":"TOWER HAMLETS","county":"GREATER LONDON","ppdCategoryType":"Standard","recordStatus":"Addition","latitude":51.510275,"longitude":-0.021958,"postcodeStart":"E14 8","postcode":["E14","8EL"]}
{"price":138000,"dateOfTransfer":"1995-10-31T00:00:00","postcodeFull":"E14 8EG","propertyType":"Flat/Maisonette/Townhouse","oldOrNew":"Established","duration":"Leasehold","paon":"25","saon":"","street":"GOODHART PLACE","locality":"LONDON","townOrCity":"LONDON","district":"TOWER HAMLETS","county":"GREATER LONDON","ppdCategoryType":"Standard","recordStatus":"Addition","latitude":51.510467,"longitude":-0.037672,"postcodeStart":"E14 8","postcode":["E14","8EG"]}
{"price":101000,"dateOfTransfer":"1995-02-15T00:00:00","postcodeFull":"E14 8JL","propertyType":"Flat/Maisonette/Townhouse","oldOrNew":"Established","duration":"Leasehold","paon":"CASCADES TOWER, 4","saon":"FLAT 406","street":"WESTFERRY ROAD","locality":"LONDON","townOrCity":"LONDON","district":"TOWER HAMLETS","county":"GREATER LONDON","ppdCategoryType":"Standard","recordStatus":"Addition","latitude":51.502456,"longitude":-0.027008,"postcodeStart":"E14 8","postcode":["E14","8JL"]}
{"price":118500,"dateOfTransfer":"1995-07-07T00:00:00","postcodeFull":"E14 8LR","propertyType":"Flat/Maisonette/Townhouse","oldOrNew":"Established","duration":"Leasehold","paon":"JEFFERSON BUILDING, 12","saon":"FLAT 251","street":"WESTFERRY ROAD","locality":"LONDON","townOrCity":"LONDON","district":"TOWER HAMLETS","county":"GREATER LONDON","ppdCategoryType":"Standard","recordStatus":"Addition","latitude":51.501327,"longitude":-0.026207,"postcodeStart":"E14 8","postcode":["E14","8LR"]}
{"price":275000,"dateOfTransfer":"1995-08-08T00:00:00","postcodeFull":"E14 8BP","propertyType":"Flat/Maisonette/Townhouse","oldOrNew":"Established","duration":"Leasehold","paon":"148 - 150","saon":"FLAT 2","street":"NARROW STREET","locality":"LONDON","townOrCity":"LONDON","district":"TOWER HAMLETS","county":"GREATER LONDON","ppdCategoryType":"Standard","recordStatus":"Addition","latitude":51.508546,"longitude":-0.033014,"postcodeStart":"E14 8","postcode":["E14","8BP"]}
{"price":138500,"dateOfTransfer":"1995-10-26T00:00:00","postcodeFull":"E14 8EG","propertyType":"Flat/Maisonette/Townhouse","oldOrNew":"Established","duration":"Leasehold","paon":"23","saon":"","street":"GOODHART PLACE","locality":"LONDON","townOrCity":"LONDON","district":"TOWER HAMLETS","county":"GREATER LONDON","ppdCategoryType":"Standard","recordStatus":"Addition","latitude":51.510467,"longitude":-0.037672,"postcodeStart":"E14 8","postcode":["E14","8EG"]}
{"price":110000,"dateOfTransfer":"1995-01-03T00:00:00","postcodeFull":"E14 8BU","propertyType":"Flat/Maisonette/Townhouse","oldOrNew":"Established","duration":"Leasehold","paon":"DUKE SHORE WHARF, 106","saon":"FLAT 22","street":"NARROW STREET","locality":"LONDON","townOrCity":"LONDON","district":"TOWER HAMLETS","county":"GREATER LONDON","ppdCategoryType":"Standard","recordStatus":"Addition","latitude":51.508467,"longitude":-0.032599,"postcodeStart":"E14 8","postcode":["E14","8BU"]}
{"price":140000,"dateOfTransfer":"1995-06-23T00:00:00","postcodeFull":"E14 8EG","propertyType":"Flat/Maisonette/Townhouse","oldOrNew":"Established","duration":"Leasehold","paon":"35","saon":"","street":"GOODHART PLACE","locality":"LONDON","townOrCity":"LONDON","district":"TOWER HAMLETS","county":"GREATER LONDON","ppdCategoryType":"Standard","recordStatus":"Addition","latitude":51.510467,"longitude":-0.037672,"postcodeStart":"E14 8","postcode":["E14","8EG"]}
{"price":135000,"dateOfTransfer":"1995-08-18T00:00:00","postcodeFull":"E14 8EQ","propertyType":"Flat/Maisonette/Townhouse","oldOrNew":"Established","duration":"Leasehold","paon":"75","saon":"","street":"GOODHART PLACE","locality":"LONDON","townOrCity":"LONDON","district":"TOWER HAMLETS","county":"GREATER LONDON","ppdCategoryType":"Standard","recordStatus":"Addition","latitude":51.510044,"longitude":-0.037128,"postcodeStart":"E14 8","postcode":["E14","8EQ"]}
{"price":142500,"dateOfTransfer":"1995-07-10T00:00:00","postcodeFull":"E14 8EG","propertyType":"Flat/Maisonette/Townhouse","oldOrNew":"Established","duration":"Leasehold","paon":"24","saon":"","street":"GOODHART PLACE","locality":"LONDON","townOrCity":"LONDON","district":"TOWER HAMLETS","county":"GREATER LONDON","ppdCategoryType":"Standard","recordStatus":"Addition","latitude":51.510467,"longitude":-0.037672,"postcodeStart":"E14 8","postcode":["E14","8EG"]}
{"price":90000,"dateOfTransfer":"1995-08-22T00:00:00","postcodeFull":"E14 8EG","propertyType":"Flat/Maisonette/Townhouse","oldOrNew":"Established","duration":"Leasehold","paon":"20","saon":"","street":"GOODHART PLACE","locality":"LONDON","townOrCity":"LONDON","district":"TOWER HAMLETS","county":"GREATER LONDON","ppdCategoryType":"Standard","recordStatus":"Addition","latitude":51.510467,"longitude":-0.037672,"postcodeStart":"E14 8","postcode":["E14","8EG"]}
{"price":87500,"dateOfTransfer":"1995-01-25T00:00:00","postcodeFull":"E14 8BZ","propertyType":"Flat/Maisonette/Townhouse","oldOrNew":"Established","duration":"Leasehold","paon":"PAPER MILL WHARF, 50","saon":"FLAT 43","street":"NARROW STREET","locality":"LONDON","townOrCity":"LONDON","district":"TOWER HAMLETS","county":"GREATER LONDON","ppdCategoryType":"Standard","recordStatus":"Addition","latitude":51.509219,"longitude":-0.035665,"postcodeStart":"E14 8","postcode":["E14","8BZ"]}
{"price":94000,"dateOfTransfer":"1995-07-12T00:00:00","postcodeFull":"E14 8EG","propertyType":"Flat/Maisonette/Townhouse","oldOrNew":"Established","duration":"Leasehold","paon":"27","saon":"","street":"GOODHART PLACE","locality":"LONDON","townOrCity":"LONDON","district":"TOWER HAMLETS","county":"GREATER LONDON","ppdCategoryType":"Standard","recordStatus":"Addition","latitude":51.510467,"longitude":-0.037672,"postcodeStart":"E14 8","postcode":["E14","8EG"]}
{"price":50995,"dateOfTransfer":"1995-04-13T00:00:00","postcodeFull":"E14 8LH","propertyType":"Terraced","oldOrNew":"Established","duration":"Freehold","paon":"44","saon":"","street":"ALPHA GROVE","locality":"LONDON","townOrCity":"LONDON","district":"TOWER HAMLETS","county":"GREATER LONDON","ppdCategoryType":"Standard","recordStatus":"Addition","latitude":51.499136,"longitude":-0.023737,"postcodeStart":"E14 8","postcode":["E14","8LH"]}
{"price":137000,"dateOfTransfer":"1995-11-30T00:00:00","postcodeFull":"E14 8EG","propertyType":"Flat/Maisonette/Townhouse","oldOrNew":"Established","duration":"Leasehold","paon":"32","saon":"","street":"GOODHART PLACE","locality":"LONDON","townOrCity":"LONDON","district":"TOWER HAMLETS","county":"GREATER LONDON","ppdCategoryType":"Standard","recordStatus":"Addition","latitude":51.510467,"longitude":-0.037672,"postcodeStart":"E14 8","postcode":["E14","8EG"]}
{"price":208000,"dateOfTransfer":"1995-02-27T00:00:00","postcodeFull":"E14 8BZ","propertyType":"Flat/Maisonette/Townhouse","oldOrNew":"Established","duration":"Leasehold","paon":"PAPER MILL WHARF, 50","saon":"FLAT 62","street":"NARROW STREET","locality":"LONDON","townOrCity":"LONDON","district":"TOWER HAMLETS","county":"GREATER LONDON","ppdCategoryType":"Standard","recordStatus":"Addition","latitude":51.509219,"longitude":-0.035665,"postcodeStart":"E14 8","postcode":["E14","8BZ"]}
{"price":132000,"dateOfTransfer":"1995-12-15T00:00:00","postcodeFull":"E14 8EG","propertyType":"Flat/Maisonette/Townhouse","oldOrNew":"Established","duration":"Leasehold","paon":"32A","saon":"","street":"GOODHART PLACE","locality":"LONDON","townOrCity":"LONDON","district":"TOWER HAMLETS","county":"GREATER LONDON","ppdCategoryType":"Standard","recordStatus":"Addition","latitude":51.510467,"longitude":-0.037672,"postcodeStart":"E14 8","postcode":["E14","8EG"]}
{"price":96000,"dateOfTransfer":"1995-09-08T00:00:00","postcodeFull":"E14 8EG","propertyType":"Flat/Maisonette/Townhouse","oldOrNew":"Established","duration":"Leasehold","paon":"33","saon":"","street":"GOODHART PLACE","locality":"LONDON","townOrCity":"LONDON","district":"TOWER HAMLETS","county":"GREATER LONDON","ppdCategoryType":"Standard","recordStatus":"Addition","latitude":51.510467,"longitude":-0.037672,"postcodeStart":"E14 8","postcode":["E14","8EG"]}
{"price":142500,"dateOfTransfer":"1995-07-07T00:00:00","postcodeFull":"E14 8EG","propertyType":"Flat/Maisonette/Townhouse","oldOrNew":"Established","duration":"Leasehold","paon":"31","saon":"","street":"GOODHART PLACE","locality":"LONDON","townOrCity":"LONDON","district":"TOWER HAMLETS","county":"GREATER LONDON","ppdCategoryType":"Standard","recordStatus":"Addition","latitude":51.510467,"longitude":-0.037672,"postcodeStart":"E14 8","postcode":["E14","8EG"]}
{"price":86000,"dateOfTransfer":"1995-08-31T00:00:00","postcodeFull":"E14 8JL","propertyType":"Flat/Maisonette/Townhouse","oldOrNew":"Established","duration":"Leasehold","paon":"CASCADES TOWER, 4","saon":"FLAT 3","street":"WESTFERRY ROAD","locality":"LONDON","townOrCity":"LONDON","district":"TOWER HAMLETS","county":"GREATER LONDON","ppdCategoryType":"Standard","recordStatus":"Addition","latitude":51.502456,"longitude":-0.027008,"postcodeStart":"E14 8","postcode":["E14","8JL"]}
{"price":145000,"dateOfTransfer":"1995-05-31T00:00:00","postcodeFull":"E14 8EQ","propertyType":"Flat/Maisonette/Townhouse","oldOrNew":"Established","duration":"Leasehold","paon":"71","saon":"","street":"GOODHART PLACE","locality":"LONDON","townOrCity":"LONDON","district":"TOWER HAMLETS","county":"GREATER LONDON","ppdCategoryType":"Standard","recordStatus":"Addition","latitude":51.510044,"longitude":-0.037128,"postcodeStart":"E14 8","postcode":["E14","8EQ"]}
{"price":182500,"dateOfTransfer":"1995-06-19T00:00:00","postcodeFull":"E14 8EQ","propertyType":"Flat/Maisonette/Townhouse","oldOrNew":"Established","duration":"Leasehold","paon":"48","saon":"","street":"GOODHART PLACE","locality":"LONDON","townOrCity":"LONDON","district":"TOWER HAMLETS","county":"GREATER LONDON","ppdCategoryType":"Standard","recordStatus":"Addition","latitude":51.510044,"longitude":-0.037128,"postcodeStart":"E14 8","postcode":["E14","8EQ"]}
{"price":122500,"dateOfTransfer":"1995-11-06T00:00:00","postcodeFull":"E14 8JW","propertyType":"Flat/Maisonette/Townhouse","oldOrNew":"Established","duration":"Leasehold","paon":"CASCADES TOWER, 4","saon":"FLAT 1504","street":"WESTFERRY ROAD","locality":"LONDON","townOrCity":"LONDON","district":"TOWER HAMLETS","county":"GREATER LONDON","ppdCategoryType":"Standard","recordStatus":"Addition","latitude":51.502456,"longitude":-0.027008,"postcodeStart":"E14 8","postcode":["E14","8JW"]}
{"price":143250,"dateOfTransfer":"1995-07-07T00:00:00","postcodeFull":"E14 8EG","propertyType":"Flat/Maisonette/Townhouse","oldOrNew":"Established","duration":"Leasehold","paon":"30","saon":"","street":"GOODHART PLACE","locality":"LONDON","townOrCity":"LONDON","district":"TOWER HAMLETS","county":"GREATER LONDON","ppdCategoryType":"Standard","recordStatus":"Addition","latitude":51.510467,"longitude":-0.037672,"postcodeStart":"E14 8","postcode":["E14","8EG"]}
{"price":130000,"dateOfTransfer":"1995-11-17T00:00:00","postcodeFull":"E14 8BU","propertyType":"Flat/Maisonette/Townhouse","oldOrNew":"Established","duration":"Leasehold","paon":"DUKE SHORE WHARF, 106","saon":"FLAT 20","street":"NARROW STREET","locality":"LONDON","townOrCity":"LONDON","district":"TOWER HAMLETS","county":"GREATER LONDON","ppdCategoryType":"Standard","recordStatus":"Addition","latitude":51.508467,"longitude":-0.032599,"postcodeStart":"E14 8","postcode":["E14","8BU"]}
{"price":136000,"dateOfTransfer":"1995-08-16T00:00:00","postcodeFull":"E14 8EG","propertyType":"Flat/Maisonette/Townhouse","oldOrNew":"Established","duration":"Leasehold","paon":"39A","saon":"","street":"GOODHART PLACE","locality":"LONDON","townOrCity":"LONDON","district":"TOWER HAMLETS","county":"GREATER LONDON","ppdCategoryType":"Standard","recordStatus":"Addition","latitude":51.510467,"longitude":-0.037672,"postcodeStart":"E14 8","postcode":["E14","8EG"]}
{"price":169500,"dateOfTransfer":"1995-08-21T00:00:00","postcodeFull":"E14 8DL","propertyType":"Flat/Maisonette/Townhouse","oldOrNew":"Established","duration":"Leasehold","paon":"11","saon":"","street":"ST GEORGES SQUARE","locality":"LONDON","townOrCity":"LONDON","district":"TOWER HAMLETS","county":"GREATER LONDON","ppdCategoryType":"Standard","recordStatus":"Addition","latitude":51.510444,"longitude":-0.041146,"postcodeStart":"E14 8","postcode":["E14","8DL"]}
{"price":87000,"dateOfTransfer":"1995-06-22T00:00:00","postcodeFull":"E14 8EG","propertyType":"Flat/Maisonette/Townhouse","oldOrNew":"Established","duration":"Leasehold","paon":"34","saon":"","street":"GOODHART PLACE","locality":"LONDON","townOrCity":"LONDON","district":"TOWER HAMLETS","county":"GREATER LONDON","ppdCategoryType":"Standard","recordStatus":"Addition","latitude":51.510467,"longitude":-0.037672,"postcodeStart":"E14 8","postcode":["E14","8EG"]}
{"price":81000,"dateOfTransfer":"1995-09-29T00:00:00","postcodeFull":"E14 8PJ","propertyType":"Terraced","oldOrNew":"Established","duration":"Freehold","paon":"153","saon":"","street":"MELLISH STREET","locality":"LONDON","townOrCity":"LONDON","district":"TOWER HAMLETS","county":"GREATER LONDON","ppdCategoryType":"Standard","recordStatus":"Addition","latitude":51.496856,"longitude":-0.020262,"postcodeStart":"E14 8","postcode":["E14","8PJ"]}
{"price":101000,"dateOfTransfer":"1995-03-15T00:00:00","postcodeFull":"E14 8JL","propertyType":"Flat/Maisonette/Townhouse","oldOrNew":"Established","duration":"Leasehold","paon":"CASCADES TOWER, 4","saon":"FLAT 312","street":"WESTFERRY ROAD","locality":"LONDON","townOrCity":"LONDON","district":"TOWER HAMLETS","county":"GREATER LONDON","ppdCategoryType":"Standard","recordStatus":"Addition","latitude":51.502456,"longitude":-0.027008,"postcodeStart":"E14 8","postcode":["E14","8JL"]}
{"price":185000,"dateOfTransfer":"1995-04-21T00:00:00","postcodeFull":"E14 8EQ","propertyType":"Flat/Maisonette/Townhouse","oldOrNew":"Established","duration":"Leasehold","paon":"68","saon":"","street":"GOODHART PLACE","locality":"LONDON","townOrCity":"LONDON","district":"TOWER HAMLETS","county":"GREATER LONDON","ppdCategoryType":"Standard","recordStatus":"Addition","latitude":51.510044,"longitude":-0.037128,"postcodeStart":"E14 8","postcode":["E14","8EQ"]}
{"price":90000,"dateOfTransfer":"1995-02-17T00:00:00","postcodeFull":"E14 8JN","propertyType":"Flat/Maisonette/Townhouse","oldOrNew":"Established","duration":"Leasehold","paon":"CASCADES TOWER, 4","saon":"FLAT 905","street":"WESTFERRY ROAD","locality":"LONDON","townOrCity":"LONDON","district":"TOWER HAMLETS","county":"GREATER LONDON","ppdCategoryType":"Standard","recordStatus":"Addition","latitude":51.502456,"longitude":-0.027008,"postcodeStart":"E14 8","postcode":["E14","8JN"]}
{"price":320000,"dateOfTransfer":"1995-11-15T00:00:00","postcodeFull":"E14 8BF","propertyType":"Terraced","oldOrNew":"Established","duration":"Freehold","paon":"6","saon":"","street":"BLYTHS WHARF","locality":"LONDON","townOrCity":"LONDON","district":"TOWER HAMLETS","county":"GREATER LONDON","ppdCategoryType":"Standard","recordStatus":"Addition","latitude":51.509004,"longitude":-0.034608,"postcodeStart":"E14 8","postcode":["E14","8BF"]}
{"price":90000,"dateOfTransfer":"1995-12-21T00:00:00","postcodeFull":"E14 8BZ","propertyType":"Flat/Maisonette/Townhouse","oldOrNew":"Established","duration":"Leasehold","paon":"PAPER MILL WHARF, 50","saon":"FLAT 38","street":"NARROW STREET","locality":"LONDON","townOrCity":"LONDON","district":"TOWER HAMLETS","county":"GREATER LONDON","ppdCategoryType":"Standard","recordStatus":"Addition","latitude":51.509219,"longitude":-0.035665,"postcodeStart":"E14 8","postcode":["E14","8BZ"]}
{"price":215000,"dateOfTransfer":"1995-01-20T00:00:00","postcodeFull":"E14 8NF","propertyType":"Flat/Maisonette/Townhouse","oldOrNew":"Established","duration":"Leasehold","paon":"ANCHORAGE POINT, 42","saon":"FLAT 71","street":"CUBA STREET","locality":"LONDON","townOrCity":"LONDON","district":"TOWER HAMLETS","county":"GREATER LONDON","ppdCategoryType":"Standard","recordStatus":"Addition","latitude":51.501944,"longitude":-0.027088,"postcodeStart":"E14 8","postcode":["E14","8NF"]}
{"price":44000,"dateOfTransfer":"1995-12-07T00:00:00","postcodeFull":"E14 8ER","propertyType":"Flat/Maisonette/Townhouse","oldOrNew":"Established","duration":"Leasehold","paon":"31","saon":"","street":"ROSEFIELD GARDENS","locality":"","townOrCity":"LONDON","district":"TOWER HAMLETS","county":"GREATER LONDON","ppdCategoryType":"Standard","recordStatus":"Addition","latitude":51.51044,"longitude":-0.023752,"postcodeStart":"E14 8","postcode":["E14","8ER"]}
{"price":23000,"dateOfTransfer":"1995-03-13T00:00:00","postcodeFull":"E14 8SN","propertyType":"Flat/Maisonette/Townhouse","oldOrNew":"Established","duration":"Leasehold","paon":"47","saon":"","street":"TOPMAST POINT","locality":"","townOrCity":"LONDON","district":"TOWER HAMLETS","county":"GREATER LONDON","ppdCategoryType":"Standard","recordStatus":"Addition","latitude":51.499786,"longitude":-0.024933,"postcodeStart":"E14 8","postcode":["E14","8SN"]}
{"price":98000,"dateOfTransfer":"1995-09-22T00:00:00","postcodeFull":"E14 8AP","propertyType":"Flat/Maisonette/Townhouse","oldOrNew":"Established","duration":"Leasehold","paon":"LIME KILN WHARF, 94","saon":"FLAT 24","street":"THREE COLT STREET","locality":"LONDON","townOrCity":"LONDON","district":"TOWER HAMLETS","county":"GREATER LONDON","ppdCategoryType":"Standard","recordStatus":"Addition","latitude":51.508547,"longitude":-0.029816,"postcodeStart":"E14 8","postcode":["E14","8AP"]}
{"price":136000,"dateOfTransfer":"1995-11-23T00:00:00","postcodeFull":"E14 8EG","propertyType":"Flat/Maisonette/Townhouse","oldOrNew":"Established","duration":"Leasehold","paon":"21","saon":"","street":"GOODHART PLACE","locality":"LONDON","townOrCity":"LONDON","district":"TOWER HAMLETS","county":"GREATER LONDON","ppdCategoryType":"Standard","recordStatus":"Addition","latitude":51.510467,"longitude":-0.037672,"postcodeStart":"E14 8","postcode":["E14","8EG"]}
{"price":89000,"dateOfTransfer":"1995-08-18T00:00:00","postcodeFull":"E14 8DP","propertyType":"Flat/Maisonette/Townhouse","oldOrNew":"Established","duration":"Leasehold","paon":"EAGLE WHARF WEST, 31","saon":"FLAT 12","street":"NARROW STREET","locality":"LONDON","townOrCity":"LONDON","district":"TOWER HAMLETS","county":"GREATER LONDON","ppdCategoryType":"Standard","recordStatus":"Addition","latitude":51.510139,"longitude":-0.039923,"postcodeStart":"E14 8","postcode":["E14","8DP"]}
{"price":118000,"dateOfTransfer":"1995-09-05T00:00:00","postcodeFull":"E14 8NE","propertyType":"Flat/Maisonette/Townhouse","oldOrNew":"Established","duration":"Leasehold","paon":"ANCHORAGE POINT, 42","saon":"FLAT 44","street":"CUBA STREET","locality":"LONDON","townOrCity":"LONDON","district":"TOWER HAMLETS","county":"GREATER LONDON","ppdCategoryType":"Standard","recordStatus":"Addition","latitude":51.501944,"longitude":-0.027088,"postcodeStart":"E14 8","postcode":["E14","8NE"]}
{"price":155000,"dateOfTransfer":"1995-10-13T00:00:00","postcodeFull":"E14 8NE","propertyType":"Flat/Maisonette/Townhouse","oldOrNew":"Established","duration":"Leasehold","paon":"ANCHORAGE POINT, 42","saon":"FLAT 16","street":"CUBA STREET","locality":"LONDON","townOrCity":"LONDON","district":"TOWER HAMLETS","county":"GREATER LONDON","ppdCategoryType":"Standard","recordStatus":"Addition","latitude":51.501944,"longitude":-0.027088,"postcodeStart":"E14 8","postcode":["E14","8NE"]}
{"price":140750,"dateOfTransfer":"1995-06-22T00:00:00","postcodeFull":"E14 8EG","propertyType":"Flat/Maisonette/Townhouse","oldOrNew":"Established","duration":"Leasehold","paon":"39","saon":"","street":"GOODHART PLACE","locality":"LONDON","townOrCity":"LONDON","district":"TOWER HAMLETS","county":"GREATER LONDON","ppdCategoryType":"Standard","recordStatus":"Addition","latitude":51.510467,"longitude":-0.037672,"postcodeStart":"E14 8","postcode":["E14","8EG"]}
{"price":50000,"dateOfTransfer":"1995-11-07T00:00:00","postcodeFull":"E14 8LH","propertyType":"Terraced","oldOrNew":"Established","duration":"Freehold","paon":"66","saon":"","street":"ALPHA GROVE","locality":"","townOrCity":"LONDON","district":"TOWER HAMLETS","county":"GREATER LONDON","ppdCategoryType":"Standard","recordStatus":"Addition","latitude":51.499136,"longitude":-0.023737,"postcodeStart":"E14 8","postcode":["E14","8LH"]}
{"price":39000,"dateOfTransfer":"1995-11-30T00:00:00","postcodeFull":"E14 8EL","propertyType":"Flat/Maisonette/Townhouse","oldOrNew":"Established","duration":"Leasehold","paon":"44","saon":"","street":"MORANT STREET","locality":"","townOrCity":"LONDON","district":"TOWER HAMLETS","county":"GREATER LONDON","ppdCategoryType":"Standard","recordStatus":"Addition","latitude":51.510275,"longitude":-0.021958,"postcodeStart":"E14 8","postcode":["E14","8EL"]}
{"price":55000,"dateOfTransfer":"1995-04-13T00:00:00","postcodeFull":"E14 8DL","propertyType":"Flat/Maisonette/Townhouse","oldOrNew":"Established","duration":"Leasehold","paon":"18","saon":"","street":"ST GEORGES SQUARE","locality":"LONDON","townOrCity":"LONDON","district":"TOWER HAMLETS","county":"GREATER LONDON","ppdCategoryType":"Standard","recordStatus":"Addition","latitude":51.510444,"longitude":-0.041146,"postcodeStart":"E14 8","postcode":["E14","8DL"]}
{"price":43000,"dateOfTransfer":"1995-12-20T00:00:00","postcodeFull":"E14 8PY","propertyType":"Terraced","oldOrNew":"Established","duration":"Freehold","paon":"7","saon":"","street":"TILLER ROAD","locality":"","townOrCity":"LONDON","district":"TOWER HAMLETS","county":"GREATER LONDON","ppdCategoryType":"Standard","recordStatus":"Addition","latitude":51.496475,"longitude":-0.024342,"postcodeStart":"E14 8","postcode":["E14","8PY"]}
{"price":19000,"dateOfTransfer":"1995-12-12T00:00:00","postcodeFull":"E14 8NU","propertyType":"Flat/Maisonette/Townhouse","oldOrNew":"Established","duration":"Leasehold","paon":"BOWSPRIT POINT, 167","saon":"FLAT 78","street":"WESTFERRY ROAD","locality":"","townOrCity":"LONDON","district":"TOWER HAMLETS","county":"GREATER LONDON","ppdCategoryType":"Standard","recordStatus":"Addition","latitude":51.496969,"longitude":-0.025372,"postcodeStart":"E14 8","postcode":["E14","8NU"]}
{"price":31250,"dateOfTransfer":"1995-09-29T00:00:00","postcodeFull":"E14 8NJ","propertyType":"Terraced","oldOrNew":"Established","duration":"Leasehold","paon":"21","saon":"","street":"CLAIRE PLACE","locality":"","townOrCity":"LONDON","district":"TOWER HAMLETS","county":"GREATER LONDON","ppdCategoryType":"Standard","recordStatus":"Addition","latitude":51.495958,"longitude":-0.022995,"postcodeStart":"E14 8","postcode":["E14","8NJ"]}
{"price":45620,"dateOfTransfer":"1995-11-17T00:00:00","postcodeFull":"E14 8PD","propertyType":"Flat/Maisonette/Townhouse","oldOrNew":"New build","duration":"Leasehold","paon":"37","saon":"","street":"CARAVEL CLOSE","locality":"","townOrCity":"LONDON","district":"TOWER HAMLETS","county":"GREATER LONDON","ppdCategoryType":"Standard","recordStatus":"Addition","latitude":51.495993,"longitude":-0.025587,"postcodeStart":"E14 8","postcode":["E14","8PD"]}
{"price":20000,"dateOfTransfer":"1995-04-20T00:00:00","postcodeFull":"E14 8SR","propertyType":"Flat/Maisonette/Townhouse","oldOrNew":"Established","duration":"Leasehold","paon":"11","saon":"","street":"KNIGHTHEAD POINT","locality":"","townOrCity":"LONDON","district":"TOWER HAMLETS","county":"GREATER LONDON","ppdCategoryType":"Standard","recordStatus":"Addition","latitude":51.497891,"longitude":-0.025116,"postcodeStart":"E14 8","postcode":["E14","8SR"]}
{"price":40000,"dateOfTransfer":"1995-03-31T00:00:00","postcodeFull":"E14 8NN","propertyType":"Flat/Maisonette/Townhouse","oldOrNew":"Established","duration":"Freehold","paon":"60","saon":"","street":"TILLER ROAD","locality":"","townOrCity":"LONDON","district":"TOWER HAMLETS","county":"GREATER LONDON","ppdCategoryType":"Standard","recordStatus":"Addition","latitude":51.496277,"longitude":-0.023241,"postcodeStart":"E14 8","postcode":["E14","8NN"]}
{"price":91000,"dateOfTransfer":"1995-10-13T00:00:00","postcodeFull":"E14 8JL","propertyType":"Flat/Maisonette/Townhouse","oldOrNew":"Established","duration":"Leasehold","paon":"CASCADES TOWER, 4","saon":"FLAT 111","street":"WESTFERRY ROAD","locality":"LONDON","townOrCity":"LONDON","district":"TOWER HAMLETS","county":"GREATER LONDON","ppdCategoryType":"Standard","recordStatus":"Addition","latitude":51.502456,"longitude":-0.027008,"postcodeStart":"E14 8","postcode":["E14","8JL"]}
{"price":36250,"dateOfTransfer":"1995-12-22T00:00:00","postcodeFull":"E14 8HG","propertyType":"Flat/Maisonette/Townhouse","oldOrNew":"Established","duration":"Leasehold","paon":"JOSEPH IRWIN HOUSE","saon":"FLAT 30","street":"GILL STREET","locality":"","townOrCity":"LONDON","district":"TOWER HAMLETS","county":"GREATER LONDON","ppdCategoryType":"Standard","recordStatus":"Addition","latitude":51.510823,"longitude":-0.029399,"postcodeStart":"E14 8","postcode":["E14","8HG"]}
{"price":20000,"dateOfTransfer":"1995-01-18T00:00:00","postcodeFull":"E14 8SS","propertyType":"Flat/Maisonette/Townhouse","oldOrNew":"Established","duration":"Leasehold","paon":"64","saon":"","street":"KNIGHTHEAD POINT","locality":"","townOrCity":"LONDON","district":"TOWER HAMLETS","county":"GREATER LONDON","ppdCategoryType":"Standard","recordStatus":"Addition","latitude":51.497891,"longitude":-0.025116,"postcodeStart":"E14 8","postcode":["E14","8SS"]}
{"price":37000,"dateOfTransfer":"1995-12-01T00:00:00","postcodeFull":"E14 8PU","propertyType":"Flat/Maisonette/Townhouse","oldOrNew":"Established","duration":"Leasehold","paon":"CRESSAL HOUSE","saon":"FLAT 6","street":"TILLER ROAD","locality":"","townOrCity":"LONDON","district":"TOWER HAMLETS","county":"GREATER LONDON","ppdCategoryType":"Standard","recordStatus":"Addition","latitude":51.496542,"longitude":-0.022324,"postcodeStart":"E14 8","postcode":["E14","8PU"]}
{"price":182000,"dateOfTransfer":"1995-09-25T00:00:00","postcodeFull":"E14 8JN","propertyType":"Flat/Maisonette/Townhouse","oldOrNew":"Established","duration":"Leasehold","paon":"CASCADES TOWER, 4","saon":"FLAT 1107","street":"WESTFERRY ROAD","locality":"LONDON","townOrCity":"LONDON","district":"TOWER HAMLETS","county":"GREATER LONDON","ppdCategoryType":"Standard","recordStatus":"Addition","latitude":51.502456,"longitude":-0.027008,"postcodeStart":"E14 8","postcode":["E14","8JN"]}
{"price":80000,"dateOfTransfer":"1995-12-22T00:00:00","postcodeFull":"E14 8NE","propertyType":"Flat/Maisonette/Townhouse","oldOrNew":"Established","duration":"Leasehold","paon":"ANCHORAGE POINT, 42","saon":"FLAT 23","street":"CUBA STREET","locality":"LONDON","townOrCity":"LONDON","district":"TOWER HAMLETS","county":"GREATER LONDON","ppdCategoryType":"Standard","recordStatus":"Addition","latitude":51.501944,"longitude":-0.027088,"postcodeStart":"E14 8","postcode":["E14","8NE"]}
{"price":160000,"dateOfTransfer":"1995-08-31T00:00:00","postcodeFull":"E14 8EG","propertyType":"Terraced","oldOrNew":"Established","duration":"Leasehold","paon":"10","saon":"","street":"GOODHART PLACE","locality":"LONDON","townOrCity":"LONDON","district":"TOWER HAMLETS","county":"GREATER LONDON","ppdCategoryType":"Standard","recordStatus":"Addition","latitude":51.510467,"longitude":-0.037672,"postcodeStart":"E14 8","postcode":["E14","8EG"]}
{"price":59000,"dateOfTransfer":"1995-07-14T00:00:00","postcodeFull":"E14 8NN","propertyType":"Terraced","oldOrNew":"Established","duration":"Freehold","paon":"38","saon":"","street":"TILLER ROAD","locality":"LONDON","townOrCity":"LONDON","district":"TOWER HAMLETS","county":"GREATER LONDON","ppdCategoryType":"Standard","recordStatus":"Addition","latitude":51.496277,"longitude":-0.023241,"postcodeStart":"E14 8","postcode":["E14","8NN"]}
{"price":90000,"dateOfTransfer":"1995-08-04T00:00:00","postcodeFull":"E14 8EG","propertyType":"Flat/Maisonette/Townhouse","oldOrNew":"Established","duration":"Leasehold","paon":"19","saon":"","street":"GOODHART PLACE","locality":"LONDON","townOrCity":"LONDON","district":"TOWER HAMLETS","county":"GREATER LONDON","ppdCategoryType":"Standard","recordStatus":"Addition","latitude":51.510467,"longitude":-0.037672,"postcodeStart":"E14 8","postcode":["E14","8EG"]}
{"price":145000,"dateOfTransfer":"1995-06-28T00:00:00","postcodeFull":"E14 8EG","propertyType":"Flat/Maisonette/Townhouse","oldOrNew":"Established","duration":"Leasehold","paon":"38","saon":"","street":"GOODHART PLACE","locality":"LONDON","townOrCity":"LONDON","district":"TOWER HAMLETS","county":"GREATER LONDON","ppdCategoryType":"Standard","recordStatus":"Addition","latitude":51.510467,"longitude":-0.037672,"postcodeStart":"E14 8","postcode":["E14","8EG"]}
{"price":51000,"dateOfTransfer":"1995-01-06T00:00:00","postcodeFull":"E14 8NN","propertyType":"Terraced","oldOrNew":"Established","duration":"Freehold","paon":"44","saon":"","street":"TILLER ROAD","locality":"LONDON","townOrCity":"LONDON","district":"TOWER HAMLETS","county":"GREATER LONDON","ppdCategoryType":"Standard","recordStatus":"Addition","latitude":51.496277,"longitude":-0.023241,"postcodeStart":"E14 8","postcode":["E14","8NN"]}
{"price":62500,"dateOfTransfer":"1995-06-30T00:00:00","postcodeFull":"E14 8LH","propertyType":"Terraced","oldOrNew":"Established","duration":"Freehold","paon":"86","saon":"","street":"ALPHA GROVE","locality":"LONDON","townOrCity":"LONDON","district":"TOWER HAMLETS","county":"GREATER LONDON","ppdCategoryType":"Standard","recordStatus":"Addition","latitude":51.499136,"longitude":-0.023737,"postcodeStart":"E14 8","postcode":["E14","8LH"]}
{"price":170000,"dateOfTransfer":"1995-04-06T00:00:00","postcodeFull":"E14 8BZ","propertyType":"Detached","oldOrNew":"Established","duration":"Leasehold","paon":"PAPER MILL WHARF, 50","saon":"FLAT 10","street":"NARROW STREET","locality":"LONDON","townOrCity":"LONDON","district":"TOWER HAMLETS","county":"GREATER LONDON","ppdCategoryType":"Standard","recordStatus":"Addition","latitude":51.509219,"longitude":-0.035665,"postcodeStart":"E14 8","postcode":["E14","8BZ"]}
{"price":73000,"dateOfTransfer":"1995-03-10T00:00:00","postcodeFull":"E14 8BU","propertyType":"Flat/Maisonette/Townhouse","oldOrNew":"Established","duration":"Leasehold","paon":"DUKE SHORE WHARF, 106","saon":"FLAT 5","street":"NARROW STREET","locality":"LONDON","townOrCity":"LONDON","district":"TOWER HAMLETS","county":"GREATER LONDON","ppdCategoryType":"Standard","recordStatus":"Addition","latitude":51.508467,"longitude":-0.032599,"postcodeStart":"E14 8","postcode":["E14","8BU"]}
{"price":250000,"dateOfTransfer":"1995-08-08T00:00:00","postcodeFull":"E14 8BF","propertyType":"Terraced","oldOrNew":"Established","duration":"Freehold","paon":"10","saon":"","street":"BLYTHS WHARF","locality":"LONDON","townOrCity":"LONDON","district":"TOWER HAMLETS","county":"GREATER LONDON","ppdCategoryType":"Standard","recordStatus":"Addition","latitude":51.509004,"longitude":-0.034608,"postcodeStart":"E14 8","postcode":["E14","8BF"]}
{"price":90000,"dateOfTransfer":"1995-07-06T00:00:00","postcodeFull":"E14 8AP","propertyType":"Flat/Maisonette/Townhouse","oldOrNew":"New build","duration":"Leasehold","paon":"90","saon":"FLAT 4","street":"THREE COLT STREET","locality":"LONDON","townOrCity":"LONDON","district":"TOWER HAMLETS","county":"GREATER LONDON","ppdCategoryType":"Standard","recordStatus":"Addition","latitude":51.508547,"longitude":-0.029816,"postcodeStart":"E14 8","postcode":["E14","8AP"]}
{"price":140000,"dateOfTransfer":"1995-07-07T00:00:00","postcodeFull":"E14 8EG","propertyType":"Flat/Maisonette/Townhouse","oldOrNew":"Established","duration":"Leasehold","paon":"29","saon":"","street":"GOODHART PLACE","locality":"LONDON","townOrCity":"LONDON","district":"TOWER HAMLETS","county":"GREATER LONDON","ppdCategoryType":"Standard","recordStatus":"Addition","latitude":51.510467,"longitude":-0.037672,"postcodeStart":"E14 8","postcode":["E14","8EG"]}
{"price":175000,"dateOfTransfer":"1995-06-30T00:00:00","postcodeFull":"E14 8EQ","propertyType":"Terraced","oldOrNew":"Established","duration":"Leasehold","paon":"47","saon":"","street":"GOODHART PLACE","locality":"LONDON","townOrCity":"LONDON","district":"TOWER HAMLETS","county":"GREATER LONDON","ppdCategoryType":"Standard","recordStatus":"Addition","latitude":51.510044,"longitude":-0.037128,"postcodeStart":"E14 8","postcode":["E14","8EQ"]}
{"price":105500,"dateOfTransfer":"1995-11-09T00:00:00","postcodeFull":"E14 8JN","propertyType":"Flat/Maisonette/Townhouse","oldOrNew":"Established","duration":"Leasehold","paon":"CASCADES TOWER, 4","saon":"FLAT 1004","street":"WESTFERRY ROAD","locality":"LONDON","townOrCity":"LONDON","district":"TOWER HAMLETS","county":"GREATER LONDON","ppdCategoryType":"Standard","recordStatus":"Addition","latitude":51.502456,"longitude":-0.027008,"postcodeStart":"E14 8","postcode":["E14","8JN"]}
{"price":133000,"dateOfTransfer":"1995-12-15T00:00:00","postcodeFull":"E14 8BZ","propertyType":"Flat/Maisonette/Townhouse","oldOrNew":"Established","duration":"Leasehold","paon":"PAPER MILL WHARF, 50","saon":"FLAT 44","street":"NARROW STREET","locality":"LONDON","townOrCity":"LONDON","district":"TOWER HAMLETS","county":"GREATER LONDON","ppdCategoryType":"Standard","recordStatus":"Addition","latitude":51.509219,"longitude":-0.035665,"postcodeStart":"E14 8","postcode":["E14","8BZ"]}
{"price":140000,"dateOfTransfer":"1995-07-10T00:00:00","postcodeFull":"E14 8EG","propertyType":"Flat/Maisonette/Townhouse","oldOrNew":"Established","duration":"Leasehold","paon":"28","saon":"","street":"GOODHART PLACE","locality":"LONDON","townOrCity":"LONDON","district":"TOWER HAMLETS","county":"GREATER LONDON","ppdCategoryType":"Standard","recordStatus":"Addition","latitude":51.510467,"longitude":-0.037672,"postcodeStart":"E14 8","postcode":["E14","8EG"]}
{"price":98500,"dateOfTransfer":"1996-12-13T00:00:00","postcodeFull":"E14 8SB","propertyType":"Flat/Maisonette/Townhouse","oldOrNew":"New build","duration":"Leasehold","paon":"BOGART COURT, 2","saon":"FLAT 3A","street":"PREMIERE PLACE","locality":"LONDON","townOrCity":"LONDON","district":"TOWER HAMLETS","county":"GREATER LONDON","ppdCategoryType":"Standard","recordStatus":"Addition","latitude":51.508833,"longitude":-0.02656,"postcodeStart":"E14 8","postcode":["E14","8SB"]}
{"price":104000,"dateOfTransfer":"1996-11-20T00:00:00","postcodeFull":"E14 8SA","propertyType":"Flat/Maisonette/Townhouse","oldOrNew":"New build","duration":"Leasehold","paon":"GARLAND COURT, 1","saon":"FLAT 20","street":"PREMIERE PLACE","locality":"LONDON","townOrCity":"LONDON","district":"TOWER HAMLETS","county":"GREATER LONDON","ppdCategoryType":"Standard","recordStatus":"Addition","latitude":51.508467,"longitude":-0.026734,"postcodeStart":"E14 8","postcode":["E14","8SA"]}
{"price":175000,"dateOfTransfer":"1996-12-16T00:00:00","postcodeFull":"E14 8EG","propertyType":"Flat/Maisonette/Townhouse","oldOrNew":"Established","duration":"Leasehold","paon":"9","saon":"","street":"GOODHART PLACE","locality":"LONDON","townOrCity":"LONDON","district":"TOWER HAMLETS","county":"GREATER LONDON","ppdCategoryType":"Standard","recordStatus":"Addition","latitude":51.510467,"longitude":-0.037672,"postcodeStart":"E14 8","postcode":["E14","8EG"]}
{"price":94500,"dateOfTransfer":"1996-09-20T00:00:00","postcodeFull":"E14 8BG","propertyType":"Flat/Maisonette/Townhouse","oldOrNew":"New build","duration":"Leasehold","paon":"DRAKE HOUSE, 4","saon":"FLAT 16","street":"VICTORY PLACE","locality":"LONDON","townOrCity":"LONDON","district":"TOWER HAMLETS","county":"GREATER LONDON","ppdCategoryType":"Standard","recordStatus":"Addition","latitude":51.510596,"longitude":-0.035159,"postcodeStart":"E14 8","postcode":["E14","8BG"]}
{"price":134500,"dateOfTransfer":"1996-10-29T00:00:00","postcodeFull":"E14 8AX","propertyType":"Flat/Maisonette/Townhouse","oldOrNew":"New build","duration":"Leasehold","paon":"DUNDEE WHARF, 100","saon":"FLAT 53","street":"THREE COLT STREET","locality":"LONDON","townOrCity":"LONDON","district":"TOWER HAMLETS","county":"GREATER LONDON","ppdCategoryType":"Standard","recordStatus":"Addition","latitude":51.507737,"longitude":-0.030397,"postcodeStart":"E14 8","postcode":["E14","8AX"]}
{"price":118995,"dateOfTransfer":"1996-09-23T00:00:00","postcodeFull":"E14 8AU","propertyType":"Terraced","oldOrNew":"New build","duration":"Freehold","paon":"28","saon":"","street":"MILLIGAN STREET","locality":"LONDON","townOrCity":"LONDON","district":"TOWER HAMLETS","county":"GREATER LONDON","ppdCategoryType":"Standard","recordStatus":"Addition","latitude":51.508279,"longitude":-0.027866,"postcodeStart":"E14 8","postcode":["E14","8AU"]}
{"price":104000,"dateOfTransfer":"1996-08-28T00:00:00","postcodeFull":"E14 8DL","propertyType":"Flat/Maisonette/Townhouse","oldOrNew":"Established","duration":"Leasehold","paon":"4","saon":"","street":"ST GEORGES SQUARE","locality":"LONDON","townOrCity":"LONDON","district":"TOWER HAMLETS","county":"GREATER LONDON","ppdCategoryType":"Standard","recordStatus":"Addition","latitude":51.510444,"longitude":-0.041146,"postcodeStart":"E14 8","postcode":["E14","8DL"]}
{"price":249500,"dateOfTransfer":"1996-10-18T00:00:00","postcodeFull":"E14 8BG","propertyType":"Flat/Maisonette/Townhouse","oldOrNew":"New build","duration":"Leasehold","paon":"DRAKE HOUSE, 4","saon":"FLAT 23","street":"VICTORY PLACE","locality":"LONDON","townOrCity":"LONDON","district":"TOWER HAMLETS","county":"GREATER LONDON","ppdCategoryType":"Standard","recordStatus":"Addition","latitude":51.510596,"longitude":-0.035159,"postcodeStart":"E14 8","postcode":["E14","8BG"]}
{"price":100500,"dateOfTransfer":"1996-11-01T00:00:00","postcodeFull":"E14 8BG","propertyType":"Flat/Maisonette/Townhouse","oldOrNew":"New build","duration":"Leasehold","paon":"GAINSBOROUGH HOUSE, 7","saon":"FLAT 15","street":"VICTORY PLACE","locality":"LONDON","townOrCity":"LONDON","district":"TOWER HAMLETS","county":"GREATER LONDON","ppdCategoryType":"Standard","recordStatus":"Addition","latitude":51.510596,"longitude":-0.035159,"postcodeStart":"E14 8","postcode":["E14","8BG"]}
{"price":97500,"dateOfTransfer":"1996-09-27T00:00:00","postcodeFull":"E14 8BG","propertyType":"Flat/Maisonette/Townhouse","oldOrNew":"New build","duration":"Leasehold","paon":"DRAKE HOUSE, 4","saon":"FLAT 13","street":"VICTORY PLACE","locality":"LONDON","townOrCity":"LONDON","district":"TOWER HAMLETS","county":"GREATER LONDON","ppdCategoryType":"Standard","recordStatus":"Addition","latitude":51.510596,"longitude":-0.035159,"postcodeStart":"E14 8","postcode":["E14","8BG"]}
{"price":200000,"dateOfTransfer":"1996-12-24T00:00:00","postcodeFull":"E14 8AY","propertyType":"Flat/Maisonette/Townhouse","oldOrNew":"New build","duration":"Leasehold","paon":"DUNDEE WHARF, 100","saon":"FLAT 80","street":"THREE COLT STREET","locality":"LONDON","townOrCity":"LONDON","district":"TOWER HAMLETS","county":"GREATER LONDON","ppdCategoryType":"Standard","recordStatus":"Addition","latitude":51.507998,"longitude":-0.030962,"postcodeStart":"E14 8","postcode":["E14","8AY"]}
{"price":65000,"dateOfTransfer":"1996-04-25T00:00:00","postcodeFull":"E14 8JL","propertyType":"Flat/Maisonette/Townhouse","oldOrNew":"Established","duration":"Leasehold","paon":"CASCADES TOWER, 4","saon":"FLAT 301","street":"WESTFERRY ROAD","locality":"LONDON","townOrCity":"LONDON","district":"TOWER HAMLETS","county":"GREATER LONDON","ppdCategoryType":"Standard","recordStatus":"Addition","latitude":51.502456,"longitude":-0.027008,"postcodeStart":"E14 8","postcode":["E14","8JL"]}
{"price":250000,"dateOfTransfer":"1996-06-14T00:00:00","postcodeFull":"E14 8DG","propertyType":"Flat/Maisonette/Townhouse","oldOrNew":"New build","duration":"Leasehold","paon":"OLD SUN WHARF, 40","saon":"FLAT 18","street":"NARROW STREET","locality":"LONDON","townOrCity":"LONDON","district":"TOWER HAMLETS","county":"GREATER LONDON","ppdCategoryType":"Standard","recordStatus":"Addition","latitude":51.50988,"longitude":-0.039139,"postcodeStart":"E14 8","postcode":["E14","8DG"]}
{"price":205500,"dateOfTransfer":"1996-12-06T00:00:00","postcodeFull":"E14 8AY","propertyType":"Flat/Maisonette/Townhouse","oldOrNew":"Established","duration":"Leasehold","paon":"DUNDEE WHARF, 100","saon":"FLAT 85","street":"THREE COLT STREET","locality":"LONDON","townOrCity":"LONDON","district":"TOWER HAMLETS","county":"GREATER LONDON","ppdCategoryType":"Standard","recordStatus":"Addition","latitude":51.507998,"longitude":-0.030962,"postcodeStart":"E14 8","postcode":["E14","8AY"]}
{"price":187000,"dateOfTransfer":"1996-07-31T00:00:00","postcodeFull":"E14 8DG","propertyType":"Flat/Maisonette/Townhouse","oldOrNew":"New build","duration":"Leasehold","paon":"OLD SUN WHARF, 40","saon":"FLAT 5","street":"NARROW STREET","locality":"LONDON","townOrCity":"LONDON","district":"TOWER HAMLETS","county":"GREATER LONDON","ppdCategoryType":"Standard","recordStatus":"Addition","latitude":51.50988,"longitude":-0.039139,"postcodeStart":"E14 8","postcode":["E14","8DG"]}
{"price":188500,"dateOfTransfer":"1996-08-16T00:00:00","postcodeFull":"E14 8DG","propertyType":"Flat/Maisonette/Townhouse","oldOrNew":"New build","duration":"Leasehold","paon":"OLD SUN WHARF, 40","saon":"FLAT 13","street":"NARROW STREET","locality":"LONDON","townOrCity":"LONDON","district":"TOWER HAMLETS","county":"GREATER LONDON","ppdCategoryType":"Standard","recordStatus":"Addition","latitude":51.50988,"longitude":-0.039139,"postcodeStart":"E14 8","postcode":["E14","8DG"]}
{"price":87500,"dateOfTransfer":"1996-12-16T00:00:00","postcodeFull":"E14 8SA","propertyType":"Flat/Maisonette/Townhouse","oldOrNew":"New build","duration":"Leasehold","paon":"GARLAND COURT, 1","saon":"FLAT 8","street":"PREMIERE PLACE","locality":"LONDON","townOrCity":"LONDON","district":"TOWER HAMLETS","county":"GREATER LONDON","ppdCategoryType":"Standard","recordStatus":"Addition","latitude":51.508467,"longitude":-0.026734,"postcodeStart":"E14 8","postcode":["E14","8SA"]}
{"price":187500,"dateOfTransfer":"1996-12-06T00:00:00","postcodeFull":"E14 8AY","propertyType":"Flat/Maisonette/Townhouse","oldOrNew":"New build","duration":"Leasehold","paon":"DUNDEE WHARF, 100","saon":"FLAT 79","street":"THREE COLT STREET","locality":"LONDON","townOrCity":"LONDON","district":"TOWER HAMLETS","county":"GREATER LONDON","ppdCategoryType":"Standard","recordStatus":"Addition","latitude":51.507998,"longitude":-0.030962,"postcodeStart":"E14 8","postcode":["E14","8AY"]}
{"price":90000,"dateOfTransfer":"1996-03-08T00:00:00","postcodeFull":"E14 8AP","propertyType":"Flat/Maisonette/Townhouse","oldOrNew":"Established","duration":"Leasehold","paon":"LIME KILN WHARF, 94","saon":"FLAT 33","street":"THREE COLT STREET","locality":"LONDON","townOrCity":"LONDON","district":"TOWER HAMLETS","county":"GREATER LONDON","ppdCategoryType":"Standard","recordStatus":"Addition","latitude":51.508547,"longitude":-0.029816,"postcodeStart":"E14 8","postcode":["E14","8AP"]}
{"price":91000,"dateOfTransfer":"1996-06-07T00:00:00","postcodeFull":"E14 8JN","propertyType":"Flat/Maisonette/Townhouse","oldOrNew":"Established","duration":"Leasehold","paon":"CASCADES TOWER, 4","saon":"FLAT 1401","street":"WESTFERRY ROAD","locality":"LONDON","townOrCity":"LONDON","district":"TOWER HAMLETS","county":"GREATER LONDON","ppdCategoryType":"Standard","recordStatus":"Addition","latitude":51.502456,"longitude":-0.027008,"postcodeStart":"E14 8","postcode":["E14","8JN"]}
{"price":34500,"dateOfTransfer":"1996-05-17T00:00:00","postcodeFull":"E14 8SH","propertyType":"Flat/Maisonette/Townhouse","oldOrNew":"Established","duration":"Leasehold","paon":"83","saon":"","street":"THE QUARTERDECK","locality":"","townOrCity":"LONDON","district":"TOWER HAMLETS","county":"GREATER LONDON","ppdCategoryType":"Standard","recordStatus":"Addition","latitude":51.498808,"longitude":-0.025105,"postcodeStart":"E14 8","postcode":["E14","8SH"]}
{"price":150000,"dateOfTransfer":"1996-08-12T00:00:00","postcodeFull":"E14 8NS","propertyType":"Terraced","oldOrNew":"Established","duration":"Freehold","paon":"62","saon":"","street":"MELLISH STREET","locality":"","townOrCity":"LONDON","district":"TOWER HAMLETS","county":"GREATER LONDON","ppdCategoryType":"Standard","recordStatus":"Addition","latitude":51.496988,"longitude":-0.023801,"postcodeStart":"E14 8","postcode":["E14","8NS"]}
{"price":117000,"dateOfTransfer":"1996-12-19T00:00:00","postcodeFull":"E14 8BJ","propertyType":"Flat/Maisonette/Townhouse","oldOrNew":"New build","duration":"Leasehold","paon":"CONRAD HOUSE, 2","saon":"FLAT 2","street":"VICTORY PLACE","locality":"LONDON","townOrCity":"LONDON","district":"TOWER HAMLETS","county":"GREATER LONDON","ppdCategoryType":"Standard","recordStatus":"Addition","latitude":51.51027,"longitude":-0.035058,"postcodeStart":"E14 8","postcode":["E14","8BJ"]}
{"price":110000,"dateOfTransfer":"1996-08-14T00:00:00","postcodeFull":"E14 8NE","propertyType":"Flat/Maisonette/Townhouse","oldOrNew":"Established","duration":"Leasehold","paon":"ANCHORAGE POINT, 42","saon":"FLAT 30","street":"CUBA STREET","locality":"LONDON","townOrCity":"LONDON","district":"TOWER HAMLETS","county":"GREATER LONDON","ppdCategoryType":"Standard","recordStatus":"Addition","latitude":51.501944,"longitude":-0.027088,"postcodeStart":"E14 8","postcode":["E14","8NE"]}
{"price":185750,"dateOfTransfer":"1996-03-21T00:00:00","postcodeFull":"E14 8BX","propertyType":"Terraced","oldOrNew":"New build","duration":"Freehold","paon":"9","saon":"","street":"ROPEMAKERS FIELDS","locality":"LONDON","townOrCity":"LONDON","district":"TOWER HAMLETS","county":"GREATER LONDON","ppdCategoryType":"Standard","recordStatus":"Addition","latitude":51.509173,"longitude":-0.033419,"postcodeStart":"E14 8","postcode":["E14","8BX"]}
{"price":95500,"dateOfTransfer":"1996-09-23T00:00:00","postcodeFull":"E14 8BG","propertyType":"Flat/Maisonette/Townhouse","oldOrNew":"New build","duration":"Leasehold","paon":"DRAKE HOUSE, 4","saon":"FLAT 8","street":"VICTORY PLACE","locality":"LONDON","townOrCity":"LONDON","district":"TOWER HAMLETS","county":"GREATER LONDON","ppdCategoryType":"Standard","recordStatus":"Addition","latitude":51.510596,"longitude":-0.035159,"postcodeStart":"E14 8","postcode":["E14","8BG"]}
{"price":122500,"dateOfTransfer":"1996-05-31T00:00:00","postcodeFull":"E14 8BZ","propertyType":"Flat/Maisonette/Townhouse","oldOrNew":"Established","duration":"Leasehold","paon":"PAPER MILL WHARF, 50","saon":"FLAT 47","street":"NARROW STREET","locality":"LONDON","townOrCity":"LONDON","district":"TOWER HAMLETS","county":"GREATER LONDON","ppdCategoryType":"Standard","recordStatus":"Addition","latitude":51.509219,"longitude":-0.035665,"postcodeStart":"E14 8","postcode":["E14","8BZ"]}
{"price":105000,"dateOfTransfer":"1996-05-17T00:00:00","postcodeFull":"E14 8AP","propertyType":"Flat/Maisonette/Townhouse","oldOrNew":"Established","duration":"Leasehold","paon":"LIME KILN WHARF, 94","saon":"FLAT 35","street":"THREE COLT STREET","locality":"LONDON","townOrCity":"LONDON","district":"TOWER HAMLETS","county":"GREATER LONDON","ppdCategoryType":"Standard","recordStatus":"Addition","latitude":51.508547,"longitude":-0.029816,"postcodeStart":"E14 8","postcode":["E14","8AP"]}
{"price":149995,"dateOfTransfer":"1996-12-30T00:00:00","postcodeFull":"E14 8AT","propertyType":"Terraced","oldOrNew":"New build","duration":"Freehold","paon":"17","saon":"","street":"MILLIGAN STREET","locality":"LONDON","townOrCity":"LONDON","district":"TOWER HAMLETS","county":"GREATER LONDON","ppdCategoryType":"Standard","recordStatus":"Addition","latitude":51.508448,"longitude":-0.02881,"postcodeStart":"E14 8","postcode":["E14","8AT"]}
{"price":32950,"dateOfTransfer":"1996-07-08T00:00:00","postcodeFull":"E14 8AJ","propertyType":"Flat/Maisonette/Townhouse","oldOrNew":"Established","duration":"Leasehold","paon":"PADSTOW HOUSE","saon":"FLAT 53","street":"THREE COLT STREET","locality":"","townOrCity":"LONDON","district":"TOWER HAMLETS","county":"GREATER LONDON","ppdCategoryType":"Standard","recordStatus":"Addition","latitude":51.509935,"longitude":-0.029567,"postcodeStart":"E14 8","postcode":["E14","8AJ"]}
{"price":124995,"dateOfTransfer":"1996-06-28T00:00:00","postcodeFull":"E14 8AT","propertyType":"Terraced","oldOrNew":"New build","duration":"Freehold","paon":"23","saon":"","street":"MILLIGAN STREET","locality":"LONDON","townOrCity":"LONDON","district":"TOWER HAMLETS","county":"GREATER LONDON","ppdCategoryType":"Standard","recordStatus":"Addition","latitude":51.508448,"longitude":-0.02881,"postcodeStart":"E14 8","postcode":["E14","8AT"]}
{"price":42000,"dateOfTransfer":"1996-09-03T00:00:00","postcodeFull":"E14 8NP","propertyType":"Flat/Maisonette/Townhouse","oldOrNew":"Established","duration":"Leasehold","paon":"SCOULDING HOUSE","saon":"FLAT 12","street":"MELLISH STREET","locality":"","townOrCity":"LONDON","district":"TOWER HAMLETS","county":"GREATER LONDON","ppdCategoryType":"Standard","recordStatus":"Addition","latitude":51.496765,"longitude":-0.024978,"postcodeStart":"E14 8","postcode":["E14","8NP"]}
{"price":184500,"dateOfTransfer":"1996-10-09T00:00:00","postcodeFull":"E14 8BG","propertyType":"Flat/Maisonette/Townhouse","oldOrNew":"New build","duration":"Leasehold","paon":"DRAKE HOUSE, 4","saon":"FLAT 22","street":"VICTORY PLACE","locality":"LONDON","townOrCity":"LONDON","district":"TOWER HAMLETS","county":"GREATER LONDON","ppdCategoryType":"Standard","recordStatus":"Addition","latitude":51.510596,"longitude":-0.035159,"postcodeStart":"E14 8","postcode":["E14","8BG"]}
{"price":27000,"dateOfTransfer":"1996-01-26T00:00:00","postcodeFull":"E14 8AF","propertyType":"Flat/Maisonette/Townhouse","oldOrNew":"Established","duration":"Leasehold","paon":"TRINIDAD HOUSE","saon":"FLAT 26","street":"GILL STREET","locality":"","townOrCity":"LONDON","district":"TOWER HAMLETS","county":"GREATER LONDON","ppdCategoryType":"Standard","recordStatus":"Addition","latitude":51.509731,"longitude":-0.02861,"postcodeStart":"E14 8","postcode":["E14","8AF"]}
{"price":106995,"dateOfTransfer":"1996-12-02T00:00:00","postcodeFull":"E14 8AU","propertyType":"Terraced","oldOrNew":"New build","duration":"Freehold","paon":"8","saon":"","street":"MILLIGAN STREET","locality":"LONDON","townOrCity":"LONDON","district":"TOWER HAMLETS","county":"GREATER LONDON","ppdCategoryType":"Standard","recordStatus":"Addition","latitude":51.508279,"longitude":-0.027866,"postcodeStart":"E14 8","postcode":["E14","8AU"]}
{"price":89000,"dateOfTransfer":"1996-06-28T00:00:00","postcodeFull":"E14 8JL","propertyType":"Flat/Maisonette/Townhouse","oldOrNew":"Established","duration":"Leasehold","paon":"CASCADES TOWER, 4","saon":"FLAT 303","street":"WESTFERRY ROAD","locality":"LONDON","townOrCity":"LONDON","district":"TOWER HAMLETS","county":"GREATER LONDON","ppdCategoryType":"Standard","recordStatus":"Addition","latitude":51.502456,"longitude":-0.027008,"postcodeStart":"E14 8","postcode":["E14","8JL"]}
{"price":93500,"dateOfTransfer":"1996-07-26T00:00:00","postcodeFull":"E14 8JN","propertyType":"Flat/Maisonette/Townhouse","oldOrNew":"Established","duration":"Leasehold","paon":"CASCADES TOWER, 4","saon":"FLAT 803","street":"WESTFERRY ROAD","locality":"LONDON","townOrCity":"LONDON","district":"TOWER HAMLETS","county":"GREATER LONDON","ppdCategoryType":"Standard","recordStatus":"Addition","latitude":51.502456,"longitude":-0.027008,"postcodeStart":"E14 8","postcode":["E14","8JN"]}
{"price":225000,"dateOfTransfer":"1996-12-31T00:00:00","postcodeFull":"E14 8BU","propertyType":"Flat/Maisonette/Townhouse","oldOrNew":"Established","duration":"Leasehold","paon":"DUKE SHORE WHARF, 106","saon":"FLAT 16","street":"NARROW STREET","locality":"LONDON","townOrCity":"LONDON","district":"TOWER HAMLETS","county":"GREATER LONDON","ppdCategoryType":"Standard","recordStatus":"Addition","latitude":51.508467,"longitude":-0.032599,"postcodeStart":"E14 8","postcode":["E14","8BU"]}
{"price":109995,"dateOfTransfer":"1996-10-25T00:00:00","postcodeFull":"E14 8AU","propertyType":"Terraced","oldOrNew":"New build","duration":"Freehold","paon":"26","saon":"","street":"MILLIGAN STREET","locality":"LONDON","townOrCity":"LONDON","district":"TOWER HAMLETS","county":"GREATER LONDON","ppdCategoryType":"Standard","recordStatus":"Addition","latitude":51.508279,"longitude":-0.027866,"postcodeStart":"E14 8","postcode":["E14","8AU"]}
{"price":130000,"dateOfTransfer":"1996-09-05T00:00:00","postcodeFull":"E14 8JN","propertyType":"Flat/Maisonette/Townhouse","oldOrNew":"Established","duration":"Leasehold","paon":"CASCADES TOWER, 4","saon":"FLAT 1004","street":"WESTFERRY ROAD","locality":"LONDON","townOrCity":"LONDON","district":"TOWER HAMLETS","county":"GREATER LONDON","ppdCategoryType":"Standard","recordStatus":"Addition","latitude":51.502456,"longitude":-0.027008,"postcodeStart":"E14 8","postcode":["E14","8JN"]}
{"price":150000,"dateOfTransfer":"1996-05-15T00:00:00","postcodeFull":"E14 8BP","propertyType":"Flat/Maisonette/Townhouse","oldOrNew":"New build","duration":"Leasehold","paon":"SAILMAKERS HOUSE, 136","saon":"FLAT 3","street":"NARROW STREET","locality":"LONDON","townOrCity":"LONDON","district":"TOWER HAMLETS","county":"GREATER LONDON","ppdCategoryType":"Standard","recordStatus":"Addition","latitude":51.508546,"longitude":-0.033014,"postcodeStart":"E14 8","postcode":["E14","8BP"]}
{"price":74000,"dateOfTransfer":"1996-08-02T00:00:00","postcodeFull":"E14 8EG","propertyType":"Flat/Maisonette/Townhouse","oldOrNew":"Established","duration":"Leasehold","paon":"13","saon":"","street":"GOODHART PLACE","locality":"LONDON","townOrCity":"LONDON","district":"TOWER HAMLETS","county":"GREATER LONDON","ppdCategoryType":"Standard","recordStatus":"Addition","latitude":51.510467,"longitude":-0.037672,"postcodeStart":"E14 8","postcode":["E14","8EG"]}
{"price":100000,"dateOfTransfer":"1996-08-05T00:00:00","postcodeFull":"E14 8BJ","propertyType":"Flat/Maisonette/Townhouse","oldOrNew":"New build","duration":"Leasehold","paon":"CHALLENGER HOUSE, 3","saon":"FLAT 8","street":"VICTORY PLACE","locality":"LONDON","townOrCity":"LONDON","district":"TOWER HAMLETS","county":"GREATER LONDON","ppdCategoryType":"Standard","recordStatus":"Addition","latitude":51.51027,"longitude":-0.035058,"postcodeStart":"E14 8","postcode":["E14","8BJ"]}
{"price":158000,"dateOfTransfer":"1996-12-20T00:00:00","postcodeFull":"E14 8BG","propertyType":"Flat/Maisonette/Townhouse","oldOrNew":"New build","duration":"Leasehold","paon":"OSPREY HOUSE, 5","saon":"FLAT 9","street":"VICTORY PLACE","locality":"LONDON","townOrCity":"LONDON","district":"TOWER HAMLETS","county":"GREATER LONDON","ppdCategoryType":"Standard","recordStatus":"Addition","latitude":51.510596,"longitude":-0.035159,"postcodeStart":"E14 8","postcode":["E14","8BG"]}
{"price":115000,"dateOfTransfer":"1996-08-08T00:00:00","postcodeFull":"E14 8BJ","propertyType":"Flat/Maisonette/Townhouse","oldOrNew":"New build","duration":"Leasehold","paon":"CHALLENGER HOUSE, 3","saon":"FLAT 9","street":"VICTORY PLACE","locality":"LONDON","townOrCity":"LONDON","district":"TOWER HAMLETS","county":"GREATER LONDON","ppdCategoryType":"Standard","recordStatus":"Addition","latitude":51.51027,"longitude":-0.035058,"postcodeStart":"E14 8","postcode":["E14","8BJ"]}
{"price":124500,"dateOfTransfer":"1996-12-16T00:00:00","postcodeFull":"E14 8AY","propertyType":"Flat/Maisonette/Townhouse","oldOrNew":"New build","duration":"Leasehold","paon":"DUNDEE WHARF, 100","saon":"FLAT 95","street":"THREE COLT STREET","locality":"LONDON","townOrCity":"LONDON","district":"TOWER HAMLETS","county":"GREATER LONDON","ppdCategoryType":"Standard","recordStatus":"Addition","latitude":51.507998,"longitude":-0.030962,"postcodeStart":"E14 8","postcode":["E14","8AY"]}
{"price":85000,"dateOfTransfer":"1996-12-09T00:00:00","postcodeFull":"E14 8SA","propertyType":"Flat/Maisonette/Townhouse","oldOrNew":"New build","duration":"Leasehold","paon":"GARLAND COURT, 1","saon":"FLAT 17","street":"PREMIERE PLACE","locality":"LONDON","townOrCity":"LONDON","district":"TOWER HAMLETS","county":"GREATER LONDON","ppdCategoryType":"Standard","recordStatus":"Addition","latitude":51.508467,"longitude":-0.026734,"postcodeStart":"E14 8","postcode":["E14","8SA"]}
{"price":100000,"dateOfTransfer":"1996-07-26T00:00:00","postcodeFull":"E14 8BJ","propertyType":"Flat/Maisonette/Townhouse","oldOrNew":"New build","duration":"Leasehold","paon":"CHALLENGER HOUSE, 3","saon":"FLAT 1","street":"VICTORY PLACE","locality":"LONDON","townOrCity":"LONDON","district":"TOWER HAMLETS","county":"GREATER LONDON","ppdCategoryType":"Standard","recordStatus":"Addition","latitude":51.51027,"longitude":-0.035058,"postcodeStart":"E14 8","postcode":["E14","8BJ"]}
{"price":69000,"dateOfTransfer":"1996-01-21T00:00:00","postcodeFull":"E14 8SB","propertyType":"Flat/Maisonette/Townhouse","oldOrNew":"New build","duration":"Leasehold","paon":"BOGART COURT, 2","saon":"FLAT 3","street":"PREMIERE PLACE","locality":"LONDON","townOrCity":"LONDON","district":"TOWER HAMLETS","county":"GREATER LONDON","ppdCategoryType":"Standard","recordStatus":"Addition","latitude":51.508833,"longitude":-0.02656,"postcodeStart":"E14 8","postcode":["E14","8SB"]}
{"price":99500,"dateOfTransfer":"1996-11-01T00:00:00","postcodeFull":"E14 8BG","propertyType":"Flat/Maisonette/Townhouse","oldOrNew":"New build","duration":"Leasehold","paon":"GAINSBOROUGH HOUSE, 7","saon":"FLAT 3","street":"VICTORY PLACE","locality":"LONDON","townOrCity":"LONDON","district":"TOWER HAMLETS","county":"GREATER LONDON","ppdCategoryType":"Standard","recordStatus":"Addition","latitude":51.510596,"longitude":-0.035159,"postcodeStart":"E14 8","postcode":["E14","8BG"]}
{"price":108000,"dateOfTransfer":"1996-11-15T00:00:00","postcodeFull":"E14 8SA","propertyType":"Flat/Maisonette/Townhouse","oldOrNew":"New build","duration":"Leasehold","paon":"GARLAND COURT, 1","saon":"FLAT 19","street":"PREMIERE PLACE","locality":"LONDON","townOrCity":"LONDON","district":"TOWER HAMLETS","county":"GREATER LONDON","ppdCategoryType":"Standard","recordStatus":"Addition","latitude":51.508467,"longitude":-0.026734,"postcodeStart":"E14 8","postcode":["E14","8SA"]}
{"price":202500,"dateOfTransfer":"1996-04-01T00:00:00","postcodeFull":"E14 8BX","propertyType":"Terraced","oldOrNew":"New build","duration":"Freehold","paon":"17","saon":"","street":"ROPEMAKERS FIELDS","locality":"LONDON","townOrCity":"LONDON","district":"TOWER HAMLETS","county":"GREATER LONDON","ppdCategoryType":"Standard","recordStatus":"Addition","latitude":51.509173,"longitude":-0.033419,"postcodeStart":"E14 8","postcode":["E14","8BX"]}
{"price":124995,"dateOfTransfer":"1996-06-28T00:00:00","postcodeFull":"E14 8AT","propertyType":"Terraced","oldOrNew":"New build","duration":"Freehold","paon":"27","saon":"","street":"MILLIGAN STREET","locality":"LONDON","townOrCity":"LONDON","district":"TOWER HAMLETS","county":"GREATER LONDON","ppdCategoryType":"Standard","recordStatus":"Addition","latitude":51.508448,"longitude":-0.02881,"postcodeStart":"E14 8","postcode":["E14","8AT"]}
{"price":144500,"dateOfTransfer":"1996-09-20T00:00:00","postcodeFull":"E14 8BG","propertyType":"Flat/Maisonette/Townhouse","oldOrNew":"New build","duration":"Leasehold","paon":"DRAKE HOUSE, 4","saon":"FLAT 7","street":"VICTORY PLACE","locality":"LONDON","townOrCity":"LONDON","district":"TOWER HAMLETS","county":"GREATER LONDON","ppdCategoryType":"Standard","recordStatus":"Addition","latitude":51.510596,"longitude":-0.035159,"postcodeStart":"E14 8","postcode":["E14","8BG"]}
{"price":200500,"dateOfTransfer":"1996-12-05T00:00:00","postcodeFull":"E14 8AY","propertyType":"Flat/Maisonette/Townhouse","oldOrNew":"New build","duration":"Leasehold","paon":"DUNDEE WHARF, 100","saon":"FLAT 78","street":"THREE COLT STREET","locality":"LONDON","townOrCity":"LONDON","district":"TOWER HAMLETS","county":"GREATER LONDON","ppdCategoryType":"Standard","recordStatus":"Addition","latitude":51.507998,"longitude":-0.030962,"postcodeStart":"E14 8","postcode":["E14","8AY"]}
{"price":325000,"dateOfTransfer":"1996-09-30T00:00:00","postcodeFull":"E14 8BF","propertyType":"Terraced","oldOrNew":"Established","duration":"Freehold","paon":"13","saon":"","street":"BLYTHS WHARF","locality":"LONDON","townOrCity":"LONDON","district":"TOWER HAMLETS","county":"GREATER LONDON","ppdCategoryType":"Standard","recordStatus":"Addition","latitude":51.509004,"longitude":-0.034608,"postcodeStart":"E14 8","postcode":["E14","8BF"]}
{"price":200750,"dateOfTransfer":"1996-04-26T00:00:00","postcodeFull":"E14 8BX","propertyType":"Terraced","oldOrNew":"New build","duration":"Freehold","paon":"15","saon":"","street":"ROPEMAKERS FIELDS","locality":"LONDON","townOrCity":"LONDON","district":"TOWER HAMLETS","county":"GREATER LONDON","ppdCategoryType":"Standard","recordStatus":"Addition","latitude":51.509173,"longitude":-0.033419,"postcodeStart":"E14 8","postcode":["E14","8BX"]}
{"price":116500,"dateOfTransfer":"1996-12-19T00:00:00","postcodeFull":"E14 8BJ","propertyType":"Flat/Maisonette/Townhouse","oldOrNew":"New build","duration":"Leasehold","paon":"CONRAD HOUSE, 2","saon":"FLAT 6","street":"VICTORY PLACE","locality":"LONDON","townOrCity":"LONDON","district":"TOWER HAMLETS","county":"GREATER LONDON","ppdCategoryType":"Standard","recordStatus":"Addition","latitude":51.51027,"longitude":-0.035058,"postcodeStart":"E14 8","postcode":["E14","8BJ"]}
{"price":171500,"dateOfTransfer":"1996-12-16T00:00:00","postcodeFull":"E14 8BG","propertyType":"Flat/Maisonette/Townhouse","oldOrNew":"New build","duration":"Leasehold","paon":"FLEET HOUSE, 6","saon":"FLAT 3","street":"VICTORY PLACE","locality":"LONDON","townOrCity":"LONDON","district":"TOWER HAMLETS","county":"GREATER LONDON","ppdCategoryType":"Standard","recordStatus":"Addition","latitude":51.510596,"longitude":-0.035159,"postcodeStart":"E14 8","postcode":["E14","8BG"]}
{"price":143000,"dateOfTransfer":"1996-09-30T00:00:00","postcodeFull":"E14 8BG","propertyType":"Flat/Maisonette/Townhouse","oldOrNew":"New build","duration":"Leasehold","paon":"DRAKE HOUSE, 4","saon":"FLAT 15","street":"VICTORY PLACE","locality":"LONDON","townOrCity":"LONDON","district":"TOWER HAMLETS","county":"GREATER LONDON","ppdCategoryType":"Standard","recordStatus":"Addition","latitude":51.510596,"longitude":-0.035159,"postcodeStart":"E14 8","postcode":["E14","8BG"]}
{"price":37000,"dateOfTransfer":"1996-06-14T00:00:00","postcodeFull":"E14 8AJ","propertyType":"Flat/Maisonette/Townhouse","oldOrNew":"Established","duration":"Leasehold","paon":"PADSTOW HOUSE","saon":"FLAT 49","street":"THREE COLT STREET","locality":"","townOrCity":"LONDON","district":"TOWER HAMLETS","county":"GREATER LONDON","ppdCategoryType":"Standard","recordStatus":"Addition","latitude":51.509935,"longitude":-0.029567,"postcodeStart":"E14 8","postcode":["E14","8AJ"]}
{"price":35500,"dateOfTransfer":"1996-07-12T00:00:00","postcodeFull":"E14 8ER","propertyType":"Terraced","oldOrNew":"Established","duration":"Leasehold","paon":"22","saon":"","street":"ROSEFIELD GARDENS","locality":"","townOrCity":"LONDON","district":"TOWER HAMLETS","county":"GREATER LONDON","ppdCategoryType":"Standard","recordStatus":"Addition","latitude":51.51044,"longitude":-0.023752,"postcodeStart":"E14 8","postcode":["E14","8ER"]}
{"price":36500,"dateOfTransfer":"1996-12-20T00:00:00","postcodeFull":"E14 8AD","propertyType":"Flat/Maisonette/Townhouse","oldOrNew":"Established","duration":"Leasehold","paon":"GRENADA HOUSE","saon":"FLAT 13","street":"LIMEHOUSE CAUSEWAY","locality":"","townOrCity":"LONDON","district":"TOWER HAMLETS","county":"GREATER LONDON","ppdCategoryType":"Standard","recordStatus":"Addition","latitude":51.509568,"longitude":-0.028041,"postcodeStart":"E14 8","postcode":["E14","8AD"]}
{"price":238000,"dateOfTransfer":"1996-08-23T00:00:00","postcodeFull":"E14 8DG","propertyType":"Flat/Maisonette/Townhouse","oldOrNew":"New build","duration":"Leasehold","paon":"OLD SUN WHARF, 40","saon":"FLAT 27","street":"NARROW STREET","locality":"LONDON","townOrCity":"LONDON","district":"TOWER HAMLETS","county":"GREATER LONDON","ppdCategoryType":"Standard","recordStatus":"Addition","latitude":51.50988,"longitude":-0.039139,"postcodeStart":"E14 8","postcode":["E14","8DG"]}
{"price":129000,"dateOfTransfer":"1996-12-20T00:00:00","postcodeFull":"E14 8AU","propertyType":"Terraced","oldOrNew":"New build","duration":"Freehold","paon":"2","saon":"","street":"MILLIGAN STREET","locality":"LONDON","townOrCity":"LONDON","district":"TOWER HAMLETS","county":"GREATER LONDON","ppdCategoryType":"Standard","recordStatus":"Addition","latitude":51.508279,"longitude":-0.027866,"postcodeStart":"E14 8","postcode":["E14","8AU"]}
{"price":218500,"dateOfTransfer":"1996-12-06T00:00:00","postcodeFull":"E14 8AY","propertyType":"Flat/Maisonette/Townhouse","oldOrNew":"New build","duration":"Leasehold","paon":"DUNDEE WHARF, 100","saon":"FLAT 86","street":"THREE COLT STREET","locality":"","townOrCity":"LONDON","district":"TOWER HAMLETS","county":"GREATER LONDON","ppdCategoryType":"Standard","recordStatus":"Addition","latitude":51.507998,"longitude":-0.030962,"postcodeStart":"E14 8","postcode":["E14","8AY"]}
{"price":190000,"dateOfTransfer":"1996-12-20T00:00:00","postcodeFull":"E14 8AY","propertyType":"Flat/Maisonette/Townhouse","oldOrNew":"New build","duration":"Leasehold","paon":"DUNDEE WHARF, 100","saon":"FLAT 76","street":"THREE COLT STREET","locality":"LONDON","townOrCity":"LONDON","district":"TOWER HAMLETS","county":"GREATER LONDON","ppdCategoryType":"Standard","recordStatus":"Addition","latitude":51.507998,"longitude":-0.030962,"postcodeStart":"E14 8","postcode":["E14","8AY"]}
{"price":34500,"dateOfTransfer":"1996-02-26T00:00:00","postcodeFull":"E14 8HE","propertyType":"Flat/Maisonette/Townhouse","oldOrNew":"Established","duration":"Leasehold","paon":"ROCHE HOUSE","saon":"FLAT 56","street":"BECCLES STREET","locality":"","townOrCity":"LONDON","district":"TOWER HAMLETS","county":"GREATER LONDON","ppdCategoryType":"Standard","recordStatus":"Addition","latitude":51.510749,"longitude":-0.028768,"postcodeStart":"E14 8","postcode":["E14","8HE"]}
{"price":146995,"dateOfTransfer":"1996-11-29T00:00:00","postcodeFull":"E14 8AU","propertyType":"Terraced","oldOrNew":"New build","duration":"Freehold","paon":"32","saon":"","street":"MILLIGAN STREET","locality":"LONDON","townOrCity":"LONDON","district":"TOWER HAMLETS","county":"GREATER LONDON","ppdCategoryType":"Standard","recordStatus":"Addition","latitude":51.508279,"longitude":-0.027866,"postcodeStart":"E14 8","postcode":["E14","8AU"]}
{"price":50000,"dateOfTransfer":"1996-08-09T00:00:00","postcodeFull":"E14 8LH","propertyType":"Flat/Maisonette/Townhouse","oldOrNew":"Established","duration":"Freehold","paon":"74","saon":"","street":"ALPHA GROVE","locality":"","townOrCity":"LONDON","district":"TOWER HAMLETS","county":"GREATER LONDON","ppdCategoryType":"Standard","recordStatus":"Addition","latitude":51.499136,"longitude":-0.023737,"postcodeStart":"E14 8","postcode":["E14","8LH"]}
{"price":134995,"dateOfTransfer":"1996-06-28T00:00:00","postcodeFull":"E14 8AT","propertyType":"Terraced","oldOrNew":"New build","duration":"Freehold","paon":"29","saon":"","street":"MILLIGAN STREET","locality":"LONDON","townOrCity":"LONDON","district":"TOWER HAMLETS","county":"GREATER LONDON","ppdCategoryType":"Standard","recordStatus":"Addition","latitude":51.508448,"longitude":-0.02881,"postcodeStart":"E14 8","postcode":["E14","8AT"]}
{"price":22225,"dateOfTransfer":"1996-02-15T00:00:00","postcodeFull":"E14 8NU","propertyType":"Flat/Maisonette/Townhouse","oldOrNew":"Established","duration":"Leasehold","paon":"BOWSPRIT POINT, 167","saon":"FLAT 78","street":"WESTFERRY ROAD","locality":"","townOrCity":"LONDON","district":"TOWER HAMLETS","county":"GREATER LONDON","ppdCategoryType":"Standard","recordStatus":"Addition","latitude":51.496969,"longitude":-0.025372,"postcodeStart":"E14 8","postcode":["E14","8NU"]}
{"price":152500,"dateOfTransfer":"1996-06-13T00:00:00","postcodeFull":"E14 8BP","propertyType":"Flat/Maisonette/Townhouse","oldOrNew":"New build","duration":"Leasehold","paon":"140","saon":"FLAT 2","street":"NARROW STREET","locality":"LONDON","townOrCity":"LONDON","district":"TOWER HAMLETS","county":"GREATER LONDON","ppdCategoryType":"Standard","recordStatus":"Addition","latitude":51.508546,"longitude":-0.033014,"postcodeStart":"E14 8","postcode":["E14","8BP"]}
{"price":390000,"dateOfTransfer":"1996-02-16T00:00:00","postcodeFull":"E14 8BF","propertyType":"Terraced","oldOrNew":"Established","duration":"Freehold","paon":"1","saon":"","street":"BLYTHS WHARF","locality":"LONDON","townOrCity":"LONDON","district":"TOWER HAMLETS","county":"GREATER LONDON","ppdCategoryType":"Standard","recordStatus":"Addition","latitude":51.509004,"longitude":-0.034608,"postcodeStart":"E14 8","postcode":["E14","8BF"]}
{"price":12620,"dateOfTransfer":"1996-03-08T00:00:00","postcodeFull":"E14 8NT","propertyType":"Flat/Maisonette/Townhouse","oldOrNew":"Established","duration":"Leasehold","paon":"BOWSPRIT POINT, 167","saon":"FLAT 43","street":"WESTFERRY ROAD","locality":"","townOrCity":"LONDON","district":"TOWER HAMLETS","county":"GREATER LONDON","ppdCategoryType":"Standard","recordStatus":"Addition","latitude":51.496969,"longitude":-0.025372,"postcodeStart":"E14 8","postcode":["E14","8NT"]}
{"price":89000,"dateOfTransfer":"1996-11-07T00:00:00","postcodeFull":"E14 8NE","propertyType":"Flat/Maisonette/Townhouse","oldOrNew":"Established","duration":"Leasehold","paon":"ANCHORAGE POINT, 42","saon":"FLAT 32","street":"CUBA STREET","locality":"LONDON","townOrCity":"LONDON","district":"TOWER HAMLETS","county":"GREATER LONDON","ppdCategoryType":"Standard","recordStatus":"Addition","latitude":51.501944,"longitude":-0.027088,"postcodeStart":"E14 8","postcode":["E14","8NE"]}
{"price":61500,"dateOfTransfer":"1996-06-27T00:00:00","postcodeFull":"E14 8NJ","propertyType":"Terraced","oldOrNew":"Established","duration":"Freehold","paon":"11","saon":"","street":"CLAIRE PLACE","locality":"LONDON","townOrCity":"LONDON","district":"TOWER HAMLETS","county":"GREATER LONDON","ppdCategoryType":"Standard","recordStatus":"Addition","latitude":51.495958,"longitude":-0.022995,"postcodeStart":"E14 8","postcode":["E14","8NJ"]}
{"price":84000,"dateOfTransfer":"1996-11-29T00:00:00","postcodeFull":"E14 8SA","propertyType":"Flat/Maisonette/Townhouse","oldOrNew":"New build","duration":"Leasehold","paon":"GARLAND COURT, 1","saon":"FLAT 11","street":"PREMIERE PLACE","locality":"LONDON","townOrCity":"LONDON","district":"TOWER HAMLETS","county":"GREATER LONDON","ppdCategoryType":"Standard","recordStatus":"Addition","latitude":51.508467,"longitude":-0.026734,"postcodeStart":"E14 8","postcode":["E14","8SA"]}
{"price":85000,"dateOfTransfer":"1996-12-09T00:00:00","postcodeFull":"E14 8SA","propertyType":"Flat/Maisonette/Townhouse","oldOrNew":"New build","duration":"Leasehold","paon":"GARLAND COURT, 1","saon":"FLAT 1","street":"PREMIERE PLACE","locality":"LONDON","townOrCity":"LONDON","district":"NEWHAM","county":"GREATER LONDON","ppdCategoryType":"Standard","recordStatus":"Addition","latitude":51.508467,"longitude":-0.026734,"postcodeStart":"E14 8","postcode":["E14","8SA"]}
{"price":152500,"dateOfTransfer":"1996-06-13T00:00:00","postcodeFull":"E14 8BP","propertyType":"Flat/Maisonette/Townhouse","oldOrNew":"New build","duration":"Leasehold","paon":"140","saon":"FLAT 3","street":"NARROW STREET","locality":"LONDON","townOrCity":"LONDON","district":"TOWER HAMLETS","county":"GREATER LONDON","ppdCategoryType":"Standard","recordStatus":"Addition","latitude":51.508546,"longitude":-0.033014,"postcodeStart":"E14 8","postcode":["E14","8BP"]}
{"price":372000,"dateOfTransfer":"1996-05-31T00:00:00","postcodeFull":"E14 8BP","propertyType":"Terraced","oldOrNew":"New build","duration":"Freehold","paon":"136 \u0026 A HALF","saon":"","street":"NARROW STREET","locality":"LONDON","townOrCity":"LONDON","district":"TOWER HAMLETS","county":"GREATER LONDON","ppdCategoryType":"Standard","recordStatus":"Addition","latitude":51.508546,"longitude":-0.033014,"postcodeStart":"E14 8","postcode":["E14","8BP"]}
{"price":165000,"dateOfTransfer":"1996-08-02T00:00:00","postcodeFull":"E14 8DG","propertyType":"Flat/Maisonette/Townhouse","oldOrNew":"New build","duration":"Leasehold","paon":"OLD SUN WHARF, 40","saon":"FLAT 4","street":"NARROW STREET","locality":"LONDON","townOrCity":"LONDON","district":"TOWER HAMLETS","county":"GREATER LONDON","ppdCategoryType":"Standard","recordStatus":"Addition","latitude":51.50988,"longitude":-0.039139,"postcodeStart":"E14 8","postcode":["E14","8DG"]}
{"price":250000,"dateOfTransfer":"1996-08-14T00:00:00","postcodeFull":"E14 8DG","propertyType":"Flat/Maisonette/Townhouse","oldOrNew":"New build","duration":"Leasehold","paon":"OLD SUN WHARF, 40","saon":"FLAT 17","street":"NARROW STREET","locality":"LONDON","townOrCity":"LONDON","district":"TOWER HAMLETS","county":"GREATER LONDON","ppdCategoryType":"Standard","recordStatus":"Addition","latitude":51.50988,"longitude":-0.039139,"postcodeStart":"E14 8","postcode":["E14","8DG"]}
{"price":146500,"dateOfTransfer":"1996-09-30T00:00:00","postcodeFull":"E14 8BG","propertyType":"Flat/Maisonette/Townhouse","oldOrNew":"New build","duration":"Leasehold","paon":"DRAKE HOUSE, 4","saon":"FLAT 20","street":"VICTORY PLACE","locality":"LONDON","townOrCity":"LONDON","district":"TOWER HAMLETS","county":"GREATER LONDON","ppdCategoryType":"Standard","recordStatus":"Addition","latitude":51.510596,"longitude":-0.035159,"postcodeStart":"E14 8","postcode":["E14","8BG"]}
{"price":264000,"dateOfTransfer":"1996-10-28T00:00:00","postcodeFull":"E14 8BZ","propertyType":"Flat/Maisonette/Townhouse","oldOrNew":"Established","duration":"Leasehold","paon":"PAPER MILL WHARF, 50","saon":"FLAT 14","street":"NARROW STREET","locality":"LONDON","townOrCity":"LONDON","district":"TOWER HAMLETS","county":"GREATER LONDON","ppdCategoryType":"Standard","recordStatus":"Addition","latitude":51.509219,"longitude":-0.035665,"postcodeStart":"E14 8","postcode":["E14","8BZ"]}
{"price":230000,"dateOfTransfer":"1996-05-31T00:00:00","postcodeFull":"E14 8DG","propertyType":"Flat/Maisonette/Townhouse","oldOrNew":"New build","duration":"Leasehold","paon":"OLD SUN WHARF, 40","saon":"FLAT 19","street":"NARROW STREET","locality":"LONDON","townOrCity":"LONDON","district":"TOWER HAMLETS","county":"GREATER LONDON","ppdCategoryType":"Standard","recordStatus":"Addition","latitude":51.50988,"longitude":-0.039139,"postcodeStart":"E14 8","postcode":["E14","8DG"]}
{"price":192500,"dateOfTransfer":"1996-07-17T00:00:00","postcodeFull":"E14 8DG","propertyType":"Flat/Maisonette/Townhouse","oldOrNew":"New build","duration":"Leasehold","paon":"OLD SUN WHARF, 40","saon":"FLAT 20","street":"NARROW STREET","locality":"LONDON","townOrCity":"LONDON","district":"TOWER HAMLETS","county":"GREATER LONDON","ppdCategoryType":"Standard","recordStatus":"Addition","latitude":51.50988,"longitude":-0.039139,"postcodeStart":"E14 8","postcode":["E14","8DG"]}
{"price":85000,"dateOfTransfer":"1996-11-22T00:00:00","postcodeFull":"E14 8SA","propertyType":"Flat/Maisonette/Townhouse","oldOrNew":"New build","duration":"Leasehold","paon":"GARLAND COURT, 1","saon":"FLAT 2","street":"PREMIERE PLACE","locality":"LONDON","townOrCity":"LONDON","district":"TOWER HAMLETS","county":"GREATER LONDON","ppdCategoryType":"Standard","recordStatus":"Addition","latitude":51.508467,"longitude":-0.026734,"postcodeStart":"E14 8","postcode":["E14","8SA"]}
{"price":193500,"dateOfTransfer":"1996-11-29T00:00:00","postcodeFull":"E14 8AY","propertyType":"Flat/Maisonette/Townhouse","oldOrNew":"New build","duration":"Leasehold","paon":"DUNDEE WHARF, 100","saon":"FLAT 81","street":"THREE COLT STREET","locality":"","townOrCity":"LONDON","district":"TOWER HAMLETS","county":"GREATER LONDON","ppdCategoryType":"Standard","recordStatus":"Addition","latitude":51.507998,"longitude":-0.030962,"postcodeStart":"E14 8","postcode":["E14","8AY"]}
{"price":110000,"dateOfTransfer":"1996-08-14T00:00:00","postcodeFull":"E14 8NE","propertyType":"Flat/Maisonette/Townhouse","oldOrNew":"Established","duration":"Leasehold","paon":"ANCHORAGE POINT, 42","saon":"FLAT 38","street":"CUBA STREET","locality":"LONDON","townOrCity":"LONDON","district":"TOWER HAMLETS","county":"GREATER LONDON","ppdCategoryType":"Standard","recordStatus":"Addition","latitude":51.501944,"longitude":-0.027088,"postcodeStart":"E14 8","postcode":["E14","8NE"]}
{"price":208500,"dateOfTransfer":"1996-12-09T00:00:00","postcodeFull":"E14 8AY","propertyType":"Flat/Maisonette/Townhouse","oldOrNew":"New build","duration":"Leasehold","paon":"DUNDEE WHARF, 100","saon":"FLAT 84","street":"THREE COLT STREET","locality":"LONDON","townOrCity":"LONDON","district":"TOWER HAMLETS","county":"GREATER LONDON","ppdCategoryType":"Standard","recordStatus":"Addition","latitude":51.507998,"longitude":-0.030962,"postcodeStart":"E14 8","postcode":["E14","8AY"]}
{"price":71000,"dateOfTransfer":"1996-12-12T00:00:00","postcodeFull":"E14 8SB","propertyType":"Flat/Maisonette/Townhouse","oldOrNew":"New build","duration":"Leasehold","paon":"BOGART COURT, 2","saon":"FLAT 12","street":"PREMIERE PLACE","locality":"LONDON","townOrCity":"LONDON","district":"TOWER HAMLETS","county":"GREATER LONDON","ppdCategoryType":"Standard","recordStatus":"Addition","latitude":51.508833,"longitude":-0.02656,"postcodeStart":"E14 8","postcode":["E14","8SB"]}
{"price":55950,"dateOfTransfer":"1996-09-20T00:00:00","postcodeFull":"E14 8NJ","propertyType":"Terraced","oldOrNew":"Established","duration":"Freehold","paon":"4","saon":"","street":"CLAIRE PLACE","locality":"LONDON","townOrCity":"LONDON","district":"TOWER HAMLETS","county":"GREATER LONDON","ppdCategoryType":"Standard","recordStatus":"Addition","latitude":51.495958,"longitude":-0.022995,"postcodeStart":"E14 8","postcode":["E14","8NJ"]}
{"price":210000,"dateOfTransfer":"1996-07-05T00:00:00","postcodeFull":"E14 8DG","propertyType":"Flat/Maisonette/Townhouse","oldOrNew":"New build","duration":"Leasehold","paon":"OLD SUN WHARF, 40","saon":"FLAT 1","street":"NARROW STREET","locality":"LONDON","townOrCity":"LONDON","district":"TOWER HAMLETS","county":"GREATER LONDON","ppdCategoryType":"Standard","recordStatus":"Addition","latitude":51.50988,"longitude":-0.039139,"postcodeStart":"E14 8","postcode":["E14","8DG"]}
{"price":71000,"dateOfTransfer":"1996-12-04T00:00:00","postcodeFull":"E14 8SA","propertyType":"Flat/Maisonette/Townhouse","oldOrNew":"New build","duration":"Leasehold","paon":"GARLAND COURT, 1","saon":"FLAT 12","street":"PREMIERE PLACE","locality":"LONDON","townOrCity":"LONDON","district":"TOWER HAMLETS","county":"GREATER LONDON","ppdCategoryType":"Standard","recordStatus":"Addition","latitude":51.508467,"longitude":-0.026734,"postcodeStart":"E14 8","postcode":["E14","8SA"]}
{"price":124995,"dateOfTransfer":"1996-06-28T00:00:00","postcodeFull":"E14 8AT","propertyType":"Terraced","oldOrNew":"New build","duration":"Freehold","paon":"25","saon":"","street":"MILLIGAN STREET","locality":"LONDON","townOrCity":"LONDON","district":"TOWER HAMLETS","county":"GREATER LONDON","ppdCategoryType":"Standard","recordStatus":"Addition","latitude":51.508448,"longitude":-0.02881,"postcodeStart":"E14 8","postcode":["E14","8AT"]}
{"price":230000,"dateOfTransfer":"1996-06-28T00:00:00","postcodeFull":"E14 8DG","propertyType":"Flat/Maisonette/Townhouse","oldOrNew":"New build","duration":"Leasehold","paon":"OLD SUN WHARF, 40","saon":"FLAT 34","street":"NARROW STREET","locality":"LONDON","townOrCity":"LONDON","district":"TOWER HAMLETS","county":"GREATER LONDON","ppdCategoryType":"Standard","recordStatus":"Addition","latitude":51.50988,"longitude":-0.039139,"postcodeStart":"E14 8","postcode":["E14","8DG"]}
{"price":69000,"dateOfTransfer":"1996-11-15T00:00:00","postcodeFull":"E14 8SA","propertyType":"Flat/Maisonette/Townhouse","oldOrNew":"New build","duration":"Leasehold","paon":"GARLAND COURT, 1","saon":"FLAT 6","street":"PREMIERE PLACE","locality":"LONDON","townOrCity":"LONDON","district":"TOWER HAMLETS","county":"GREATER LONDON","ppdCategoryType":"Standard","recordStatus":"Addition","latitude":51.508467,"longitude":-0.026734,"postcodeStart":"E14 8","postcode":["E14","8SA"]}
{"price":95500,"dateOfTransfer":"1996-09-18T00:00:00","postcodeFull":"E14 8BG","propertyType":"Flat/Maisonette/Townhouse","oldOrNew":"New build","duration":"Leasehold","paon":"DRAKE HOUSE, 4","saon":"FLAT 3","street":"VICTORY PLACE","locality":"LONDON","townOrCity":"LONDON","district":"TOWER HAMLETS","county":"GREATER LONDON","ppdCategoryType":"Standard","recordStatus":"Addition","latitude":51.510596,"longitude":-0.035159,"postcodeStart":"E14 8","postcode":["E14","8BG"]}
{"price":127995,"dateOfTransfer":"1996-07-26T00:00:00","postcodeFull":"E14 8AT","propertyType":"Flat/Maisonette/Townhouse","oldOrNew":"New build","duration":"Freehold","paon":"21","saon":"","street":"MILLIGAN STREET","locality":"LONDON","townOrCity":"LONDON","district":"TOWER HAMLETS","county":"GREATER LONDON","ppdCategoryType":"Standard","recordStatus":"Addition","latitude":51.508448,"longitude":-0.02881,"postcodeStart":"E14 8","postcode":["E14","8AT"]}
{"price":200000,"dateOfTransfer":"1996-05-14T00:00:00","postcodeFull":"E14 8BX","propertyType":"Terraced","oldOrNew":"New build","duration":"Freehold","paon":"13","saon":"","street":"ROPEMAKERS FIELDS","locality":"LONDON","townOrCity":"LONDON","district":"TOWER HAMLETS","county":"GREATER LONDON","ppdCategoryType":"Standard","recordStatus":"Addition","latitude":51.509173,"longitude":-0.033419,"postcodeStart":"E14 8","postcode":["E14","8BX"]}
{"price":157950,"dateOfTransfer":"1996-12-20T00:00:00","postcodeFull":"E14 8BG","propertyType":"Flat/Maisonette/Townhouse","oldOrNew":"New build","duration":"Leasehold","paon":"OSPREY HOUSE, 5","saon":"FLAT 7","street":"VICTORY PLACE","locality":"LONDON","townOrCity":"LONDON","district":"TOWER HAMLETS","county":"GREATER LONDON","ppdCategoryType":"Standard","recordStatus":"Addition","latitude":51.510596,"longitude":-0.035159,"postcodeStart":"E14 8","postcode":["E14","8BG"]}
{"price":73500,"dateOfTransfer":"1996-12-16T00:00:00","postcodeFull":"E14 8SB","propertyType":"Flat/Maisonette/Townhouse","oldOrNew":"New build","duration":"Leasehold","paon":"BOGART COURT, 2","saon":"FLAT 15","street":"PREMIERE PLACE","locality":"LONDON","townOrCity":"LONDON","district":"TOWER HAMLETS","county":"GREATER LONDON","ppdCategoryType":"Standard","recordStatus":"Addition","latitude":51.508833,"longitude":-0.02656,"postcodeStart":"E14 8","postcode":["E14","8SB"]}
{"price":114000,"dateOfTransfer":"1996-03-01T00:00:00","postcodeFull":"E14 8JN","propertyType":"Flat/Maisonette/Townhouse","oldOrNew":"Established","duration":"Leasehold","paon":"CASCADES TOWER, 4","saon":"FLAT 1108","street":"WESTFERRY ROAD","locality":"LONDON","townOrCity":"LONDON","district":"TOWER HAMLETS","county":"GREATER LONDON","ppdCategoryType":"Standard","recordStatus":"Addition","latitude":51.502456,"longitude":-0.027008,"postcodeStart":"E14 8","postcode":["E14","8JN"]}
{"price":117500,"dateOfTransfer":"1996-07-25T00:00:00","postcodeFull":"E14 8BJ","propertyType":"Flat/Maisonette/Townhouse","oldOrNew":"New build","duration":"Leasehold","paon":"CHALLENGER HOUSE, 3","saon":"FLAT 2","street":"VICTORY PLACE","locality":"LONDON","townOrCity":"LONDON","district":"TOWER HAMLETS","county":"GREATER LONDON","ppdCategoryType":"Standard","recordStatus":"Addition","latitude":51.51027,"longitude":-0.035058,"postcodeStart":"E14 8","postcode":["E14","8BJ"]}
{"price":139995,"dateOfTransfer":"1996-10-25T00:00:00","postcodeFull":"E14 8AU","propertyType":"Flat/Maisonette/Townhouse","oldOrNew":"New build","duration":"Freehold","paon":"36","saon":"","street":"MILLIGAN STREET","locality":"LONDON","townOrCity":"LONDON","district":"TOWER HAMLETS","county":"GREATER LONDON","ppdCategoryType":"Standard","recordStatus":"Addition","latitude":51.508279,"longitude":-0.027866,"postcodeStart":"E14 8","postcode":["E14","8AU"]}
{"price":72500,"dateOfTransfer":"1996-12-10T00:00:00","postcodeFull":"E14 8SA","propertyType":"Flat/Maisonette/Townhouse","oldOrNew":"New build","duration":"Leasehold","paon":"GARLAND COURT, 1","saon":"FLAT 10","street":"PREMIERE PLACE","locality":"LONDON","townOrCity":"LONDON","district":"TOWER HAMLETS","county":"GREATER LONDON","ppdCategoryType":"Standard","recordStatus":"Addition","latitude":51.508467,"longitude":-0.026734,"postcodeStart":"E14 8","postcode":["E14","8SA"]}
{"price":215000,"dateOfTransfer":"1996-10-22T00:00:00","postcodeFull":"E14 8DG","propertyType":"Flat/Maisonette/Townhouse","oldOrNew":"Established","duration":"Leasehold","paon":"OLD SUN WHARF, 40","saon":"FLAT 16","street":"NARROW STREET","locality":"LONDON","townOrCity":"LONDON","district":"TOWER HAMLETS","county":"GREATER LONDON","ppdCategoryType":"Standard","recordStatus":"Addition","latitude":51.50988,"longitude":-0.039139,"postcodeStart":"E14 8","postcode":["E14","8DG"]}
{"price":235000,"dateOfTransfer":"1996-06-03T00:00:00","postcodeFull":"E14 8DQ","propertyType":"Flat/Maisonette/Townhouse","oldOrNew":"Established","duration":"Leasehold","paon":"18 - 22","saon":"FLAT 1A","street":"NARROW STREET","locality":"LONDON","townOrCity":"LONDON","district":"TOWER HAMLETS","county":"GREATER LONDON","ppdCategoryType":"Standard","recordStatus":"Addition","latitude":51.509967,"longitude":-0.041109,"postcodeStart":"E14 8","postcode":["E14","8DQ"]}
{"price":145000,"dateOfTransfer":"1996-08-08T00:00:00","postcodeFull":"E14 8BJ","propertyType":"Flat/Maisonette/Townhouse","oldOrNew":"New build","duration":"Leasehold","paon":"CHALLENGER HOUSE, 3","saon":"FLAT 10","street":"VICTORY PLACE","locality":"LONDON","townOrCity":"LONDON","district":"TOWER HAMLETS","county":"GREATER LONDON","ppdCategoryType":"Standard","recordStatus":"Addition","latitude":51.51027,"longitude":-0.035058,"postcodeStart":"E14 8","postcode":["E14","8BJ"]}
{"price":97500,"dateOfTransfer":"1996-09-27T00:00:00","postcodeFull":"E14 8BG","propertyType":"Flat/Maisonette/Townhouse","oldOrNew":"New build","duration":"Leasehold","paon":"DRAKE HOUSE, 4","saon":"FLAT 18","street":"VICTORY PLACE","locality":"LONDON","townOrCity":"LONDON","district":"TOWER HAMLETS","county":"GREATER LONDON","ppdCategoryType":"Standard","recordStatus":"Addition","latitude":51.510596,"longitude":-0.035159,"postcodeStart":"E14 8","postcode":["E14","8BG"]}
{"price":113000,"dateOfTransfer":"1996-10-25T00:00:00","postcodeFull":"E14 8AU","propertyType":"Flat/Maisonette/Townhouse","oldOrNew":"New build","duration":"Freehold","paon":"18","saon":"","street":"MILLIGAN STREET","locality":"LONDON","townOrCity":"LONDON","district":"TOWER HAMLETS","county":"GREATER LONDON","ppdCategoryType":"Standard","recordStatus":"Addition","latitude":51.508279,"longitude":-0.027866,"postcodeStart":"E14 8","postcode":["E14","8AU"]}
{"price":122000,"dateOfTransfer":"1996-12-12T00:00:00","postcodeFull":"E14 8BY","propertyType":"Flat/Maisonette/Townhouse","oldOrNew":"Established","duration":"Leasehold","paon":"19","saon":"","street":"ROY SQUARE","locality":"LONDON","townOrCity":"LONDON","district":"TOWER HAMLETS","county":"GREATER LONDON","ppdCategoryType":"Standard","recordStatus":"Addition","latitude":51.509654,"longitude":-0.034767,"postcodeStart":"E14 8","postcode":["E14","8BY"]}
{"price":120995,"dateOfTransfer":"1996-11-06T00:00:00","postcodeFull":"E14 8AU","propertyType":"Terraced","oldOrNew":"New build","duration":"Freehold","paon":"20","saon":"","street":"MILLIGAN STREET","locality":"LONDON","townOrCity":"LONDON","district":"TOWER HAMLETS","county":"GREATER LONDON","ppdCategoryType":"Standard","recordStatus":"Addition","latitude":51.508279,"longitude":-0.027866,"postcodeStart":"E14 8","postcode":["E14","8AU"]}
{"price":325000,"dateOfTransfer":"1996-06-06T00:00:00","postcodeFull":"E14 8DG","propertyType":"Flat/Maisonette/Townhouse","oldOrNew":"New build","duration":"Leasehold","paon":"OLD SUN WHARF, 40","saon":"FLAT 35","street":"NARROW STREET","locality":"LONDON","townOrCity":"LONDON","district":"TOWER HAMLETS","county":"GREATER LONDON","ppdCategoryType":"Standard","recordStatus":"Addition","latitude":51.50988,"longitude":-0.039139,"postcodeStart":"E14 8","postcode":["E14","8DG"]}
{"price":106995,"dateOfTransfer":"1996-10-25T00:00:00","postcodeFull":"E14 8AU","propertyType":"Terraced","oldOrNew":"New build","duration":"Freehold","paon":"24","saon":"","street":"MILLIGAN STREET","locality":"LONDON","townOrCity":"LONDON","district":"TOWER HAMLETS","county":"GREATER LONDON","ppdCategoryType":"Standard","recordStatus":"Addition","latitude":51.508279,"longitude":-0.027866,"postcodeStart":"E14 8","postcode":["E14","8AU"]}
{"price":125000,"dateOfTransfer":"1996-12-02T00:00:00","postcodeFull":"E14 8AY","propertyType":"Flat/Maisonette/Townhouse","oldOrNew":"New build","duration":"Leasehold","paon":"DUNDEE WHARF, 100","saon":"FLAT 97","street":"THREE COLT STREET","locality":"LONDON","townOrCity":"LONDON","district":"TOWER HAMLETS","county":"GREATER LONDON","ppdCategoryType":"Standard","recordStatus":"Addition","latitude":51.507998,"longitude":-0.030962,"postcodeStart":"E14 8","postcode":["E14","8AY"]}
{"price":106995,"dateOfTransfer":"1996-11-28T00:00:00","postcodeFull":"E14 8AU","propertyType":"Flat/Maisonette/Townhouse","oldOrNew":"New build","duration":"Freehold","paon":"10","saon":"","street":"MILLIGAN STREET","locality":"LONDON","townOrCity":"LONDON","district":"TOWER HAMLETS","county":"GREATER LONDON","ppdCategoryType":"Standard","recordStatus":"Addition","latitude":51.508279,"longitude":-0.027866,"postcodeStart":"E14 8","postcode":["E14","8AU"]}
{"price":148544,"dateOfTransfer":"1996-12-06T00:00:00","postcodeFull":"E14 8BG","propertyType":"Flat/Maisonette/Townhouse","oldOrNew":"New build","duration":"Leasehold","paon":"OSPREY HOUSE, 5","saon":"FLAT 1","street":"VICTORY PLACE","locality":"LONDON","townOrCity":"LONDON","district":"TOWER HAMLETS","county":"GREATER LONDON","ppdCategoryType":"Standard","recordStatus":"Addition","latitude":51.510596,"longitude":-0.035159,"postcodeStart":"E14 8","postcode":["E14","8BG"]}
{"price":145000,"dateOfTransfer":"1996-11-29T00:00:00","postcodeFull":"E14 8BP","propertyType":"Flat/Maisonette/Townhouse","oldOrNew":"New build","duration":"Leasehold","paon":"SAILMAKERS HOUSE, 136","saon":"FLAT 2","street":"NARROW STREET","locality":"LONDON","townOrCity":"LONDON","district":"TOWER HAMLETS","county":"GREATER LONDON","ppdCategoryType":"Standard","recordStatus":"Addition","latitude":51.508546,"longitude":-0.033014,"postcodeStart":"E14 8","postcode":["E14","8BP"]}
{"price":71000,"dateOfTransfer":"1996-12-09T00:00:00","postcodeFull":"E14 8SA","propertyType":"Flat/Maisonette/Townhouse","oldOrNew":"New build","duration":"Leasehold","paon":"GARLAND COURT, 1","saon":"FLAT 9","street":"PREMIERE PLACE","locality":"LONDON","townOrCity":"LONDON","district":"TOWER HAMLETS","county":"GREATER LONDON","ppdCategoryType":"Standard","recordStatus":"Addition","latitude":51.508467,"longitude":-0.026734,"postcodeStart":"E14 8","postcode":["E14","8SA"]}
{"price":68750,"dateOfTransfer":"1996-02-29T00:00:00","postcodeFull":"E14 8PJ","propertyType":"Terraced","oldOrNew":"Established","duration":"Freehold","paon":"145","saon":"","street":"MELLISH STREET","locality":"LONDON","townOrCity":"LONDON","district":"TOWER HAMLETS","county":"GREATER LONDON","ppdCategoryType":"Standard","recordStatus":"Addition","latitude":51.496856,"longitude":-0.020262,"postcodeStart":"E14 8","postcode":["E14","8PJ"]}
{"price":117000,"dateOfTransfer":"1996-01-25T00:00:00","postcodeFull":"E14 8NE","propertyType":"Flat/Maisonette/Townhouse","oldOrNew":"Established","duration":"Leasehold","paon":"ANCHORAGE POINT, 42","saon":"FLAT 46","street":"CUBA STREET","locality":"LONDON","townOrCity":"LONDON","district":"TOWER HAMLETS","county":"GREATER LONDON","ppdCategoryType":"Standard","recordStatus":"Addition","latitude":51.501944,"longitude":-0.027088,"postcodeStart":"E14 8","postcode":["E14","8NE"]}
{"price":60000,"dateOfTransfer":"1996-10-31T00:00:00","postcodeFull":"E14 8NA","propertyType":"Semi-detached","oldOrNew":"Established","duration":"Freehold","paon":"9","saon":"","street":"HAVANNAH STREET","locality":"LONDON","townOrCity":"LONDON","district":"TOWER HAMLETS","county":"GREATER LONDON","ppdCategoryType":"Standard","recordStatus":"Addition","latitude":51.499691,"longitude":-0.024102,"postcodeStart":"E14 8","postcode":["E14","8NA"]}
{"price":159950,"dateOfTransfer":"1996-12-20T00:00:00","postcodeFull":"E14 8BG","propertyType":"Flat/Maisonette/Townhouse","oldOrNew":"New build","duration":"Leasehold","paon":"OSPREY HOUSE, 5","saon":"FLAT 4","street":"VICTORY PLACE","locality":"LONDON","townOrCity":"LONDON","district":"TOWER HAMLETS","county":"GREATER LONDON","ppdCategoryType":"Standard","recordStatus":"Addition","latitude":51.510596,"longitude":-0.035159,"postcodeStart":"E14 8","postcode":["E14","8BG"]}
{"price":190000,"dateOfTransfer":"1996-09-12T00:00:00","postcodeFull":"E14 8BZ","propertyType":"Flat/Maisonette/Townhouse","oldOrNew":"Established","duration":"Leasehold","paon":"PAPER MILL WHARF, 50","saon":"FLAT 40","street":"NARROW STREET","locality":"LONDON","townOrCity":"LONDON","district":"TOWER HAMLETS","county":"GREATER LONDON","ppdCategoryType":"Standard","recordStatus":"Addition","latitude":51.509219,"longitude":-0.035665,"postcodeStart":"E14 8","postcode":["E14","8BZ"]}
{"price":60000,"dateOfTransfer":"1996-10-11T00:00:00","postcodeFull":"E14 8PJ","propertyType":"Terraced","oldOrNew":"Established","duration":"Freehold","paon":"143","saon":"","street":"MELLISH STREET","locality":"LONDON","townOrCity":"LONDON","district":"TOWER HAMLETS","county":"GREATER LONDON","ppdCategoryType":"Standard","recordStatus":"Addition","latitude":51.496856,"longitude":-0.020262,"postcodeStart":"E14 8","postcode":["E14","8PJ"]}
