{"price":71000,"dateOfTransfer":"1995-02-21T00:00:00","postcodeFull":"EX6 6NA","propertyType":"Terraced","oldOrNew":"Established","duration":"Freehold","paon":"4","saon":"","street":"CROCKERNWELL COURT","locality":"CROCKERNWELL","townOrCity":"EXETER","district":"MID DEVON","county":"DEVON","ppdCategoryType":"Standard","recordStatus":"Addition","latitude":50.71786,"longitude":-3.76804,"postcodeStart":"EX6 6","postcode":["EX6","6NA"]}
{"price":127000,"dateOfTransfer":"1995-12-15T00:00:00","postcodeFull":"EX6 6EU","propertyType":"Detached","oldOrNew":"Established","duration":"Freehold","paon":"RYE EVISH","saon":"","street":"","locality":"TEDBURN ST MARY","townOrCity":"EXETER","district":"MID DEVON","county":"DEVON","ppdCategoryType":"Standard","recordStatus":"Addition","latitude":50.749304,"longitude":-3.713656,"postcodeStart":"EX6 6","postcode":["EX6","6EU"]}
{"price":17750,"dateOfTransfer":"1995-07-11T00:00:00","postcodeFull":"EX6 6QW","propertyType":"Terraced","oldOrNew":"Established","duration":"Freehold","paon":"SUNNYBANK","saon":"1","street":"","locality":"DREWSTEIGNTON","townOrCity":"EXETER","district":"WEST DEVON","county":"DEVON","ppdCategoryType":"Standard","recordStatus":"Addition","latitude":50.703142,"longitude":-3.792515,"postcodeStart":"EX6 6","postcode":["EX6","6QW"]}
{"price":55000,"dateOfTransfer":"1995-01-17T00:00:00","postcodeFull":"EX6 6RN","propertyType":"Detached","oldOrNew":"Established","duration":"Freehold","paon":"6","saon":"","street":"SOUTHWAY","locality":"TEDBURN ST MARY","townOrCity":"EXETER","district":"TEIGNBRIDGE","county":"DEVON","ppdCategoryType":"Standard","recordStatus":"Addition","latitude":50.732598,"longitude":-3.679461,"postcodeStart":"EX6 6","postcode":["EX6","6RN"]}
{"price":59900,"dateOfTransfer":"1995-09-22T00:00:00","postcodeFull":"EX6 6QW","propertyType":"Semi-detached","oldOrNew":"Established","duration":"Freehold","paon":"1","saon":"","street":"EASTERN VIEW","locality":"DREWSTEIGNTON","townOrCity":"EXETER","district":"WEST DEVON","county":"DEVON","ppdCategoryType":"Standard","recordStatus":"Addition","latitude":50.703142,"longitude":-3.792515,"postcodeStart":"EX6 6","postcode":["EX6","6QW"]}
{"price":110000,"dateOfTransfer":"1995-07-03T00:00:00","postcodeFull":"EX6 6HD","propertyType":"Detached","oldOrNew":"Established","duration":"Freehold","paon":"PLUM ORCHARD","saon":"","street":"","locality":"CHERITON BISHOP","townOrCity":"EXETER","district":"MID DEVON","county":"DEVON","ppdCategoryType":"Standard","recordStatus":"Addition","latitude":50.731555,"longitude":-3.740102,"postcodeStart":"EX6 6","postcode":["EX6","6HD"]}
{"price":55000,"dateOfTransfer":"1995-09-22T00:00:00","postcodeFull":"EX6 6QP","propertyType":"Terraced","oldOrNew":"Established","duration":"Freehold","paon":"MYRTLE COTTAGE","saon":"","street":"","locality":"DREWSTEIGNTON","townOrCity":"EXETER","district":"WEST DEVON","county":"DEVON","ppdCategoryType":"Standard","recordStatus":"Addition","latitude":50.703284,"longitude":-3.792049,"postcodeStart":"EX6 6","postcode":["EX6","6QP"]}
{"price":50000,"dateOfTransfer":"1995-11-30T00:00:00","postcodeFull":"EX6 6AP","propertyType":"Semi-detached","oldOrNew":"Established","duration":"Freehold","paon":"43","saon":"","street":"FOUR OAKS ROAD","locality":"TEDBURN ST MARY","townOrCity":"EXETER","district":"TEIGNBRIDGE","county":"DEVON","ppdCategoryType":"Standard","recordStatus":"Addition","latitude":50.732193,"longitude":-3.675706,"postcodeStart":"EX6 6","postcode":["EX6","6AP"]}
{"price":60000,"dateOfTransfer":"1995-05-25T00:00:00","postcodeFull":"EX6 6HH","propertyType":"Detached","oldOrNew":"Established","duration":"Freehold","paon":"WOODLANDS","saon":"4","street":"","locality":"CHERITON BISHOP","townOrCity":"EXETER","district":"MID DEVON","county":"DEVON","ppdCategoryType":"Standard","recordStatus":"Addition","latitude":50.741225,"longitude":-3.77166,"postcodeStart":"EX6 6","postcode":["EX6","6HH"]}
{"price":87000,"dateOfTransfer":"1995-12-15T00:00:00","postcodeFull":"EX6 6RL","propertyType":"Detached","oldOrNew":"Established","duration":"Freehold","paon":"5","saon":"","street":"NORTHPARK ROAD","locality":"TEDBURN ST MARY","townOrCity":"EXETER","district":"TEIGNBRIDGE","county":"DEVON","ppdCategoryType":"Standard","recordStatus":"Addition","latitude":50.733977,"longitude":-3.680474,"postcodeStart":"EX6 6","postcode":["EX6","6RL"]}
{"price":85000,"dateOfTransfer":"1995-06-30T00:00:00","postcodeFull":"EX6 6HY","propertyType":"Detached","oldOrNew":"Established","duration":"Freehold","paon":"BROOKSIDE","saon":"","street":"CHURCH LANE","locality":"CHERITON BISHOP","townOrCity":"EXETER","district":"MID DEVON","county":"DEVON","ppdCategoryType":"Standard","recordStatus":"Addition","latitude":50.727529,"longitude":-3.739329,"postcodeStart":"EX6 6","postcode":["EX6","6HY"]}
{"price":55000,"dateOfTransfer":"1995-09-08T00:00:00","postcodeFull":"EX6 6EB","propertyType":"Terraced","oldOrNew":"Established","duration":"Freehold","paon":"EASTVIEW COTTAGE","saon":"","street":"","locality":"TEDBURN ST MARY","townOrCity":"EXETER","district":"TEIGNBRIDGE","county":"DEVON","ppdCategoryType":"Standard","recordStatus":"Addition","latitude":50.735128,"longitude":-3.679864,"postcodeStart":"EX6 6","postcode":["EX6","6EB"]}
{"price":81500,"dateOfTransfer":"1995-12-04T00:00:00","postcodeFull":"EX6 6LF","propertyType":"Detached","oldOrNew":"Established","duration":"Freehold","paon":"CHURCH COTTAGE","saon":"","street":"","locality":"HITTISLEIGH","townOrCity":"EXETER","district":"MID DEVON","county":"DEVON","ppdCategoryType":"Standard","recordStatus":"Addition","latitude":50.744869,"longitude":-3.795649,"postcodeStart":"EX6 6","postcode":["EX6","6LF"]}
{"price":234000,"dateOfTransfer":"1995-03-03T00:00:00","postcodeFull":"EX6 6RF","propertyType":"Detached","oldOrNew":"Established","duration":"Freehold","paon":"NEWTON BARTON HOUSE","saon":"","street":"","locality":"DREWSTEIGNTON","townOrCity":"EXETER","district":"WEST DEVON","county":"DEVON","ppdCategoryType":"Standard","recordStatus":"Addition","latitude":50.711285,"longitude":-3.829909,"postcodeStart":"EX6 6","postcode":["EX6","6RF"]}
{"price":50000,"dateOfTransfer":"1995-06-30T00:00:00","postcodeFull":"EX6 6AA","propertyType":"Semi-detached","oldOrNew":"Established","duration":"Freehold","paon":"33","saon":"","street":"SCHOOL LANE","locality":"TEDBURN ST MARY","townOrCity":"EXETER","district":"TEIGNBRIDGE","county":"DEVON","ppdCategoryType":"Standard","recordStatus":"Addition","latitude":50.733097,"longitude":-3.677838,"postcodeStart":"EX6 6","postcode":["EX6","6AA"]}
{"price":55000,"dateOfTransfer":"1995-03-17T00:00:00","postcodeFull":"EX6 6QP","propertyType":"Flat/Maisonette/Townhouse","oldOrNew":"Established","duration":"Leasehold","paon":"CHURCH VIEW HOUSE","saon":"FLAT 2","street":"","locality":"DREWSTEIGNTON","townOrCity":"EXETER","district":"WEST DEVON","county":"DEVON","ppdCategoryType":"Standard","recordStatus":"Addition","latitude":50.703284,"longitude":-3.792049,"postcodeStart":"EX6 6","postcode":["EX6","6QP"]}
{"price":210000,"dateOfTransfer":"1995-10-31T00:00:00","postcodeFull":"EX6 6PY","propertyType":"Detached","oldOrNew":"Established","duration":"Freehold","paon":"UPPERTON","saon":"","street":"","locality":"DREWSTEIGNTON","townOrCity":"EXETER","district":"WEST DEVON","county":"DEVON","ppdCategoryType":"Standard","recordStatus":"Addition","latitude":50.699849,"longitude":-3.751237,"postcodeStart":"EX6 6","postcode":["EX6","6PY"]}
{"price":85000,"dateOfTransfer":"1995-02-08T00:00:00","postcodeFull":"EX6 6BE","propertyType":"Detached","oldOrNew":"Established","duration":"Freehold","paon":"LITTLE BOWDEN","saon":"","street":"","locality":"TEDBURN ST MARY","townOrCity":"EXETER","district":"TEIGNBRIDGE","county":"DEVON","ppdCategoryType":"Standard","recordStatus":"Addition","latitude":50.740784,"longitude":-3.6812,"postcodeStart":"EX6 6","postcode":["EX6","6BE"]}
{"price":50500,"dateOfTransfer":"1995-10-27T00:00:00","postcodeFull":"EX6 6AP","propertyType":"Semi-detached","oldOrNew":"Established","duration":"Freehold","paon":"45","saon":"","street":"FOUR OAKS ROAD","locality":"TEDBURN ST MARY","townOrCity":"EXETER","district":"TEIGNBRIDGE","county":"DEVON","ppdCategoryType":"Standard","recordStatus":"Addition","latitude":50.732193,"longitude":-3.675706,"postcodeStart":"EX6 6","postcode":["EX6","6AP"]}
{"price":110000,"dateOfTransfer":"1995-10-18T00:00:00","postcodeFull":"EX6 6LD","propertyType":"Detached","oldOrNew":"Established","duration":"Freehold","paon":"MILL COTTAGE","saon":"","street":"","locality":"HITTISLEIGH","townOrCity":"EXETER","district":"MID DEVON","county":"DEVON","ppdCategoryType":"Standard","recordStatus":"Addition","latitude":50.738947,"longitude":-3.788312,"postcodeStart":"EX6 6","postcode":["EX6","6LD"]}
{"price":44600,"dateOfTransfer":"1995-11-30T00:00:00","postcodeFull":"EX6 6AA","propertyType":"Semi-detached","oldOrNew":"Established","duration":"Freehold","paon":"20","saon":"","street":"SCHOOL LANE","locality":"TEDBURN ST MARY","townOrCity":"EXETER","district":"TEIGNBRIDGE","county":"DEVON","ppdCategoryType":"Standard","recordStatus":"Addition","latitude":50.733097,"longitude":-3.677838,"postcodeStart":"EX6 6","postcode":["EX6","6AA"]}
{"price":100000,"dateOfTransfer":"1995-09-13T00:00:00","postcodeFull":"EX6 6QX","propertyType":"Detached","oldOrNew":"Established","duration":"Freehold","paon":"ADAMSWELL","saon":"","street":"","locality":"DREWSTEIGNTON","townOrCity":"EXETER","district":"TEIGNBRIDGE","county":"DEVON","ppdCategoryType":"Standard","recordStatus":"Addition","latitude":50.703734,"longitude":-3.789148,"postcodeStart":"EX6 6","postcode":["EX6","6QX"]}
{"price":57500,"dateOfTransfer":"1995-07-20T00:00:00","postcodeFull":"EX6 6NE","propertyType":"Terraced","oldOrNew":"Established","duration":"Freehold","paon":"2","saon":"","street":"FULFORD COTTAGES","locality":"CROCKERNWELL","townOrCity":"EXETER","district":"MID DEVON","county":"DEVON","ppdCategoryType":"Standard","recordStatus":"Addition","latitude":50.718319,"longitude":-3.765681,"postcodeStart":"EX6 6","postcode":["EX6","6NE"]}
{"price":95000,"dateOfTransfer":"1996-08-23T00:00:00","postcodeFull":"EX6 6NB","propertyType":"Detached","oldOrNew":"Established","duration":"Freehold","paon":"TRUNDLE","saon":"","street":"","locality":"CROCKERNWELL","townOrCity":"EXETER","district":"WEST DEVON","county":"DEVON","ppdCategoryType":"Standard","recordStatus":"Addition","latitude":50.71768,"longitude":-3.766872,"postcodeStart":"EX6 6","postcode":["EX6","6NB"]}
{"price":122000,"dateOfTransfer":"1996-01-17T00:00:00","postcodeFull":"EX6 6AQ","propertyType":"Detached","oldOrNew":"Established","duration":"Freehold","paon":"WOODSIDE","saon":"","street":"FIVE MILE HILL","locality":"TEDBURN ST MARY","townOrCity":"EXETER","district":"TEIGNBRIDGE","county":"DEVON","ppdCategoryType":"Standard","recordStatus":"Addition","latitude":50.726304,"longitude":-3.634463,"postcodeStart":"EX6 6","postcode":["EX6","6AQ"]}
{"price":35000,"dateOfTransfer":"1996-08-23T00:00:00","postcodeFull":"EX6 6AF","propertyType":"Semi-detached","oldOrNew":"Established","duration":"Freehold","paon":"WESTERN VALE","saon":"","street":"","locality":"TEDBURN ST MARY","townOrCity":"EXETER","district":"TEIGNBRIDGE","county":"DEVON","ppdCategoryType":"Standard","recordStatus":"Addition","latitude":50.727472,"longitude":-3.649806,"postcodeStart":"EX6 6","postcode":["EX6","6AF"]}
{"price":64000,"dateOfTransfer":"1996-06-07T00:00:00","postcodeFull":"EX6 6NB","propertyType":"Semi-detached","oldOrNew":"Established","duration":"Freehold","paon":"PILGRIM COTTAGE","saon":"","street":"","locality":"CROCKERNWELL","townOrCity":"EXETER","district":"WEST DEVON","county":"DEVON","ppdCategoryType":"Standard","recordStatus":"Addition","latitude":50.71768,"longitude":-3.766872,"postcodeStart":"EX6 6","postcode":["EX6","6NB"]}
{"price":91000,"dateOfTransfer":"1996-08-19T00:00:00","postcodeFull":"EX6 6EQ","propertyType":"Detached","oldOrNew":"Established","duration":"Freehold","paon":"RED LION INN","saon":"","street":"","locality":"TEDBURN ST MARY","townOrCity":"EXETER","district":"TEIGNBRIDGE","county":"DEVON","ppdCategoryType":"Standard","recordStatus":"Addition","latitude":50.735024,"longitude":-3.682085,"postcodeStart":"EX6 6","postcode":["EX6","6EQ"]}
{"price":267500,"dateOfTransfer":"1996-11-18T00:00:00","postcodeFull":"EX6 6HE","propertyType":"Detached","oldOrNew":"New build","duration":"Freehold","paon":"MEDLAND MANOR","saon":"","street":"","locality":"CHERITON BISHOP","townOrCity":"EXETER","district":"MID DEVON","county":"DEVON","ppdCategoryType":"Standard","recordStatus":"Addition","latitude":50.742343,"longitude":-3.729503,"postcodeStart":"EX6 6","postcode":["EX6","6HE"]}
{"price":120500,"dateOfTransfer":"1996-10-14T00:00:00","postcodeFull":"EX6 6DW","propertyType":"Detached","oldOrNew":"Established","duration":"Freehold","paon":"GREAT HACKWORTHY COTTAGE","saon":"","street":"","locality":"TEDBURN ST MARY","townOrCity":"EXETER","district":"TEIGNBRIDGE","county":"DEVON","ppdCategoryType":"Standard","recordStatus":"Addition","latitude":50.725651,"longitude":-3.688961,"postcodeStart":"EX6 6","postcode":["EX6","6DW"]}
{"price":44000,"dateOfTransfer":"1996-06-19T00:00:00","postcodeFull":"EX6 6AP","propertyType":"Terraced","oldOrNew":"Established","duration":"Freehold","paon":"55","saon":"","street":"FOUR OAKS ROAD","locality":"TEDBURN ST MARY","townOrCity":"EXETER","district":"TEIGNBRIDGE","county":"DEVON","ppdCategoryType":"Standard","recordStatus":"Addition","latitude":50.732193,"longitude":-3.675706,"postcodeStart":"EX6 6","postcode":["EX6","6AP"]}
{"price":82000,"dateOfTransfer":"1996-09-27T00:00:00","postcodeFull":"EX6 6NA","propertyType":"Detached","oldOrNew":"Established","duration":"Freehold","paon":"2","saon":"","street":"STANBURYS ORCHARD","locality":"CROCKERNWELL","townOrCity":"EXETER","district":"MID DEVON","county":"DEVON","ppdCategoryType":"Standard","recordStatus":"Addition","latitude":50.71786,"longitude":-3.76804,"postcodeStart":"EX6 6","postcode":["EX6","6NA"]}
{"price":68200,"dateOfTransfer":"1996-07-26T00:00:00","postcodeFull":"EX6 6RN","propertyType":"Detached","oldOrNew":"Established","duration":"Freehold","paon":"12","saon":"","street":"SOUTHWAY","locality":"TEDBURN ST MARY","townOrCity":"EXETER","district":"TEIGNBRIDGE","county":"DEVON","ppdCategoryType":"Standard","recordStatus":"Addition","latitude":50.732598,"longitude":-3.679461,"postcodeStart":"EX6 6","postcode":["EX6","6RN"]}
{"price":54500,"dateOfTransfer":"1996-05-03T00:00:00","postcodeFull":"EX6 6AP","propertyType":"Detached","oldOrNew":"Established","duration":"Freehold","paon":"5","saon":"","street":"FOUR OAKS ROAD","locality":"TEDBURN ST MARY","townOrCity":"EXETER","district":"TEIGNBRIDGE","county":"DEVON","ppdCategoryType":"Standard","recordStatus":"Addition","latitude":50.732193,"longitude":-3.675706,"postcodeStart":"EX6 6","postcode":["EX6","6AP"]}
{"price":83600,"dateOfTransfer":"1996-12-10T00:00:00","postcodeFull":"EX6 6RN","propertyType":"Detached","oldOrNew":"Established","duration":"Freehold","paon":"40","saon":"","street":"SOUTHWAY","locality":"TEDBURN ST MARY","townOrCity":"EXETER","district":"TEIGNBRIDGE","county":"DEVON","ppdCategoryType":"Standard","recordStatus":"Addition","latitude":50.732598,"longitude":-3.679461,"postcodeStart":"EX6 6","postcode":["EX6","6RN"]}
{"price":59995,"dateOfTransfer":"1996-11-29T00:00:00","postcodeFull":"EX6 6AS","propertyType":"Semi-detached","oldOrNew":"Established","duration":"Freehold","paon":"6","saon":"","street":"CLEAVE CLOSE","locality":"TEDBURN ST MARY","townOrCity":"EXETER","district":"TEIGNBRIDGE","county":"DEVON","ppdCategoryType":"Standard","recordStatus":"Addition","latitude":50.733239,"longitude":-3.676792,"postcodeStart":"EX6 6","postcode":["EX6","6AS"]}
{"price":86000,"dateOfTransfer":"1996-10-01T00:00:00","postcodeFull":"EX6 6RU","propertyType":"Detached","oldOrNew":"Established","duration":"Freehold","paon":"1","saon":"","street":"ST MARYS CLOSE","locality":"TEDBURN ST MARY","townOrCity":"EXETER","district":"TEIGNBRIDGE","county":"DEVON","ppdCategoryType":"Standard","recordStatus":"Addition","latitude":50.734714,"longitude":-3.679254,"postcodeStart":"EX6 6","postcode":["EX6","6RU"]}
{"price":78000,"dateOfTransfer":"1996-05-17T00:00:00","postcodeFull":"EX6 6JP","propertyType":"Detached","oldOrNew":"Established","duration":"Freehold","paon":"3","saon":"","street":"HESCANE PARK","locality":"CHERITON BISHOP","townOrCity":"EXETER","district":"MID DEVON","county":"DEVON","ppdCategoryType":"Standard","recordStatus":"Addition","latitude":50.724279,"longitude":-3.738348,"postcodeStart":"EX6 6","postcode":["EX6","6JP"]}
{"price":65000,"dateOfTransfer":"1996-10-11T00:00:00","postcodeFull":"EX6 6RQ","propertyType":"Detached","oldOrNew":"Established","duration":"Freehold","paon":"FLOOD COTTAGE","saon":"","street":"","locality":"DREWSTEIGNTON","townOrCity":"EXETER","district":"WEST DEVON","county":"DEVON","ppdCategoryType":"Standard","recordStatus":"Addition","latitude":50.725319,"longitude":-3.832505,"postcodeStart":"EX6 6","postcode":["EX6","6RQ"]}
{"price":64950,"dateOfTransfer":"1996-04-09T00:00:00","postcodeFull":"EX6 6HY","propertyType":"Detached","oldOrNew":"Established","duration":"Freehold","paon":"THE OLD SCHOOL HOUSE","saon":"","street":"CHURCH LANE","locality":"CHERITON BISHOP","townOrCity":"EXETER","district":"MID DEVON","county":"DEVON","ppdCategoryType":"Standard","recordStatus":"Addition","latitude":50.727529,"longitude":-3.739329,"postcodeStart":"EX6 6","postcode":["EX6","6HY"]}
{"price":67500,"dateOfTransfer":"1996-11-01T00:00:00","postcodeFull":"EX6 6NA","propertyType":"Detached","oldOrNew":"Established","duration":"Freehold","paon":"5","saon":"","street":"STANBURYS ORCHARD","locality":"CROCKERNWELL","townOrCity":"EXETER","district":"MID DEVON","county":"DEVON","ppdCategoryType":"Standard","recordStatus":"Addition","latitude":50.71786,"longitude":-3.76804,"postcodeStart":"EX6 6","postcode":["EX6","6NA"]}
{"price":102000,"dateOfTransfer":"1996-07-30T00:00:00","postcodeFull":"EX6 6QX","propertyType":"Detached","oldOrNew":"Established","duration":"Freehold","paon":"MARTINS","saon":"","street":"","locality":"DREWSTEIGNTON","townOrCity":"EXETER","district":"WEST DEVON","county":"DEVON","ppdCategoryType":"Standard","recordStatus":"Addition","latitude":50.703734,"longitude":-3.789148,"postcodeStart":"EX6 6","postcode":["EX6","6QX"]}
{"price":52500,"dateOfTransfer":"1996-06-19T00:00:00","postcodeFull":"EX6 6JP","propertyType":"Semi-detached","oldOrNew":"Established","duration":"Freehold","paon":"16","saon":"","street":"HESCANE PARK","locality":"CHERITON BISHOP","townOrCity":"EXETER","district":"MID DEVON","county":"DEVON","ppdCategoryType":"Standard","recordStatus":"Addition","latitude":50.724279,"longitude":-3.738348,"postcodeStart":"EX6 6","postcode":["EX6","6JP"]}
{"price":57520,"dateOfTransfer":"1996-08-16T00:00:00","postcodeFull":"EX6 6LL","propertyType":"Detached","oldOrNew":"Established","duration":"Freehold","paon":"FERNDALE","saon":"","street":"","locality":"HITTISLEIGH","townOrCity":"EXETER","district":"MID DEVON","county":"DEVON","ppdCategoryType":"Standard","recordStatus":"Addition","latitude":50.739101,"longitude":-3.813319,"postcodeStart":"EX6 6","postcode":["EX6","6LL"]}
{"price":133000,"dateOfTransfer":"1996-08-23T00:00:00","postcodeFull":"EX6 6AD","propertyType":"Detached","oldOrNew":"Established","duration":"Freehold","paon":"WHITE COTTAGE","saon":"","street":"","locality":"TEDBURN ST MARY","townOrCity":"EXETER","district":"TEIGNBRIDGE","county":"DEVON","ppdCategoryType":"Standard","recordStatus":"Addition","latitude":50.731715,"longitude":-3.671424,"postcodeStart":"EX6 6","postcode":["EX6","6AD"]}
{"price":92000,"dateOfTransfer":"1996-04-26T00:00:00","postcodeFull":"EX6 6RP","propertyType":"Detached","oldOrNew":"Established","duration":"Freehold","paon":"10","saon":"","street":"DINNIS CLOSE","locality":"TEDBURN ST MARY","townOrCity":"EXETER","district":"TEIGNBRIDGE","county":"DEVON","ppdCategoryType":"Standard","recordStatus":"Addition","latitude":50.731862,"longitude":-3.678698,"postcodeStart":"EX6 6","postcode":["EX6","6RP"]}
{"price":92000,"dateOfTransfer":"1996-12-16T00:00:00","postcodeFull":"EX6 6RW","propertyType":"Detached","oldOrNew":"Established","duration":"Freehold","paon":"4","saon":"","street":"FULFORD CLOSE","locality":"TEDBURN ST MARY","townOrCity":"EXETER","district":"TEIGNBRIDGE","county":"DEVON","ppdCategoryType":"Standard","recordStatus":"Addition","latitude":50.732093,"longitude":-3.679543,"postcodeStart":"EX6 6","postcode":["EX6","6RW"]}
{"price":63950,"dateOfTransfer":"1996-03-25T00:00:00","postcodeFull":"EX6 6AS","propertyType":"Semi-detached","oldOrNew":"Established","duration":"Freehold","paon":"6","saon":"","street":"CLEAVE CLOSE","locality":"TEDBURN ST MARY","townOrCity":"EXETER","district":"TEIGNBRIDGE","county":"DEVON","ppdCategoryType":"Standard","recordStatus":"Addition","latitude":50.733239,"longitude":-3.676792,"postcodeStart":"EX6 6","postcode":["EX6","6AS"]}
{"price":91000,"dateOfTransfer":"1996-10-31T00:00:00","postcodeFull":"EX6 6RP","propertyType":"Detached","oldOrNew":"Established","duration":"Freehold","paon":"1","saon":"","street":"DINNIS CLOSE","locality":"TEDBURN ST MARY","townOrCity":"EXETER","district":"TEIGNBRIDGE","county":"DEVON","ppdCategoryType":"Standard","recordStatus":"Addition","latitude":50.731862,"longitude":-3.678698,"postcodeStart":"EX6 6","postcode":["EX6","6RP"]}
{"price":56500,"dateOfTransfer":"1996-05-03T00:00:00","postcodeFull":"EX6 6JW","propertyType":"Semi-detached","oldOrNew":"Established","duration":"Freehold","paon":"1","saon":"","street":"WOODPECKER WAY","locality":"CHERITON BISHOP","townOrCity":"EXETER","district":"MID DEVON","county":"DEVON","ppdCategoryType":"Standard","recordStatus":"Addition","latitude":50.724221,"longitude":-3.739833,"postcodeStart":"EX6 6","postcode":["EX6","6JW"]}
{"price":60000,"dateOfTransfer":"1996-02-16T00:00:00","postcodeFull":"EX6 6HH","propertyType":"Semi-detached","oldOrNew":"Established","duration":"Freehold","paon":"WOODLANDS","saon":"THE FIRS 3","street":"","locality":"CHERITON BISHOP","townOrCity":"EXETER","district":"MID DEVON","county":"DEVON","ppdCategoryType":"Standard","recordStatus":"Addition","latitude":50.741225,"longitude":-3.77166,"postcodeStart":"EX6 6","postcode":["EX6","6HH"]}
{"price":117000,"dateOfTransfer":"1996-02-16T00:00:00","postcodeFull":"EX6 6AY","propertyType":"Detached","oldOrNew":"Established","duration":"Freehold","paon":"TWO GATES","saon":"","street":"","locality":"TEDBURN ST MARY","townOrCity":"EXETER","district":"TEIGNBRIDGE","county":"DEVON","ppdCategoryType":"Standard","recordStatus":"Addition","latitude":50.735286,"longitude":-3.677049,"postcodeStart":"EX6 6","postcode":["EX6","6AY"]}
{"price":156500,"dateOfTransfer":"1996-01-17T00:00:00","postcodeFull":"EX6 6HD","propertyType":"Detached","oldOrNew":"Established","duration":"Freehold","paon":"VENBRIDGE BARN","saon":"","street":"","locality":"CHERITON BISHOP","townOrCity":"EXETER","district":"MID DEVON","county":"DEVON","ppdCategoryType":"Standard","recordStatus":"Addition","latitude":50.731555,"longitude":-3.740102,"postcodeStart":"EX6 6","postcode":["EX6","6HD"]}
{"price":90000,"dateOfTransfer":"1996-05-14T00:00:00","postcodeFull":"EX6 6HF","propertyType":"Detached","oldOrNew":"Established","duration":"Freehold","paon":"WOODHAY","saon":"","street":"","locality":"CHERITON BISHOP","townOrCity":"EXETER","district":"MID DEVON","county":"DEVON","ppdCategoryType":"Standard","recordStatus":"Addition","latitude":50.740917,"longitude":-3.743159,"postcodeStart":"EX6 6","postcode":["EX6","6HF"]}
{"price":83000,"dateOfTransfer":"1996-05-31T00:00:00","postcodeFull":"EX6 6BB","propertyType":"Detached","oldOrNew":"Established","duration":"Freehold","paon":"BRIDLEWAYS","saon":"","street":"","locality":"TEDBURN ST MARY","townOrCity":"EXETER","district":"TEIGNBRIDGE","county":"DEVON","ppdCategoryType":"Standard","recordStatus":"Addition","latitude":50.738788,"longitude":-3.656624,"postcodeStart":"EX6 6","postcode":["EX6","6BB"]}
{"price":46500,"dateOfTransfer":"1996-10-04T00:00:00","postcodeFull":"EX6 6AP","propertyType":"Terraced","oldOrNew":"Established","duration":"Freehold","paon":"49","saon":"","street":"FOUR OAKS ROAD","locality":"TEDBURN ST MARY","townOrCity":"EXETER","district":"TEIGNBRIDGE","county":"DEVON","ppdCategoryType":"Standard","recordStatus":"Addition","latitude":50.732193,"longitude":-3.675706,"postcodeStart":"EX6 6","postcode":["EX6","6AP"]}
{"price":49300,"dateOfTransfer":"1996-12-10T00:00:00","postcodeFull":"EX6 6AP","propertyType":"Terraced","oldOrNew":"Established","duration":"Freehold","paon":"57","saon":"","street":"FOUR OAKS ROAD","locality":"TEDBURN ST MARY","townOrCity":"EXETER","district":"TEIGNBRIDGE","county":"DEVON","ppdCategoryType":"Standard","recordStatus":"Addition","latitude":50.732193,"longitude":-3.675706,"postcodeStart":"EX6 6","postcode":["EX6","6AP"]}
{"price":149000,"dateOfTransfer":"1996-05-30T00:00:00","postcodeFull":"EX6 6LD","propertyType":"Detached","oldOrNew":"Established","duration":"Freehold","paon":"MILL HOUSE","saon":"","street":"","locality":"HITTISLEIGH","townOrCity":"EXETER","district":"MID DEVON","county":"DEVON","ppdCategoryType":"Standard","recordStatus":"Addition","latitude":50.738947,"longitude":-3.788312,"postcodeStart":"EX6 6","postcode":["EX6","6LD"]}
{"price":100500,"dateOfTransfer":"1996-08-09T00:00:00","postcodeFull":"EX6 6AN","propertyType":"Detached","oldOrNew":"Established","duration":"Freehold","paon":"GOATLAKE HOUSE","saon":"","street":"","locality":"TEDBURN ST MARY","townOrCity":"EXETER","district":"TEIGNBRIDGE","county":"DEVON","ppdCategoryType":"Standard","recordStatus":"Addition","latitude":50.716235,"longitude":-3.668436,"postcodeStart":"EX6 6","postcode":["EX6","6AN"]}
{"price":79000,"dateOfTransfer":"1996-05-15T00:00:00","postcodeFull":"EX6 6RL","propertyType":"Detached","oldOrNew":"Established","duration":"Freehold","paon":"1","saon":"","street":"NORTHPARK ROAD","locality":"TEDBURN ST MARY","townOrCity":"EXETER","district":"TEIGNBRIDGE","county":"DEVON","ppdCategoryType":"Standard","recordStatus":"Addition","latitude":50.733977,"longitude":-3.680474,"postcodeStart":"EX6 6","postcode":["EX6","6RL"]}
{"price":55000,"dateOfTransfer":"1996-07-30T00:00:00","postcodeFull":"EX6 6JE","propertyType":"Semi-detached","oldOrNew":"Established","duration":"Freehold","paon":"IVY COTTAGE","saon":"","street":"","locality":"CHERITON BISHOP","townOrCity":"EXETER","district":"MID DEVON","county":"DEVON","ppdCategoryType":"Standard","recordStatus":"Addition","latitude":50.722773,"longitude":-3.745798,"postcodeStart":"EX6 6","postcode":["EX6","6JE"]}
{"price":51000,"dateOfTransfer":"1996-05-15T00:00:00","postcodeFull":"EX6 6AR","propertyType":"Semi-detached","oldOrNew":"Established","duration":"Freehold","paon":"52","saon":"","street":"FOUR OAKS ROAD","locality":"TEDBURN ST MARY","townOrCity":"EXETER","district":"TEIGNBRIDGE","county":"DEVON","ppdCategoryType":"Standard","recordStatus":"Addition","latitude":50.732443,"longitude":-3.676452,"postcodeStart":"EX6 6","postcode":["EX6","6AR"]}
{"price":116000,"dateOfTransfer":"1996-08-15T00:00:00","postcodeFull":"EX6 6AY","propertyType":"Detached","oldOrNew":"Established","duration":"Freehold","paon":"OLD STABLE COTTAGE","saon":"","street":"","locality":"TEDBURN ST MARY","townOrCity":"EXETER","district":"TEIGNBRIDGE","county":"DEVON","ppdCategoryType":"Standard","recordStatus":"Addition","latitude":50.735286,"longitude":-3.677049,"postcodeStart":"EX6 6","postcode":["EX6","6AY"]}
{"price":60000,"dateOfTransfer":"1996-10-04T00:00:00","postcodeFull":"EX6 6JY","propertyType":"Detached","oldOrNew":"Established","duration":"Freehold","paon":"OAKFIELDS","saon":"","street":"","locality":"CHERITON BISHOP","townOrCity":"EXETER","district":"MID DEVON","county":"DEVON","ppdCategoryType":"Standard","recordStatus":"Addition","latitude":50.732853,"longitude":-3.774557,"postcodeStart":"EX6 6","postcode":["EX6","6JY"]}
{"price":83000,"dateOfTransfer":"1996-11-29T00:00:00","postcodeFull":"EX6 6LG","propertyType":"Detached","oldOrNew":"Established","duration":"Freehold","paon":"SCHOOL HOUSE","saon":"","street":"","locality":"HITTISLEIGH","townOrCity":"EXETER","district":"MID DEVON","county":"DEVON","ppdCategoryType":"Standard","recordStatus":"Addition","latitude":50.739535,"longitude":-3.800916,"postcodeStart":"EX6 6","postcode":["EX6","6LG"]}
{"price":100000,"dateOfTransfer":"1996-09-12T00:00:00","postcodeFull":"EX6 6EH","propertyType":"Detached","oldOrNew":"Established","duration":"Freehold","paon":"WEST WATER","saon":"","street":"","locality":"TEDBURN ST MARY","townOrCity":"EXETER","district":"TEIGNBRIDGE","county":"DEVON","ppdCategoryType":"Standard","recordStatus":"Addition","latitude":50.734852,"longitude":-3.684672,"postcodeStart":"EX6 6","postcode":["EX6","6EH"]}
{"price":76000,"dateOfTransfer":"1996-10-25T00:00:00","postcodeFull":"EX6 6QR","propertyType":"Terraced","oldOrNew":"Established","duration":"Freehold","paon":"HILLMORHAYES","saon":"2","street":"","locality":"DREWSTEIGNTON","townOrCity":"EXETER","district":"WEST DEVON","county":"DEVON","ppdCategoryType":"Standard","recordStatus":"Addition","latitude":50.703457,"longitude":-3.792495,"postcodeStart":"EX6 6","postcode":["EX6","6QR"]}
{"price":88000,"dateOfTransfer":"1996-05-17T00:00:00","postcodeFull":"EX6 6LD","propertyType":"Detached","oldOrNew":"Established","duration":"Freehold","paon":"LOWER TRENNA COTTAGE","saon":"","street":"","locality":"HITTISLEIGH","townOrCity":"EXETER","district":"MID DEVON","county":"DEVON","ppdCategoryType":"Standard","recordStatus":"Addition","latitude":50.738947,"longitude":-3.788312,"postcodeStart":"EX6 6","postcode":["EX6","6LD"]}
{"price":57000,"dateOfTransfer":"1997-07-04T00:00:00","postcodeFull":"EX6 6JQ","propertyType":"Semi-detached","oldOrNew":"Established","duration":"Freehold","paon":"BURSTONE","saon":"","street":"","locality":"CHERITON BISHOP","townOrCity":"EXETER","district":"MID DEVON","county":"DEVON","ppdCategoryType":"Standard","recordStatus":"Addition","latitude":50.718922,"longitude":-3.740526,"postcodeStart":"EX6 6","postcode":["EX6","6JQ"]}
{"price":31500,"dateOfTransfer":"1997-02-07T00:00:00","postcodeFull":"EX6 6NB","propertyType":"Terraced","oldOrNew":"Established","duration":"Freehold","paon":"4","saon":"","street":"STONELAND COTTAGES","locality":"CROCKERNWELL","townOrCity":"EXETER","district":"WEST DEVON","county":"DEVON","ppdCategoryType":"Standard","recordStatus":"Addition","latitude":50.71768,"longitude":-3.766872,"postcodeStart":"EX6 6","postcode":["EX6","6NB"]}
{"price":58000,"dateOfTransfer":"1997-07-11T00:00:00","postcodeFull":"EX6 6AA","propertyType":"Semi-detached","oldOrNew":"Established","duration":"Freehold","paon":"25","saon":"","street":"SCHOOL LANE","locality":"TEDBURN ST MARY","townOrCity":"EXETER","district":"TEIGNBRIDGE","county":"DEVON","ppdCategoryType":"Standard","recordStatus":"Addition","latitude":50.733097,"longitude":-3.677838,"postcodeStart":"EX6 6","postcode":["EX6","6AA"]}
{"price":39000,"dateOfTransfer":"1997-09-30T00:00:00","postcodeFull":"EX6 6NT","propertyType":"Detached","oldOrNew":"New build","duration":"Freehold","paon":"1","saon":"","street":"SADDLERS CLOSE","locality":"CROCKERNWELL","townOrCity":"EXETER","district":"MID DEVON","county":"DEVON","ppdCategoryType":"Standard","recordStatus":"Addition","latitude":50.718308,"longitude":-3.766428,"postcodeStart":"EX6 6","postcode":["EX6","6NT"]}
{"price":130000,"dateOfTransfer":"1997-09-26T00:00:00","postcodeFull":"EX6 6NJ","propertyType":"Detached","oldOrNew":"Established","duration":"Freehold","paon":"FINGLE FARM","saon":"","street":"","locality":"CROCKERNWELL","townOrCity":"EXETER","district":"WEST DEVON","county":"DEVON","ppdCategoryType":"Standard","recordStatus":"Addition","latitude":50.709086,"longitude":-3.780812,"postcodeStart":"EX6 6","postcode":["EX6","6NJ"]}
{"price":72000,"dateOfTransfer":"1997-09-15T00:00:00","postcodeFull":"EX6 6JP","propertyType":"Detached","oldOrNew":"Established","duration":"Freehold","paon":"13","saon":"","street":"HESCANE PARK","locality":"CHERITON BISHOP","townOrCity":"EXETER","district":"MID DEVON","county":"DEVON","ppdCategoryType":"Standard","recordStatus":"Addition","latitude":50.724279,"longitude":-3.738348,"postcodeStart":"EX6 6","postcode":["EX6","6JP"]}
{"price":63000,"dateOfTransfer":"1997-06-27T00:00:00","postcodeFull":"EX6 6JR","propertyType":"Detached","oldOrNew":"New build","duration":"Freehold","paon":"7","saon":"","street":"CHESTNUT CLOSE","locality":"CHERITON BISHOP","townOrCity":"EXETER","district":"MID DEVON","county":"DEVON","ppdCategoryType":"Standard","recordStatus":"Addition","latitude":50.723968,"longitude":-3.741127,"postcodeStart":"EX6 6","postcode":["EX6","6JR"]}
{"price":60000,"dateOfTransfer":"1997-07-21T00:00:00","postcodeFull":"EX6 6RQ","propertyType":"Detached","oldOrNew":"Established","duration":"Freehold","paon":"FLOOD FARM","saon":"","street":"","locality":"DREWSTEIGNTON","townOrCity":"EXETER","district":"WEST DEVON","county":"DEVON","ppdCategoryType":"Standard","recordStatus":"Addition","latitude":50.725319,"longitude":-3.832505,"postcodeStart":"EX6 6","postcode":["EX6","6RQ"]}
{"price":59500,"dateOfTransfer":"1997-02-28T00:00:00","postcodeFull":"EX6 6QW","propertyType":"Terraced","oldOrNew":"Established","duration":"Freehold","paon":"SUNNYBANK","saon":"2","street":"","locality":"DREWSTEIGNTON","townOrCity":"EXETER","district":"WEST DEVON","county":"DEVON","ppdCategoryType":"Standard","recordStatus":"Addition","latitude":50.703142,"longitude":-3.792515,"postcodeStart":"EX6 6","postcode":["EX6","6QW"]}
{"price":190000,"dateOfTransfer":"1997-10-17T00:00:00","postcodeFull":"EX6 6HY","propertyType":"Detached","oldOrNew":"Established","duration":"Freehold","paon":"BRACKENWOOD","saon":"","street":"CHURCH LANE","locality":"CHERITON BISHOP","townOrCity":"EXETER","district":"MID DEVON","county":"DEVON","ppdCategoryType":"Standard","recordStatus":"Addition","latitude":50.727529,"longitude":-3.739329,"postcodeStart":"EX6 6","postcode":["EX6","6HY"]}
{"price":60000,"dateOfTransfer":"1997-08-15T00:00:00","postcodeFull":"EX6 6JN","propertyType":"Detached","oldOrNew":"Established","duration":"Freehold","paon":"SPRINGFIELD PARK","saon":"THE COTTAGE","street":"","locality":"CHERITON BISHOP","townOrCity":"EXETER","district":"TEIGNBRIDGE","county":"DEVON","ppdCategoryType":"Standard","recordStatus":"Addition","latitude":50.728842,"longitude":-3.718123,"postcodeStart":"EX6 6","postcode":["EX6","6JN"]}
{"price":65000,"dateOfTransfer":"1997-12-15T00:00:00","postcodeFull":"EX6 6RP","propertyType":"Semi-detached","oldOrNew":"Established","duration":"Freehold","paon":"6","saon":"","street":"DINNIS CLOSE","locality":"TEDBURN ST MARY","townOrCity":"EXETER","district":"TEIGNBRIDGE","county":"DEVON","ppdCategoryType":"Standard","recordStatus":"Addition","latitude":50.731862,"longitude":-3.678698,"postcodeStart":"EX6 6","postcode":["EX6","6RP"]}
{"price":155000,"dateOfTransfer":"1997-12-05T00:00:00","postcodeFull":"EX6 6LD","propertyType":"Detached","oldOrNew":"Established","duration":"Freehold","paon":"MILL COTTAGE","saon":"","street":"","locality":"HITTISLEIGH","townOrCity":"EXETER","district":"MID DEVON","county":"DEVON","ppdCategoryType":"Standard","recordStatus":"Addition","latitude":50.738947,"longitude":-3.788312,"postcodeStart":"EX6 6","postcode":["EX6","6LD"]}
{"price":22000,"dateOfTransfer":"1997-01-02T00:00:00","postcodeFull":"EX6 6QU","propertyType":"Terraced","oldOrNew":"Established","duration":"Freehold","paon":"3","saon":"","street":"CHURCHGATE COTTAGES","locality":"DREWSTEIGNTON","townOrCity":"EXETER","district":"WEST DEVON","county":"DEVON","ppdCategoryType":"Standard","recordStatus":"Addition","latitude":50.703778,"longitude":-3.789745,"postcodeStart":"EX6 6","postcode":["EX6","6QU"]}
{"price":135000,"dateOfTransfer":"1997-10-27T00:00:00","postcodeFull":"EX6 6ND","propertyType":"Detached","oldOrNew":"Established","duration":"Freehold","paon":"LOWER BUDBROOKE COTTAGE","saon":"","street":"BUDBROOKE LANE","locality":"CROCKERNWELL","townOrCity":"EXETER","district":"WEST DEVON","county":"DEVON","ppdCategoryType":"Standard","recordStatus":"Addition","latitude":50.717398,"longitude":-3.765317,"postcodeStart":"EX6 6","postcode":["EX6","6ND"]}
{"price":57000,"dateOfTransfer":"1997-08-14T00:00:00","postcodeFull":"EX6 6AS","propertyType":"Semi-detached","oldOrNew":"Established","duration":"Freehold","paon":"7","saon":"","street":"CLEAVE CLOSE","locality":"TEDBURN ST MARY","townOrCity":"EXETER","district":"TEIGNBRIDGE","county":"DEVON","ppdCategoryType":"Standard","recordStatus":"Addition","latitude":50.733239,"longitude":-3.676792,"postcodeStart":"EX6 6","postcode":["EX6","6AS"]}
{"price":58500,"dateOfTransfer":"1997-01-10T00:00:00","postcodeFull":"EX6 6AA","propertyType":"Detached","oldOrNew":"Established","duration":"Freehold","paon":"WINSLAKE MEADOW","saon":"1","street":"SCHOOL LANE","locality":"TEDBURN ST MARY","townOrCity":"EXETER","district":"TEIGNBRIDGE","county":"DEVON","ppdCategoryType":"Standard","recordStatus":"Addition","latitude":50.733097,"longitude":-3.677838,"postcodeStart":"EX6 6","postcode":["EX6","6AA"]}
{"price":81250,"dateOfTransfer":"1997-12-12T00:00:00","postcodeFull":"EX6 6JE","propertyType":"Detached","oldOrNew":"Established","duration":"Freehold","paon":"EGG BEER VIEW","saon":"","street":"","locality":"CHERITON BISHOP","townOrCity":"EXETER","district":"MID DEVON","county":"DEVON","ppdCategoryType":"Standard","recordStatus":"Addition","latitude":50.722773,"longitude":-3.745798,"postcodeStart":"EX6 6","postcode":["EX6","6JE"]}
{"price":105000,"dateOfTransfer":"1997-09-15T00:00:00","postcodeFull":"EX6 6HD","propertyType":"Detached","oldOrNew":"Established","duration":"Freehold","paon":"WILD ORCHARD","saon":"","street":"","locality":"CHERITON BISHOP","townOrCity":"EXETER","district":"EXETER","county":"DEVON","ppdCategoryType":"Standard","recordStatus":"Addition","latitude":50.731555,"longitude":-3.740102,"postcodeStart":"EX6 6","postcode":["EX6","6HD"]}
{"price":110000,"dateOfTransfer":"1997-02-14T00:00:00","postcodeFull":"EX6 6RS","propertyType":"Semi-detached","oldOrNew":"Established","duration":"Freehold","paon":"22","saon":"","street":"MILLERS WAY","locality":"TEDBURN ST MARY","townOrCity":"EXETER","district":"TEIGNBRIDGE","county":"DEVON","ppdCategoryType":"Standard","recordStatus":"Addition","latitude":50.733585,"longitude":-3.678958,"postcodeStart":"EX6 6","postcode":["EX6","6RS"]}
{"price":130000,"dateOfTransfer":"1997-07-30T00:00:00","postcodeFull":"EX6 6NB","propertyType":"Detached","oldOrNew":"Established","duration":"Freehold","paon":"MOOREND","saon":"","street":"","locality":"CROCKERNWELL","townOrCity":"EXETER","district":"WEST DEVON","county":"DEVON","ppdCategoryType":"Standard","recordStatus":"Addition","latitude":50.71768,"longitude":-3.766872,"postcodeStart":"EX6 6","postcode":["EX6","6NB"]}
{"price":80000,"dateOfTransfer":"1997-02-06T00:00:00","postcodeFull":"EX6 6QR","propertyType":"Detached","oldOrNew":"Established","duration":"Freehold","paon":"CHARISMA COTTAGE","saon":"","street":"","locality":"DREWSTEIGNTON","townOrCity":"EXETER","district":"WEST DEVON","county":"DEVON","ppdCategoryType":"Standard","recordStatus":"Addition","latitude":50.703457,"longitude":-3.792495,"postcodeStart":"EX6 6","postcode":["EX6","6QR"]}
{"price":140000,"dateOfTransfer":"1997-09-01T00:00:00","postcodeFull":"EX6 6JL","propertyType":"Detached","oldOrNew":"Established","duration":"Freehold","paon":"WOODLEIGH FARM","saon":"","street":"","locality":"CHERITON BISHOP","townOrCity":"EXETER","district":"MID DEVON","county":"DEVON","ppdCategoryType":"Standard","recordStatus":"Addition","latitude":50.725781,"longitude":-3.731092,"postcodeStart":"EX6 6","postcode":["EX6","6JL"]}
{"price":118000,"dateOfTransfer":"1997-02-14T00:00:00","postcodeFull":"EX6 6HY","propertyType":"Detached","oldOrNew":"Established","duration":"Freehold","paon":"HOMEFIELD","saon":"","street":"CHURCH LANE","locality":"CHERITON BISHOP","townOrCity":"EXETER","district":"MID DEVON","county":"DEVON","ppdCategoryType":"Standard","recordStatus":"Addition","latitude":50.727529,"longitude":-3.739329,"postcodeStart":"EX6 6","postcode":["EX6","6HY"]}
{"price":64000,"dateOfTransfer":"1997-01-31T00:00:00","postcodeFull":"EX6 6RN","propertyType":"Detached","oldOrNew":"Established","duration":"Freehold","paon":"28","saon":"","street":"SOUTHWAY","locality":"TEDBURN ST MARY","townOrCity":"EXETER","district":"TEIGNBRIDGE","county":"DEVON","ppdCategoryType":"Standard","recordStatus":"Addition","latitude":50.732598,"longitude":-3.679461,"postcodeStart":"EX6 6","postcode":["EX6","6RN"]}
{"price":3700,"dateOfTransfer":"1997-02-14T00:00:00","postcodeFull":"EX6 6JZ","propertyType":"Detached","oldOrNew":"Established","duration":"Freehold","paon":"RYDON COTTAGE","saon":"","street":"","locality":"CHERITON BISHOP","townOrCity":"EXETER","district":"MID DEVON","county":"DEVON","ppdCategoryType":"Standard","recordStatus":"Addition","latitude":50.734162,"longitude":-3.778918,"postcodeStart":"EX6 6","postcode":["EX6","6JZ"]}
{"price":54500,"dateOfTransfer":"1997-12-02T00:00:00","postcodeFull":"EX6 6RN","propertyType":"Semi-detached","oldOrNew":"Established","duration":"Freehold","paon":"32","saon":"","street":"SOUTHWAY","locality":"TEDBURN ST MARY","townOrCity":"EXETER","district":"TEIGNBRIDGE","county":"DEVON","ppdCategoryType":"Standard","recordStatus":"Addition","latitude":50.732598,"longitude":-3.679461,"postcodeStart":"EX6 6","postcode":["EX6","6RN"]}
{"price":83500,"dateOfTransfer":"1997-03-21T00:00:00","postcodeFull":"EX6 6RS","propertyType":"Detached","oldOrNew":"Established","duration":"Freehold","paon":"17","saon":"","street":"MILLERS WAY","locality":"TEDBURN ST MARY","townOrCity":"EXETER","district":"TEIGNBRIDGE","county":"DEVON","ppdCategoryType":"Standard","recordStatus":"Addition","latitude":50.733585,"longitude":-3.678958,"postcodeStart":"EX6 6","postcode":["EX6","6RS"]}
{"price":90000,"dateOfTransfer":"1997-07-11T00:00:00","postcodeFull":"EX6 6BB","propertyType":"Detached","oldOrNew":"Established","duration":"Freehold","paon":"FLOYTE COTTAGE","saon":"","street":"","locality":"TEDBURN ST MARY","townOrCity":"EXETER","district":"TEIGNBRIDGE","county":"DEVON","ppdCategoryType":"Standard","recordStatus":"Addition","latitude":50.738788,"longitude":-3.656624,"postcodeStart":"EX6 6","postcode":["EX6","6BB"]}
{"price":32500,"dateOfTransfer":"1997-04-11T00:00:00","postcodeFull":"EX6 6HY","propertyType":"Terraced","oldOrNew":"Established","duration":"Freehold","paon":"LITTLECOT","saon":"","street":"CHURCH LANE","locality":"CHERITON BISHOP","townOrCity":"EXETER","district":"MID DEVON","county":"DEVON","ppdCategoryType":"Standard","recordStatus":"Addition","latitude":50.727529,"longitude":-3.739329,"postcodeStart":"EX6 6","postcode":["EX6","6HY"]}
{"price":65000,"dateOfTransfer":"1997-06-30T00:00:00","postcodeFull":"EX6 6JH","propertyType":"Detached","oldOrNew":"Established","duration":"Freehold","paon":"OLD TOLL HOUSE","saon":"","street":"","locality":"CHERITON BISHOP","townOrCity":"EXETER","district":"MID DEVON","county":"DEVON","ppdCategoryType":"Standard","recordStatus":"Addition","latitude":50.723473,"longitude":-3.738471,"postcodeStart":"EX6 6","postcode":["EX6","6JH"]}
{"price":138750,"dateOfTransfer":"1997-07-31T00:00:00","postcodeFull":"EX6 6HY","propertyType":"Detached","oldOrNew":"Established","duration":"Freehold","paon":"HIGHMEAD","saon":"","street":"CHURCH LANE","locality":"CHERITON BISHOP","townOrCity":"EXETER","district":"MID DEVON","county":"DEVON","ppdCategoryType":"Standard","recordStatus":"Addition","latitude":50.727529,"longitude":-3.739329,"postcodeStart":"EX6 6","postcode":["EX6","6HY"]}
{"price":135000,"dateOfTransfer":"1997-11-21T00:00:00","postcodeFull":"EX6 6JU","propertyType":"Detached","oldOrNew":"Established","duration":"Freehold","paon":"THE COTTAGE","saon":"","street":"","locality":"CHERITON BISHOP","townOrCity":"EXETER","district":"MID DEVON","county":"DEVON","ppdCategoryType":"Standard","recordStatus":"Addition","latitude":50.728737,"longitude":-3.741542,"postcodeStart":"EX6 6","postcode":["EX6","6JU"]}
{"price":185000,"dateOfTransfer":"1997-03-06T00:00:00","postcodeFull":"EX6 6BA","propertyType":"Detached","oldOrNew":"Established","duration":"Freehold","paon":"WAYLAND COTTAGE","saon":"","street":"","locality":"TEDBURN ST MARY","townOrCity":"EXETER","district":"TEIGNBRIDGE","county":"DEVON","ppdCategoryType":"Standard","recordStatus":"Addition","latitude":50.736074,"longitude":-3.648876,"postcodeStart":"EX6 6","postcode":["EX6","6BA"]}
{"price":225000,"dateOfTransfer":"1997-10-17T00:00:00","postcodeFull":"EX6 6EQ","propertyType":"Detached","oldOrNew":"Established","duration":"Freehold","paon":"THE LONGHOUSE","saon":"","street":"","locality":"TEDBURN ST MARY","townOrCity":"EXETER","district":"TEIGNBRIDGE","county":"DEVON","ppdCategoryType":"Standard","recordStatus":"Addition","latitude":50.735024,"longitude":-3.682085,"postcodeStart":"EX6 6","postcode":["EX6","6EQ"]}
{"price":50000,"dateOfTransfer":"1997-01-07T00:00:00","postcodeFull":"EX6 6RG","propertyType":"Detached","oldOrNew":"Established","duration":"Freehold","paon":"TORHILL COTTAGE","saon":"","street":"","locality":"DREWSTEIGNTON","townOrCity":"EXETER","district":"WEST DEVON","county":"DEVON","ppdCategoryType":"Standard","recordStatus":"Addition","latitude":50.718425,"longitude":-3.832775,"postcodeStart":"EX6 6","postcode":["EX6","6RG"]}
{"price":63500,"dateOfTransfer":"1997-11-05T00:00:00","postcodeFull":"EX6 6NE","propertyType":"Terraced","oldOrNew":"Established","duration":"Freehold","paon":"2","saon":"","street":"FULFORD COTTAGES","locality":"CROCKERNWELL","townOrCity":"EXETER","district":"MID DEVON","county":"DEVON","ppdCategoryType":"Standard","recordStatus":"Addition","latitude":50.718319,"longitude":-3.765681,"postcodeStart":"EX6 6","postcode":["EX6","6NE"]}
{"price":79000,"dateOfTransfer":"1997-01-24T00:00:00","postcodeFull":"EX6 6HF","propertyType":"Detached","oldOrNew":"Established","duration":"Freehold","paon":"FURZE COTTAGE","saon":"","street":"","locality":"CHERITON BISHOP","townOrCity":"EXETER","district":"EXETER","county":"DEVON","ppdCategoryType":"Standard","recordStatus":"Addition","latitude":50.740917,"longitude":-3.743159,"postcodeStart":"EX6 6","postcode":["EX6","6HF"]}
{"price":33500,"dateOfTransfer":"1997-07-02T00:00:00","postcodeFull":"EX6 6AA","propertyType":"Semi-detached","oldOrNew":"Established","duration":"Freehold","paon":"31","saon":"","street":"SCHOOL LANE","locality":"TEDBURN ST MARY","townOrCity":"EXETER","district":"TEIGNBRIDGE","county":"DEVON","ppdCategoryType":"Standard","recordStatus":"Addition","latitude":50.733097,"longitude":-3.677838,"postcodeStart":"EX6 6","postcode":["EX6","6AA"]}
{"price":34500,"dateOfTransfer":"1998-06-25T00:00:00","postcodeFull":"EX6 6NB","propertyType":"Terraced","oldOrNew":"Established","duration":"Freehold","paon":"4","saon":"","street":"STONELAND COTTAGES","locality":"CROCKERNWELL","townOrCity":"EXETER","district":"WEST DEVON","county":"DEVON","ppdCategoryType":"Standard","recordStatus":"Addition","latitude":50.71768,"longitude":-3.766872,"postcodeStart":"EX6 6","postcode":["EX6","6NB"]}
{"price":108000,"dateOfTransfer":"1998-01-28T00:00:00","postcodeFull":"EX6 6JR","propertyType":"Detached","oldOrNew":"New build","duration":"Freehold","paon":"4","saon":"","street":"CHESTNUT CLOSE","locality":"CHERITON BISHOP","townOrCity":"EXETER","district":"MID DEVON","county":"DEVON","ppdCategoryType":"Standard","recordStatus":"Addition","latitude":50.723968,"longitude":-3.741127,"postcodeStart":"EX6 6","postcode":["EX6","6JR"]}
{"price":90000,"dateOfTransfer":"1998-01-30T00:00:00","postcodeFull":"EX6 6QX","propertyType":"Terraced","oldOrNew":"Established","duration":"Freehold","paon":"EDGECOMBE COTTAGE","saon":"","street":"","locality":"DREWSTEIGNTON","townOrCity":"EXETER","district":"WEST DEVON","county":"DEVON","ppdCategoryType":"Standard","recordStatus":"Addition","latitude":50.703734,"longitude":-3.789148,"postcodeStart":"EX6 6","postcode":["EX6","6QX"]}
{"price":94950,"dateOfTransfer":"1998-05-22T00:00:00","postcodeFull":"EX6 6JR","propertyType":"Detached","oldOrNew":"New build","duration":"Freehold","paon":"6","saon":"","street":"CHESTNUT CLOSE","locality":"CHERITON BISHOP","townOrCity":"EXETER","district":"MID DEVON","county":"DEVON","ppdCategoryType":"Standard","recordStatus":"Addition","latitude":50.723968,"longitude":-3.741127,"postcodeStart":"EX6 6","postcode":["EX6","6JR"]}
{"price":120000,"dateOfTransfer":"1998-05-15T00:00:00","postcodeFull":"EX6 6AQ","propertyType":"Detached","oldOrNew":"Established","duration":"Freehold","paon":"WOODLANDS","saon":"","street":"FIVE MILE HILL","locality":"TEDBURN ST MARY","townOrCity":"EXETER","district":"TEIGNBRIDGE","county":"DEVON","ppdCategoryType":"Standard","recordStatus":"Addition","latitude":50.726304,"longitude":-3.634463,"postcodeStart":"EX6 6","postcode":["EX6","6AQ"]}
{"price":101000,"dateOfTransfer":"1998-07-15T00:00:00","postcodeFull":"EX6 6AZ","propertyType":"Detached","oldOrNew":"Established","duration":"Freehold","paon":"JASMINE COTTAGE","saon":"","street":"","locality":"TEDBURN ST MARY","townOrCity":"EXETER","district":"TEIGNBRIDGE","county":"DEVON","ppdCategoryType":"Standard","recordStatus":"Addition","latitude":50.736277,"longitude":-3.668128,"postcodeStart":"EX6 6","postcode":["EX6","6AZ"]}
{"price":88000,"dateOfTransfer":"1998-12-07T00:00:00","postcodeFull":"EX6 6NA","propertyType":"Detached","oldOrNew":"Established","duration":"Freehold","paon":"5","saon":"","street":"STANBURYS ORCHARD","locality":"CROCKERNWELL","townOrCity":"EXETER","district":"MID DEVON","county":"DEVON","ppdCategoryType":"Standard","recordStatus":"Addition","latitude":50.71786,"longitude":-3.76804,"postcodeStart":"EX6 6","postcode":["EX6","6NA"]}
{"price":40000,"dateOfTransfer":"1998-10-23T00:00:00","postcodeFull":"EX6 6AA","propertyType":"Semi-detached","oldOrNew":"Established","duration":"Freehold","paon":"24","saon":"","street":"SCHOOL LANE","locality":"TEDBURN ST MARY","townOrCity":"EXETER","district":"TEIGNBRIDGE","county":"DEVON","ppdCategoryType":"Standard","recordStatus":"Addition","latitude":50.733097,"longitude":-3.677838,"postcodeStart":"EX6 6","postcode":["EX6","6AA"]}
{"price":63000,"dateOfTransfer":"1998-05-01T00:00:00","postcodeFull":"EX6 6JP","propertyType":"Terraced","oldOrNew":"Established","duration":"Freehold","paon":"4","saon":"","street":"HESCANE PARK","locality":"CHERITON BISHOP","townOrCity":"EXETER","district":"MID DEVON","county":"DEVON","ppdCategoryType":"Standard","recordStatus":"Addition","latitude":50.724279,"longitude":-3.738348,"postcodeStart":"EX6 6","postcode":["EX6","6JP"]}
{"price":182000,"dateOfTransfer":"1998-03-27T00:00:00","postcodeFull":"EX6 6JU","propertyType":"Detached","oldOrNew":"New build","duration":"Freehold","paon":"2","saon":"","street":"HOLLY PARK","locality":"CHERITON BISHOP","townOrCity":"EXETER","district":"MID DEVON","county":"DEVON","ppdCategoryType":"Standard","recordStatus":"Addition","latitude":50.728737,"longitude":-3.741542,"postcodeStart":"EX6 6","postcode":["EX6","6JU"]}
{"price":95000,"dateOfTransfer":"1998-12-14T00:00:00","postcodeFull":"EX6 6RU","propertyType":"Detached","oldOrNew":"Established","duration":"Freehold","paon":"3","saon":"","street":"ST MARYS CLOSE","locality":"TEDBURN ST MARY","townOrCity":"EXETER","district":"TEIGNBRIDGE","county":"DEVON","ppdCategoryType":"Standard","recordStatus":"Addition","latitude":50.734714,"longitude":-3.679254,"postcodeStart":"EX6 6","postcode":["EX6","6RU"]}
{"price":91000,"dateOfTransfer":"1998-05-27T00:00:00","postcodeFull":"EX6 6JR","propertyType":"Detached","oldOrNew":"New build","duration":"Freehold","paon":"2","saon":"","street":"CHESTNUT CLOSE","locality":"CHERITON BISHOP","townOrCity":"EXETER","district":"MID DEVON","county":"DEVON","ppdCategoryType":"Standard","recordStatus":"Addition","latitude":50.723968,"longitude":-3.741127,"postcodeStart":"EX6 6","postcode":["EX6","6JR"]}
{"price":64000,"dateOfTransfer":"1998-09-04T00:00:00","postcodeFull":"EX6 6JP","propertyType":"Semi-detached","oldOrNew":"Established","duration":"Freehold","paon":"14","saon":"","street":"HESCANE PARK","locality":"CHERITON BISHOP","townOrCity":"EXETER","district":"MID DEVON","county":"DEVON","ppdCategoryType":"Standard","recordStatus":"Addition","latitude":50.724279,"longitude":-3.738348,"postcodeStart":"EX6 6","postcode":["EX6","6JP"]}
{"price":275000,"dateOfTransfer":"1998-01-13T00:00:00","postcodeFull":"EX6 6JL","propertyType":"Detached","oldOrNew":"Established","duration":"Freehold","paon":"WOODLEIGH HALL","saon":"","street":"","locality":"CHERITON BISHOP","townOrCity":"EXETER","district":"MID DEVON","county":"DEVON","ppdCategoryType":"Standard","recordStatus":"Addition","latitude":50.725781,"longitude":-3.731092,"postcodeStart":"EX6 6","postcode":["EX6","6JL"]}
{"price":52500,"dateOfTransfer":"1998-09-04T00:00:00","postcodeFull":"EX6 6NL","propertyType":"Detached","oldOrNew":"Established","duration":"Freehold","paon":"VEET VIEW","saon":"","street":"","locality":"CROCKERNWELL","townOrCity":"EXETER","district":"WEST DEVON","county":"DEVON","ppdCategoryType":"Standard","recordStatus":"Addition","latitude":50.710436,"longitude":-3.791939,"postcodeStart":"EX6 6","postcode":["EX6","6NL"]}
{"price":95950,"dateOfTransfer":"1998-09-04T00:00:00","postcodeFull":"EX6 6JR","propertyType":"Detached","oldOrNew":"New build","duration":"Freehold","paon":"1","saon":"","street":"CHESTNUT CLOSE","locality":"CHERITON BISHOP","townOrCity":"EXETER","district":"MID DEVON","county":"DEVON","ppdCategoryType":"Standard","recordStatus":"Addition","latitude":50.723968,"longitude":-3.741127,"postcodeStart":"EX6 6","postcode":["EX6","6JR"]}
{"price":175000,"dateOfTransfer":"1998-04-30T00:00:00","postcodeFull":"EX6 6HD","propertyType":"Detached","oldOrNew":"Established","duration":"Freehold","paon":"DRUMMERS WELL","saon":"","street":"","locality":"CHERITON BISHOP","townOrCity":"EXETER","district":"MID DEVON","county":"DEVON","ppdCategoryType":"Standard","recordStatus":"Addition","latitude":50.731555,"longitude":-3.740102,"postcodeStart":"EX6 6","postcode":["EX6","6HD"]}
{"price":64000,"dateOfTransfer":"1998-09-23T00:00:00","postcodeFull":"EX6 6JN","propertyType":"Detached","oldOrNew":"Established","duration":"Freehold","paon":"1","saon":"","street":"SPRINGFIELD PARK","locality":"CHERITON BISHOP","townOrCity":"EXETER","district":"TEIGNBRIDGE","county":"DEVON","ppdCategoryType":"Standard","recordStatus":"Addition","latitude":50.728842,"longitude":-3.718123,"postcodeStart":"EX6 6","postcode":["EX6","6JN"]}
{"price":45000,"dateOfTransfer":"1998-04-20T00:00:00","postcodeFull":"EX6 6NB","propertyType":"Terraced","oldOrNew":"Established","duration":"Freehold","paon":"8","saon":"","street":"STONELAND COTTAGES","locality":"CROCKERNWELL","townOrCity":"EXETER","district":"WEST DEVON","county":"DEVON","ppdCategoryType":"Standard","recordStatus":"Addition","latitude":50.71768,"longitude":-3.766872,"postcodeStart":"EX6 6","postcode":["EX6","6NB"]}
{"price":115000,"dateOfTransfer":"1998-05-28T00:00:00","postcodeFull":"EX6 6BE","propertyType":"Detached","oldOrNew":"Established","duration":"Freehold","paon":"THE DELL","saon":"","street":"","locality":"TEDBURN ST MARY","townOrCity":"EXETER","district":"TEIGNBRIDGE","county":"DEVON","ppdCategoryType":"Standard","recordStatus":"Addition","latitude":50.740784,"longitude":-3.6812,"postcodeStart":"EX6 6","postcode":["EX6","6BE"]}
{"price":105500,"dateOfTransfer":"1998-05-13T00:00:00","postcodeFull":"EX6 6EQ","propertyType":"Detached","oldOrNew":"Established","duration":"Freehold","paon":"THE TARNS","saon":"","street":"","locality":"TEDBURN ST MARY","townOrCity":"EXETER","district":"TEIGNBRIDGE","county":"DEVON","ppdCategoryType":"Standard","recordStatus":"Addition","latitude":50.735024,"longitude":-3.682085,"postcodeStart":"EX6 6","postcode":["EX6","6EQ"]}
{"price":455000,"dateOfTransfer":"1998-06-01T00:00:00","postcodeFull":"EX6 6RD","propertyType":"Detached","oldOrNew":"Established","duration":"Freehold","paon":"PUDDICOMBE HOUSE","saon":"","street":"","locality":"DREWSTEIGNTON","townOrCity":"EXETER","district":"WEST DEVON","county":"DEVON","ppdCategoryType":"Standard","recordStatus":"Addition","latitude":50.712656,"longitude":-3.811798,"postcodeStart":"EX6 6","postcode":["EX6","6RD"]}
{"price":170000,"dateOfTransfer":"1998-11-03T00:00:00","postcodeFull":"EX6 6QR","propertyType":"Detached","oldOrNew":"Established","duration":"Freehold","paon":"CHARISMA COTTAGE","saon":"","street":"","locality":"DREWSTEIGNTON","townOrCity":"EXETER","district":"WEST DEVON","county":"DEVON","ppdCategoryType":"Standard","recordStatus":"Addition","latitude":50.703457,"longitude":-3.792495,"postcodeStart":"EX6 6","postcode":["EX6","6QR"]}
{"price":63000,"dateOfTransfer":"1998-05-13T00:00:00","postcodeFull":"EX6 6AR","propertyType":"Semi-detached","oldOrNew":"Established","duration":"Freehold","paon":"48","saon":"","street":"FOUR OAKS ROAD","locality":"TEDBURN ST MARY","townOrCity":"EXETER","district":"TEIGNBRIDGE","county":"DEVON","ppdCategoryType":"Standard","recordStatus":"Addition","latitude":50.732443,"longitude":-3.676452,"postcodeStart":"EX6 6","postcode":["EX6","6AR"]}
{"price":104500,"dateOfTransfer":"1998-01-30T00:00:00","postcodeFull":"EX6 6QR","propertyType":"Terraced","oldOrNew":"Established","duration":"Freehold","paon":"APRIL COTTAGE","saon":"","street":"","locality":"DREWSTEIGNTON","townOrCity":"EXETER","district":"WEST DEVON","county":"DEVON","ppdCategoryType":"Standard","recordStatus":"Addition","latitude":50.703457,"longitude":-3.792495,"postcodeStart":"EX6 6","postcode":["EX6","6QR"]}
{"price":60000,"dateOfTransfer":"1998-12-14T00:00:00","postcodeFull":"EX6 6AP","propertyType":"Detached","oldOrNew":"Established","duration":"Freehold","paon":"5","saon":"","street":"FOUR OAKS ROAD","locality":"TEDBURN ST MARY","townOrCity":"EXETER","district":"TEIGNBRIDGE","county":"DEVON","ppdCategoryType":"Standard","recordStatus":"Addition","latitude":50.732193,"longitude":-3.675706,"postcodeStart":"EX6 6","postcode":["EX6","6AP"]}
{"price":48500,"dateOfTransfer":"1998-03-20T00:00:00","postcodeFull":"EX6 6AP","propertyType":"Terraced","oldOrNew":"Established","duration":"Freehold","paon":"51","saon":"","street":"FOUR OAKS ROAD","locality":"TEDBURN ST MARY","townOrCity":"EXETER","district":"TEIGNBRIDGE","county":"DEVON","ppdCategoryType":"Standard","recordStatus":"Addition","latitude":50.732193,"longitude":-3.675706,"postcodeStart":"EX6 6","postcode":["EX6","6AP"]}
{"price":128000,"dateOfTransfer":"1998-10-15T00:00:00","postcodeFull":"EX6 6DN","propertyType":"Semi-detached","oldOrNew":"Established","duration":"Freehold","paon":"HORES UPPACOTT","saon":"","street":"","locality":"TEDBURN ST MARY","townOrCity":"EXETER","district":"TEIGNBRIDGE","county":"DEVON","ppdCategoryType":"Standard","recordStatus":"Addition","latitude":50.732594,"longitude":-3.681587,"postcodeStart":"EX6 6","postcode":["EX6","6DN"]}
{"price":50000,"dateOfTransfer":"1998-10-08T00:00:00","postcodeFull":"EX6 6JL","propertyType":"Terraced","oldOrNew":"Established","duration":"Freehold","paon":"HILLVIEW","saon":"2","street":"","locality":"CHERITON BISHOP","townOrCity":"EXETER","district":"MID DEVON","county":"DEVON","ppdCategoryType":"Standard","recordStatus":"Addition","latitude":50.725781,"longitude":-3.731092,"postcodeStart":"EX6 6","postcode":["EX6","6JL"]}
{"price":42000,"dateOfTransfer":"1998-04-27T00:00:00","postcodeFull":"EX6 6NB","propertyType":"Terraced","oldOrNew":"Established","duration":"Freehold","paon":"2","saon":"","street":"STONELAND COTTAGES","locality":"CROCKERNWELL","townOrCity":"EXETER","district":"WEST DEVON","county":"DEVON","ppdCategoryType":"Standard","recordStatus":"Addition","latitude":50.71768,"longitude":-3.766872,"postcodeStart":"EX6 6","postcode":["EX6","6NB"]}
{"price":88950,"dateOfTransfer":"1998-03-20T00:00:00","postcodeFull":"EX6 6JL","propertyType":"Semi-detached","oldOrNew":"Established","duration":"Freehold","paon":"MAYFIELD","saon":"","street":"","locality":"CHERITON BISHOP","townOrCity":"EXETER","district":"MID DEVON","county":"DEVON","ppdCategoryType":"Standard","recordStatus":"Addition","latitude":50.725781,"longitude":-3.731092,"postcodeStart":"EX6 6","postcode":["EX6","6JL"]}
{"price":92500,"dateOfTransfer":"1998-06-19T00:00:00","postcodeFull":"EX6 6JR","propertyType":"Detached","oldOrNew":"New build","duration":"Freehold","paon":"3","saon":"","street":"CHESTNUT CLOSE","locality":"CHERITON BISHOP","townOrCity":"EXETER","district":"MID DEVON","county":"DEVON","ppdCategoryType":"Standard","recordStatus":"Addition","latitude":50.723968,"longitude":-3.741127,"postcodeStart":"EX6 6","postcode":["EX6","6JR"]}
{"price":180000,"dateOfTransfer":"1998-06-05T00:00:00","postcodeFull":"EX6 6JU","propertyType":"Detached","oldOrNew":"Established","duration":"Freehold","paon":"1","saon":"","street":"HOLLY PARK","locality":"CHERITON BISHOP","townOrCity":"EXETER","district":"MID DEVON","county":"DEVON","ppdCategoryType":"Standard","recordStatus":"Addition","latitude":50.728737,"longitude":-3.741542,"postcodeStart":"EX6 6","postcode":["EX6","6JU"]}
{"price":41000,"dateOfTransfer":"1998-10-27T00:00:00","postcodeFull":"EX6 6JE","propertyType":"Semi-detached","oldOrNew":"Established","duration":"Freehold","paon":"TEN MILE COTTAGE","saon":"","street":"","locality":"CHERITON BISHOP","townOrCity":"EXETER","district":"MID DEVON","county":"DEVON","ppdCategoryType":"Standard","recordStatus":"Addition","latitude":50.722773,"longitude":-3.745798,"postcodeStart":"EX6 6","postcode":["EX6","6JE"]}
{"price":55000,"dateOfTransfer":"1998-04-03T00:00:00","postcodeFull":"EX6 6HZ","propertyType":"Terraced","oldOrNew":"Established","duration":"Freehold","paon":"7","saon":"","street":"GLEBELANDS","locality":"CHERITON BISHOP","townOrCity":"EXETER","district":"MID DEVON","county":"DEVON","ppdCategoryType":"Standard","recordStatus":"Addition","latitude":50.724748,"longitude":-3.740094,"postcodeStart":"EX6 6","postcode":["EX6","6HZ"]}
{"price":51500,"dateOfTransfer":"1998-06-17T00:00:00","postcodeFull":"EX6 6AA","propertyType":"Semi-detached","oldOrNew":"Established","duration":"Freehold","paon":"26","saon":"","street":"SCHOOL LANE","locality":"TEDBURN ST MARY","townOrCity":"EXETER","district":"TEIGNBRIDGE","county":"DEVON","ppdCategoryType":"Standard","recordStatus":"Addition","latitude":50.733097,"longitude":-3.677838,"postcodeStart":"EX6 6","postcode":["EX6","6AA"]}
{"price":68500,"dateOfTransfer":"1998-10-30T00:00:00","postcodeFull":"EX6 6NB","propertyType":"Semi-detached","oldOrNew":"Established","duration":"Freehold","paon":"LILAC COTTAGE","saon":"","street":"","locality":"CROCKERNWELL","townOrCity":"EXETER","district":"WEST DEVON","county":"DEVON","ppdCategoryType":"Standard","recordStatus":"Addition","latitude":50.71768,"longitude":-3.766872,"postcodeStart":"EX6 6","postcode":["EX6","6NB"]}
{"price":180000,"dateOfTransfer":"1998-06-30T00:00:00","postcodeFull":"EX6 6AF","propertyType":"Detached","oldOrNew":"New build","duration":"Freehold","paon":"LONGWOOD","saon":"","street":"","locality":"TEDBURN ST MARY","townOrCity":"EXETER","district":"TEIGNBRIDGE","county":"DEVON","ppdCategoryType":"Standard","recordStatus":"Addition","latitude":50.727472,"longitude":-3.649806,"postcodeStart":"EX6 6","postcode":["EX6","6AF"]}
{"price":175000,"dateOfTransfer":"1998-12-30T00:00:00","postcodeFull":"EX6 6EN","propertyType":"Detached","oldOrNew":"Established","duration":"Freehold","paon":"MOUNT PLEASANT","saon":"","street":"","locality":"TEDBURN ST MARY","townOrCity":"EXETER","district":"TEIGNBRIDGE","county":"DEVON","ppdCategoryType":"Standard","recordStatus":"Addition","latitude":50.737022,"longitude":-3.693182,"postcodeStart":"EX6 6","postcode":["EX6","6EN"]}
{"price":90000,"dateOfTransfer":"1998-08-26T00:00:00","postcodeFull":"EX6 6JR","propertyType":"Detached","oldOrNew":"New build","duration":"Freehold","paon":"5","saon":"","street":"CHESTNUT CLOSE","locality":"CHERITON BISHOP","townOrCity":"EXETER","district":"MID DEVON","county":"DEVON","ppdCategoryType":"Standard","recordStatus":"Addition","latitude":50.723968,"longitude":-3.741127,"postcodeStart":"EX6 6","postcode":["EX6","6JR"]}
{"price":126000,"dateOfTransfer":"1999-05-14T00:00:00","postcodeFull":"EX6 6NR","propertyType":"Detached","oldOrNew":"New build","duration":"Freehold","paon":"BAY TREE HOUSE","saon":"","street":"","locality":"CROCKERNWELL","townOrCity":"EXETER","district":"WEST DEVON","county":"DEVON","ppdCategoryType":"Standard","recordStatus":"Addition","latitude":50.717349,"longitude":-3.783353,"postcodeStart":"EX6 6","postcode":["EX6","6NR"]}
{"price":72000,"dateOfTransfer":"1999-05-14T00:00:00","postcodeFull":"EX6 6QP","propertyType":"Flat/Maisonette/Townhouse","oldOrNew":"Established","duration":"Leasehold","paon":"CHURCH VIEW HOUSE","saon":"FLAT 3","street":"","locality":"DREWSTEIGNTON","townOrCity":"EXETER","district":"WEST DEVON","county":"DEVON","ppdCategoryType":"Standard","recordStatus":"Addition","latitude":50.703284,"longitude":-3.792049,"postcodeStart":"EX6 6","postcode":["EX6","6QP"]}
{"price":66500,"dateOfTransfer":"1999-09-10T00:00:00","postcodeFull":"EX6 6AR","propertyType":"Semi-detached","oldOrNew":"Established","duration":"Freehold","paon":"48","saon":"","street":"FOUR OAKS ROAD","locality":"TEDBURN ST MARY","townOrCity":"EXETER","district":"TEIGNBRIDGE","county":"DEVON","ppdCategoryType":"Standard","recordStatus":"Addition","latitude":50.732443,"longitude":-3.676452,"postcodeStart":"EX6 6","postcode":["EX6","6AR"]}
{"price":56500,"dateOfTransfer":"1999-03-19T00:00:00","postcodeFull":"EX6 6QW","propertyType":"Terraced","oldOrNew":"Established","duration":"Freehold","paon":"SUNNYBANK","saon":"1","street":"","locality":"DREWSTEIGNTON","townOrCity":"EXETER","district":"WEST DEVON","county":"DEVON","ppdCategoryType":"Standard","recordStatus":"Addition","latitude":50.703142,"longitude":-3.792515,"postcodeStart":"EX6 6","postcode":["EX6","6QW"]}
{"price":249000,"dateOfTransfer":"1999-12-17T00:00:00","postcodeFull":"EX6 6AZ","propertyType":"Detached","oldOrNew":"Established","duration":"Freehold","paon":"LILLYBROOK","saon":"","street":"","locality":"TEDBURN ST MARY","townOrCity":"EXETER","district":"TEIGNBRIDGE","county":"DEVON","ppdCategoryType":"Standard","recordStatus":"Addition","latitude":50.736277,"longitude":-3.668128,"postcodeStart":"EX6 6","postcode":["EX6","6AZ"]}
{"price":102000,"dateOfTransfer":"1999-04-15T00:00:00","postcodeFull":"EX6 6JG","propertyType":"Detached","oldOrNew":"Established","duration":"Freehold","paon":"POLFORD COTTAGE","saon":"","street":"","locality":"CHERITON BISHOP","townOrCity":"EXETER","district":"MID DEVON","county":"DEVON","ppdCategoryType":"Standard","recordStatus":"Addition","latitude":50.721109,"longitude":-3.756007,"postcodeStart":"EX6 6","postcode":["EX6","6JG"]}
{"price":250000,"dateOfTransfer":"1999-07-02T00:00:00","postcodeFull":"EX6 6JN","propertyType":"Detached","oldOrNew":"Established","duration":"Freehold","paon":"SPRINGFIELD FARM","saon":"","street":"","locality":"CHERITON BISHOP","townOrCity":"EXETER","district":"TEIGNBRIDGE","county":"DEVON","ppdCategoryType":"Standard","recordStatus":"Addition","latitude":50.728842,"longitude":-3.718123,"postcodeStart":"EX6 6","postcode":["EX6","6JN"]}
{"price":59995,"dateOfTransfer":"1999-01-07T00:00:00","postcodeFull":"EX6 6NB","propertyType":"Terraced","oldOrNew":"Established","duration":"Freehold","paon":"CHAPEL BROOKE COTTAGE","saon":"","street":"","locality":"CROCKERNWELL","townOrCity":"EXETER","district":"WEST DEVON","county":"DEVON","ppdCategoryType":"Standard","recordStatus":"Addition","latitude":50.71768,"longitude":-3.766872,"postcodeStart":"EX6 6","postcode":["EX6","6NB"]}
{"price":116500,"dateOfTransfer":"1999-12-22T00:00:00","postcodeFull":"EX6 6JR","propertyType":"Detached","oldOrNew":"Established","duration":"Freehold","paon":"2","saon":"","street":"CHESTNUT CLOSE","locality":"CHERITON BISHOP","townOrCity":"EXETER","district":"MID DEVON","county":"DEVON","ppdCategoryType":"Standard","recordStatus":"Addition","latitude":50.723968,"longitude":-3.741127,"postcodeStart":"EX6 6","postcode":["EX6","6JR"]}
{"price":65000,"dateOfTransfer":"1999-07-22T00:00:00","postcodeFull":"EX6 6QS","propertyType":"Terraced","oldOrNew":"Established","duration":"Freehold","paon":"2","saon":"","street":"NETHERTON HILL","locality":"DREWSTEIGNTON","townOrCity":"EXETER","district":"WEST DEVON","county":"DEVON","ppdCategoryType":"Standard","recordStatus":"Addition","latitude":50.704059,"longitude":-3.791965,"postcodeStart":"EX6 6","postcode":["EX6","6QS"]}
{"price":127000,"dateOfTransfer":"1999-06-24T00:00:00","postcodeFull":"EX6 6RS","propertyType":"Detached","oldOrNew":"Established","duration":"Freehold","paon":"2","saon":"","street":"MILLERS WAY","locality":"TEDBURN ST MARY","townOrCity":"EXETER","district":"TEIGNBRIDGE","county":"DEVON","ppdCategoryType":"Standard","recordStatus":"Addition","latitude":50.733585,"longitude":-3.678958,"postcodeStart":"EX6 6","postcode":["EX6","6RS"]}
{"price":90000,"dateOfTransfer":"1999-04-01T00:00:00","postcodeFull":"EX6 6LG","propertyType":"Detached","oldOrNew":"Established","duration":"Freehold","paon":"SCHOOL HOUSE","saon":"","street":"","locality":"HITTISLEIGH","townOrCity":"EXETER","district":"MID DEVON","county":"DEVON","ppdCategoryType":"Standard","recordStatus":"Addition","latitude":50.739535,"longitude":-3.800916,"postcodeStart":"EX6 6","postcode":["EX6","6LG"]}
{"price":69005,"dateOfTransfer":"1999-05-06T00:00:00","postcodeFull":"EX6 6JE","propertyType":"Detached","oldOrNew":"Established","duration":"Freehold","paon":"CORNERSTONE","saon":"","street":"","locality":"CHERITON BISHOP","townOrCity":"EXETER","district":"MID DEVON","county":"DEVON","ppdCategoryType":"Standard","recordStatus":"Addition","latitude":50.722773,"longitude":-3.745798,"postcodeStart":"EX6 6","postcode":["EX6","6JE"]}
{"price":88000,"dateOfTransfer":"1999-04-01T00:00:00","postcodeFull":"EX6 6RL","propertyType":"Detached","oldOrNew":"Established","duration":"Freehold","paon":"10","saon":"","street":"NORTHPARK ROAD","locality":"TEDBURN ST MARY","townOrCity":"EXETER","district":"TEIGNBRIDGE","county":"DEVON","ppdCategoryType":"Standard","recordStatus":"Addition","latitude":50.733977,"longitude":-3.680474,"postcodeStart":"EX6 6","postcode":["EX6","6RL"]}
{"price":50000,"dateOfTransfer":"1999-08-10T00:00:00","postcodeFull":"EX6 6QU","propertyType":"Terraced","oldOrNew":"Established","duration":"Freehold","paon":"2","saon":"","street":"CHURCHGATE COTTAGES","locality":"DREWSTEIGNTON","townOrCity":"EXETER","district":"WEST DEVON","county":"DEVON","ppdCategoryType":"Standard","recordStatus":"Addition","latitude":50.703778,"longitude":-3.789745,"postcodeStart":"EX6 6","postcode":["EX6","6QU"]}
{"price":123500,"dateOfTransfer":"1999-09-06T00:00:00","postcodeFull":"EX6 6HF","propertyType":"Detached","oldOrNew":"Established","duration":"Freehold","paon":"FURZE COTTAGE","saon":"","street":"","locality":"CHERITON BISHOP","townOrCity":"EXETER","district":"MID DEVON","county":"DEVON","ppdCategoryType":"Standard","recordStatus":"Addition","latitude":50.740917,"longitude":-3.743159,"postcodeStart":"EX6 6","postcode":["EX6","6HF"]}
{"price":68500,"dateOfTransfer":"1999-07-30T00:00:00","postcodeFull":"EX6 6HZ","propertyType":"Semi-detached","oldOrNew":"Established","duration":"Freehold","paon":"5","saon":"","street":"GLEBELANDS","locality":"CHERITON BISHOP","townOrCity":"EXETER","district":"MID DEVON","county":"DEVON","ppdCategoryType":"Standard","recordStatus":"Addition","latitude":50.724748,"longitude":-3.740094,"postcodeStart":"EX6 6","postcode":["EX6","6HZ"]}
{"price":93950,"dateOfTransfer":"1999-01-29T00:00:00","postcodeFull":"EX6 6AA","propertyType":"Detached","oldOrNew":"Established","duration":"Freehold","paon":"36","saon":"","street":"SCHOOL LANE","locality":"TEDBURN ST MARY","townOrCity":"EXETER","district":"TEIGNBRIDGE","county":"DEVON","ppdCategoryType":"Standard","recordStatus":"Addition","latitude":50.733097,"longitude":-3.677838,"postcodeStart":"EX6 6","postcode":["EX6","6AA"]}
{"price":65000,"dateOfTransfer":"1999-02-17T00:00:00","postcodeFull":"EX6 6HZ","propertyType":"Detached","oldOrNew":"Established","duration":"Freehold","paon":"31","saon":"","street":"GLEBELANDS","locality":"CHERITON BISHOP","townOrCity":"EXETER","district":"MID DEVON","county":"DEVON","ppdCategoryType":"Standard","recordStatus":"Addition","latitude":50.724748,"longitude":-3.740094,"postcodeStart":"EX6 6","postcode":["EX6","6HZ"]}
{"price":55000,"dateOfTransfer":"1999-10-28T00:00:00","postcodeFull":"EX6 6HD","propertyType":"Detached","oldOrNew":"Established","duration":"Freehold","paon":"VENBRIDGE LODGE","saon":"","street":"","locality":"CHERITON BISHOP","townOrCity":"EXETER","district":"MID DEVON","county":"DEVON","ppdCategoryType":"Standard","recordStatus":"Addition","latitude":50.731555,"longitude":-3.740102,"postcodeStart":"EX6 6","postcode":["EX6","6HD"]}
{"price":79000,"dateOfTransfer":"1999-08-27T00:00:00","postcodeFull":"EX6 6JP","propertyType":"Detached","oldOrNew":"Established","duration":"Freehold","paon":"24","saon":"","street":"HESCANE PARK","locality":"CHERITON BISHOP","townOrCity":"EXETER","district":"MID DEVON","county":"DEVON","ppdCategoryType":"Standard","recordStatus":"Addition","latitude":50.724279,"longitude":-3.738348,"postcodeStart":"EX6 6","postcode":["EX6","6JP"]}
{"price":165000,"dateOfTransfer":"1999-11-15T00:00:00","postcodeFull":"EX6 6JZ","propertyType":"Detached","oldOrNew":"Established","duration":"Freehold","paon":"RYDON FARM","saon":"","street":"","locality":"CHERITON BISHOP","townOrCity":"EXETER","district":"TEIGNBRIDGE","county":"DEVON","ppdCategoryType":"Standard","recordStatus":"Addition","latitude":50.734162,"longitude":-3.778918,"postcodeStart":"EX6 6","postcode":["EX6","6JZ"]}
{"price":58000,"dateOfTransfer":"1999-08-10T00:00:00","postcodeFull":"EX6 6HZ","propertyType":"Semi-detached","oldOrNew":"Established","duration":"Freehold","paon":"35","saon":"","street":"GLEBELANDS","locality":"CHERITON BISHOP","townOrCity":"EXETER","district":"MID DEVON","county":"DEVON","ppdCategoryType":"Standard","recordStatus":"Addition","latitude":50.724748,"longitude":-3.740094,"postcodeStart":"EX6 6","postcode":["EX6","6HZ"]}
{"price":75000,"dateOfTransfer":"1999-06-16T00:00:00","postcodeFull":"EX6 6QU","propertyType":"Terraced","oldOrNew":"Established","duration":"Freehold","paon":"1","saon":"","street":"CHURCHGATE COTTAGES","locality":"DREWSTEIGNTON","townOrCity":"EXETER","district":"WEST DEVON","county":"DEVON","ppdCategoryType":"Standard","recordStatus":"Addition","latitude":50.703778,"longitude":-3.789745,"postcodeStart":"EX6 6","postcode":["EX6","6QU"]}
{"price":180000,"dateOfTransfer":"1999-07-20T00:00:00","postcodeFull":"EX6 6JA","propertyType":"Detached","oldOrNew":"Established","duration":"Freehold","paon":"JENDIA","saon":"","street":"","locality":"CHERITON BISHOP","townOrCity":"EXETER","district":"MID DEVON","county":"DEVON","ppdCategoryType":"Standard","recordStatus":"Addition","latitude":50.724709,"longitude":-3.742047,"postcodeStart":"EX6 6","postcode":["EX6","6JA"]}
{"price":115000,"dateOfTransfer":"1999-03-31T00:00:00","postcodeFull":"EX6 6HY","propertyType":"Detached","oldOrNew":"Established","duration":"Freehold","paon":"FALLOW-END","saon":"","street":"CHURCH LANE","locality":"CHERITON BISHOP","townOrCity":"EXETER","district":"MID DEVON","county":"DEVON","ppdCategoryType":"Standard","recordStatus":"Addition","latitude":50.727529,"longitude":-3.739329,"postcodeStart":"EX6 6","postcode":["EX6","6HY"]}
{"price":89500,"dateOfTransfer":"1999-09-24T00:00:00","postcodeFull":"EX6 6RW","propertyType":"Detached","oldOrNew":"Established","duration":"Freehold","paon":"10","saon":"","street":"FULFORD CLOSE","locality":"TEDBURN ST MARY","townOrCity":"EXETER","district":"TEIGNBRIDGE","county":"DEVON","ppdCategoryType":"Standard","recordStatus":"Addition","latitude":50.732093,"longitude":-3.679543,"postcodeStart":"EX6 6","postcode":["EX6","6RW"]}
{"price":63000,"dateOfTransfer":"1999-10-28T00:00:00","postcodeFull":"EX6 6JL","propertyType":"Terraced","oldOrNew":"Established","duration":"Freehold","paon":"HILLVIEW","saon":"1","street":"","locality":"CHERITON BISHOP","townOrCity":"EXETER","district":"MID DEVON","county":"DEVON","ppdCategoryType":"Standard","recordStatus":"Addition","latitude":50.725781,"longitude":-3.731092,"postcodeStart":"EX6 6","postcode":["EX6","6JL"]}
{"price":131130,"dateOfTransfer":"1999-06-30T00:00:00","postcodeFull":"EX6 6DJ","propertyType":"Detached","oldOrNew":"Established","duration":"Freehold","paon":"TWO TREES","saon":"","street":"","locality":"TEDBURN ST MARY","townOrCity":"EXETER","district":"TEIGNBRIDGE","county":"DEVON","ppdCategoryType":"Standard","recordStatus":"Addition","latitude":50.733917,"longitude":-3.681521,"postcodeStart":"EX6 6","postcode":["EX6","6DJ"]}
{"price":132000,"dateOfTransfer":"1999-08-09T00:00:00","postcodeFull":"EX6 6RN","propertyType":"Detached","oldOrNew":"Established","duration":"Freehold","paon":"31","saon":"","street":"SOUTHWAY","locality":"TEDBURN ST MARY","townOrCity":"EXETER","district":"TEIGNBRIDGE","county":"DEVON","ppdCategoryType":"Standard","recordStatus":"Addition","latitude":50.732598,"longitude":-3.679461,"postcodeStart":"EX6 6","postcode":["EX6","6RN"]}
{"price":250000,"dateOfTransfer":"1999-07-02T00:00:00","postcodeFull":"EX6 6JN","propertyType":"Detached","oldOrNew":"Established","duration":"Freehold","paon":"SPRINGFIELD FARM","saon":"","street":"","locality":"CHERITON BISHOP","townOrCity":"EXETER","district":"TEIGNBRIDGE","county":"DEVON","ppdCategoryType":"Standard","recordStatus":"Addition","latitude":50.728842,"longitude":-3.718123,"postcodeStart":"EX6 6","postcode":["EX6","6JN"]}
{"price":120000,"dateOfTransfer":"1999-11-30T00:00:00","postcodeFull":"EX6 6RW","propertyType":"Detached","oldOrNew":"Established","duration":"Freehold","paon":"5","saon":"","street":"FULFORD CLOSE","locality":"TEDBURN ST MARY","townOrCity":"EXETER","district":"TEIGNBRIDGE","county":"DEVON","ppdCategoryType":"Standard","recordStatus":"Addition","latitude":50.732093,"longitude":-3.679543,"postcodeStart":"EX6 6","postcode":["EX6","6RW"]}
{"price":185500,"dateOfTransfer":"1999-07-22T00:00:00","postcodeFull":"EX6 6DW","propertyType":"Detached","oldOrNew":"Established","duration":"Freehold","paon":"GREAT HACKWORTHY COTTAGE","saon":"","street":"","locality":"TEDBURN ST MARY","townOrCity":"EXETER","district":"TEIGNBRIDGE","county":"DEVON","ppdCategoryType":"Standard","recordStatus":"Addition","latitude":50.725651,"longitude":-3.688961,"postcodeStart":"EX6 6","postcode":["EX6","6DW"]}
{"price":110000,"dateOfTransfer":"1999-12-07T00:00:00","postcodeFull":"EX6 6RN","propertyType":"Detached","oldOrNew":"Established","duration":"Freehold","paon":"24","saon":"","street":"SOUTHWAY","locality":"TEDBURN ST MARY","townOrCity":"EXETER","district":"TEIGNBRIDGE","county":"DEVON","ppdCategoryType":"Standard","recordStatus":"Addition","latitude":50.732598,"longitude":-3.679461,"postcodeStart":"EX6 6","postcode":["EX6","6RN"]}
{"price":62000,"dateOfTransfer":"1999-11-26T00:00:00","postcodeFull":"EX6 6HZ","propertyType":"Semi-detached","oldOrNew":"Established","duration":"Freehold","paon":"29A","saon":"","street":"GLEBELANDS","locality":"CHERITON BISHOP","townOrCity":"EXETER","district":"MID DEVON","county":"DEVON","ppdCategoryType":"Standard","recordStatus":"Addition","latitude":50.724748,"longitude":-3.740094,"postcodeStart":"EX6 6","postcode":["EX6","6HZ"]}
{"price":145000,"dateOfTransfer":"1999-12-15T00:00:00","postcodeFull":"EX6 6DJ","propertyType":"Detached","oldOrNew":"Established","duration":"Freehold","paon":"THE CEDARS","saon":"","street":"","locality":"TEDBURN ST MARY","townOrCity":"EXETER","district":"TEIGNBRIDGE","county":"DEVON","ppdCategoryType":"Standard","recordStatus":"Addition","latitude":50.733917,"longitude":-3.681521,"postcodeStart":"EX6 6","postcode":["EX6","6DJ"]}
{"price":95000,"dateOfTransfer":"1999-11-26T00:00:00","postcodeFull":"EX6 6NA","propertyType":"Detached","oldOrNew":"Established","duration":"Freehold","paon":"1","saon":"","street":"STANBURYS ORCHARD","locality":"CROCKERNWELL","townOrCity":"EXETER","district":"MID DEVON","county":"DEVON","ppdCategoryType":"Standard","recordStatus":"Addition","latitude":50.71786,"longitude":-3.76804,"postcodeStart":"EX6 6","postcode":["EX6","6NA"]}
{"price":54000,"dateOfTransfer":"1999-05-14T00:00:00","postcodeFull":"EX6 6AP","propertyType":"Terraced","oldOrNew":"Established","duration":"Freehold","paon":"35","saon":"","street":"FOUR OAKS ROAD","locality":"TEDBURN ST MARY","townOrCity":"EXETER","district":"TEIGNBRIDGE","county":"DEVON","ppdCategoryType":"Standard","recordStatus":"Addition","latitude":50.732193,"longitude":-3.675706,"postcodeStart":"EX6 6","postcode":["EX6","6AP"]}
{"price":121000,"dateOfTransfer":"1999-05-13T00:00:00","postcodeFull":"EX6 6QX","propertyType":"Terraced","oldOrNew":"Established","duration":"Freehold","paon":"ASHPLANT FINGLE COTTAGE","saon":"","street":"","locality":"DREWSTEIGNTON","townOrCity":"EXETER","district":"WEST DEVON","county":"DEVON","ppdCategoryType":"Standard","recordStatus":"Addition","latitude":50.703734,"longitude":-3.789148,"postcodeStart":"EX6 6","postcode":["EX6","6QX"]}
{"price":91000,"dateOfTransfer":"1999-12-22T00:00:00","postcodeFull":"EX6 6HH","propertyType":"Detached","oldOrNew":"Established","duration":"Freehold","paon":"WOODLANDS","saon":"1","street":"","locality":"CHERITON BISHOP","townOrCity":"EXETER","district":"MID DEVON","county":"DEVON","ppdCategoryType":"Standard","recordStatus":"Addition","latitude":50.741225,"longitude":-3.77166,"postcodeStart":"EX6 6","postcode":["EX6","6HH"]}
{"price":250000,"dateOfTransfer":"1999-02-01T00:00:00","postcodeFull":"EX6 6HD","propertyType":"Detached","oldOrNew":"Established","duration":"Freehold","paon":"MOUNSON FARM","saon":"","street":"","locality":"CHERITON BISHOP","townOrCity":"EXETER","district":"MID DEVON","county":"DEVON","ppdCategoryType":"Standard","recordStatus":"Addition","latitude":50.731555,"longitude":-3.740102,"postcodeStart":"EX6 6","postcode":["EX6","6HD"]}
{"price":69999,"dateOfTransfer":"1999-08-06T00:00:00","postcodeFull":"EX6 6AA","propertyType":"Detached","oldOrNew":"Established","duration":"Freehold","paon":"WINSLAKE MEADOW","saon":"5","street":"SCHOOL LANE","locality":"TEDBURN ST MARY","townOrCity":"EXETER","district":"TEIGNBRIDGE","county":"DEVON","ppdCategoryType":"Standard","recordStatus":"Addition","latitude":50.733097,"longitude":-3.677838,"postcodeStart":"EX6 6","postcode":["EX6","6AA"]}
{"price":245000,"dateOfTransfer":"1999-11-10T00:00:00","postcodeFull":"EX6 6QW","propertyType":"Detached","oldOrNew":"Established","duration":"Freehold","paon":"HUNTS TOR","saon":"","street":"","locality":"DREWSTEIGNTON","townOrCity":"EXETER","district":"WEST DEVON","county":"DEVON","ppdCategoryType":"Standard","recordStatus":"Addition","latitude":50.703142,"longitude":-3.792515,"postcodeStart":"EX6 6","postcode":["EX6","6QW"]}
{"price":89000,"dateOfTransfer":"1999-11-05T00:00:00","postcodeFull":"EX6 6JN","propertyType":"Detached","oldOrNew":"Established","duration":"Freehold","paon":"SPRINGFIELD PARK","saon":"THE COTTAGE","street":"","locality":"CHERITON BISHOP","townOrCity":"EXETER","district":"TEIGNBRIDGE","county":"DEVON","ppdCategoryType":"Standard","recordStatus":"Addition","latitude":50.728842,"longitude":-3.718123,"postcodeStart":"EX6 6","postcode":["EX6","6JN"]}
{"price":140000,"dateOfTransfer":"1999-10-05T00:00:00","postcodeFull":"EX6 6HD","propertyType":"Detached","oldOrNew":"Established","duration":"Freehold","paon":"MELBURY COTTAGE","saon":"","street":"","locality":"CHERITON BISHOP","townOrCity":"EXETER","district":"MID DEVON","county":"DEVON","ppdCategoryType":"Standard","recordStatus":"Addition","latitude":50.731555,"longitude":-3.740102,"postcodeStart":"EX6 6","postcode":["EX6","6HD"]}
{"price":265000,"dateOfTransfer":"1999-04-09T00:00:00","postcodeFull":"EX6 6RD","propertyType":"Detached","oldOrNew":"Established","duration":"Freehold","paon":"LOWER PUDDICOMBE","saon":"","street":"","locality":"DREWSTEIGNTON","townOrCity":"EXETER","district":"WEST DEVON","county":"DEVON","ppdCategoryType":"Standard","recordStatus":"Addition","latitude":50.712656,"longitude":-3.811798,"postcodeStart":"EX6 6","postcode":["EX6","6RD"]}
{"price":59950,"dateOfTransfer":"1999-02-25T00:00:00","postcodeFull":"EX6 6NB","propertyType":"Terraced","oldOrNew":"Established","duration":"Freehold","paon":"TILFORD COTTAGE","saon":"","street":"","locality":"CROCKERNWELL","townOrCity":"EXETER","district":"WEST DEVON","county":"DEVON","ppdCategoryType":"Standard","recordStatus":"Addition","latitude":50.71768,"longitude":-3.766872,"postcodeStart":"EX6 6","postcode":["EX6","6NB"]}
{"price":75000,"dateOfTransfer":"1999-01-29T00:00:00","postcodeFull":"EX6 6RN","propertyType":"Detached","oldOrNew":"Established","duration":"Freehold","paon":"17","saon":"","street":"SOUTHWAY","locality":"TEDBURN ST MARY","townOrCity":"EXETER","district":"TEIGNBRIDGE","county":"DEVON","ppdCategoryType":"Standard","recordStatus":"Addition","latitude":50.732598,"longitude":-3.679461,"postcodeStart":"EX6 6","postcode":["EX6","6RN"]}
{"price":70500,"dateOfTransfer":"1999-11-05T00:00:00","postcodeFull":"EX6 6EQ","propertyType":"Terraced","oldOrNew":"Established","duration":"Freehold","paon":"FAIRFIELD","saon":"","street":"","locality":"TEDBURN ST MARY","townOrCity":"EXETER","district":"TEIGNBRIDGE","county":"DEVON","ppdCategoryType":"Standard","recordStatus":"Addition","latitude":50.735024,"longitude":-3.682085,"postcodeStart":"EX6 6","postcode":["EX6","6EQ"]}
{"price":308430,"dateOfTransfer":"1999-04-09T00:00:00","postcodeFull":"EX6 6BE","propertyType":"Detached","oldOrNew":"Established","duration":"Freehold","paon":"SOUTH HILL MANOR","saon":"","street":"","locality":"TEDBURN ST MARY","townOrCity":"EXETER","district":"TEIGNBRIDGE","county":"DEVON","ppdCategoryType":"Standard","recordStatus":"Addition","latitude":50.740784,"longitude":-3.6812,"postcodeStart":"EX6 6","postcode":["EX6","6BE"]}
{"price":310000,"dateOfTransfer":"1999-11-04T00:00:00","postcodeFull":"EX6 6HY","propertyType":"Detached","oldOrNew":"Established","duration":"Freehold","paon":"THE OLD RECTORY","saon":"","street":"CHURCH LANE","locality":"CHERITON BISHOP","townOrCity":"EXETER","district":"MID DEVON","county":"DEVON","ppdCategoryType":"Standard","recordStatus":"Addition","latitude":50.727529,"longitude":-3.739329,"postcodeStart":"EX6 6","postcode":["EX6","6HY"]}
{"price":167000,"dateOfTransfer":"1999-11-29T00:00:00","postcodeFull":"EX6 6QX","propertyType":"Semi-detached","oldOrNew":"Established","duration":"Freehold","paon":"1","saon":"","street":"BERRYVIEW","locality":"DREWSTEIGNTON","townOrCity":"EXETER","district":"WEST DEVON","county":"DEVON","ppdCategoryType":"Standard","recordStatus":"Addition","latitude":50.703734,"longitude":-3.789148,"postcodeStart":"EX6 6","postcode":["EX6","6QX"]}
{"price":113000,"dateOfTransfer":"2000-01-12T00:00:00","postcodeFull":"EX6 6JP","propertyType":"Detached","oldOrNew":"Established","duration":"Freehold","paon":"2","saon":"","street":"HESCANE PARK","locality":"CHERITON BISHOP","townOrCity":"EXETER","district":"MID DEVON","county":"DEVON","ppdCategoryType":"Standard","recordStatus":"Addition","latitude":50.724279,"longitude":-3.738348,"postcodeStart":"EX6 6","postcode":["EX6","6JP"]}
{"price":159950,"dateOfTransfer":"2000-03-23T00:00:00","postcodeFull":"EX6 6RS","propertyType":"Detached","oldOrNew":"Established","duration":"Freehold","paon":"1","saon":"","street":"MILLERS WAY","locality":"TEDBURN ST MARY","townOrCity":"EXETER","district":"TEIGNBRIDGE","county":"DEVON","ppdCategoryType":"Standard","recordStatus":"Addition","latitude":50.733585,"longitude":-3.678958,"postcodeStart":"EX6 6","postcode":["EX6","6RS"]}
{"price":67000,"dateOfTransfer":"2000-11-27T00:00:00","postcodeFull":"EX6 6JL","propertyType":"Terraced","oldOrNew":"Established","duration":"Freehold","paon":"HILLVIEW","saon":"1","street":"","locality":"CHERITON BISHOP","townOrCity":"EXETER","district":"MID DEVON","county":"DEVON","ppdCategoryType":"Standard","recordStatus":"Addition","latitude":50.725781,"longitude":-3.731092,"postcodeStart":"EX6 6","postcode":["EX6","6JL"]}
{"price":125000,"dateOfTransfer":"2000-04-28T00:00:00","postcodeFull":"EX6 6RN","propertyType":"Detached","oldOrNew":"Established","duration":"Freehold","paon":"38","saon":"","street":"SOUTHWAY","locality":"TEDBURN ST MARY","townOrCity":"EXETER","district":"TEIGNBRIDGE","county":"DEVON","ppdCategoryType":"Standard","recordStatus":"Addition","latitude":50.732598,"longitude":-3.679461,"postcodeStart":"EX6 6","postcode":["EX6","6RN"]}
{"price":132500,"dateOfTransfer":"2000-07-27T00:00:00","postcodeFull":"EX6 6NB","propertyType":"Semi-detached","oldOrNew":"Established","duration":"Freehold","paon":"PILGRIM COTTAGE","saon":"","street":"","locality":"CROCKERNWELL","townOrCity":"EXETER","district":"WEST DEVON","county":"DEVON","ppdCategoryType":"Standard","recordStatus":"Addition","latitude":50.71768,"longitude":-3.766872,"postcodeStart":"EX6 6","postcode":["EX6","6NB"]}
{"price":150000,"dateOfTransfer":"2000-04-17T00:00:00","postcodeFull":"EX6 6JR","propertyType":"Detached","oldOrNew":"Established","duration":"Freehold","paon":"4","saon":"","street":"CHESTNUT CLOSE","locality":"CHERITON BISHOP","townOrCity":"EXETER","district":"MID DEVON","county":"DEVON","ppdCategoryType":"Standard","recordStatus":"Addition","latitude":50.723968,"longitude":-3.741127,"postcodeStart":"EX6 6","postcode":["EX6","6JR"]}
{"price":129950,"dateOfTransfer":"2000-06-19T00:00:00","postcodeFull":"EX6 6JH","propertyType":"Detached","oldOrNew":"Established","duration":"Freehold","paon":"WILLOW COTTAGE","saon":"","street":"","locality":"CHERITON BISHOP","townOrCity":"EXETER","district":"MID DEVON","county":"DEVON","ppdCategoryType":"Standard","recordStatus":"Addition","latitude":50.723473,"longitude":-3.738471,"postcodeStart":"EX6 6","postcode":["EX6","6JH"]}
{"price":99950,"dateOfTransfer":"2000-08-11T00:00:00","postcodeFull":"EX6 6JE","propertyType":"Semi-detached","oldOrNew":"Established","duration":"Freehold","paon":"IVY COTTAGE","saon":"","street":"","locality":"CHERITON BISHOP","townOrCity":"EXETER","district":"MID DEVON","county":"DEVON","ppdCategoryType":"Standard","recordStatus":"Addition","latitude":50.722773,"longitude":-3.745798,"postcodeStart":"EX6 6","postcode":["EX6","6JE"]}
{"price":57850,"dateOfTransfer":"2000-09-08T00:00:00","postcodeFull":"EX6 6QE","propertyType":"Detached","oldOrNew":"Established","duration":"Leasehold","paon":"CLIFFORD BRIDGE PARK","saon":"13","street":"","locality":"DREWSTEIGNTON","townOrCity":"EXETER","district":"TEIGNBRIDGE","county":"DEVON","ppdCategoryType":"Standard","recordStatus":"Addition","latitude":50.694007,"longitude":-3.728078,"postcodeStart":"EX6 6","postcode":["EX6","6QE"]}
{"price":81000,"dateOfTransfer":"2000-07-03T00:00:00","postcodeFull":"EX6 6JP","propertyType":"Detached","oldOrNew":"Established","duration":"Freehold","paon":"21","saon":"","street":"HESCANE PARK","locality":"CHERITON BISHOP","townOrCity":"EXETER","district":"MID DEVON","county":"DEVON","ppdCategoryType":"Standard","recordStatus":"Addition","latitude":50.724279,"longitude":-3.738348,"postcodeStart":"EX6 6","postcode":["EX6","6JP"]}
{"price":92000,"dateOfTransfer":"2000-04-18T00:00:00","postcodeFull":"EX6 6HZ","propertyType":"Detached","oldOrNew":"Established","duration":"Freehold","paon":"31","saon":"","street":"GLEBELANDS","locality":"CHERITON BISHOP","townOrCity":"EXETER","district":"MID DEVON","county":"DEVON","ppdCategoryType":"Standard","recordStatus":"Addition","latitude":50.724748,"longitude":-3.740094,"postcodeStart":"EX6 6","postcode":["EX6","6HZ"]}
{"price":128000,"dateOfTransfer":"2000-05-25T00:00:00","postcodeFull":"EX6 6JR","propertyType":"Detached","oldOrNew":"Established","duration":"Freehold","paon":"5","saon":"","street":"CHESTNUT CLOSE","locality":"CHERITON BISHOP","townOrCity":"EXETER","district":"MID DEVON","county":"DEVON","ppdCategoryType":"Standard","recordStatus":"Addition","latitude":50.723968,"longitude":-3.741127,"postcodeStart":"EX6 6","postcode":["EX6","6JR"]}
{"price":40000,"dateOfTransfer":"2000-10-13T00:00:00","postcodeFull":"EX6 6QS","propertyType":"Terraced","oldOrNew":"Established","duration":"Freehold","paon":"3","saon":"","street":"NETHERTON HILL","locality":"DREWSTEIGNTON","townOrCity":"EXETER","district":"WEST DEVON","county":"DEVON","ppdCategoryType":"Standard","recordStatus":"Addition","latitude":50.704059,"longitude":-3.791965,"postcodeStart":"EX6 6","postcode":["EX6","6QS"]}
{"price":119950,"dateOfTransfer":"2000-03-24T00:00:00","postcodeFull":"EX6 6NA","propertyType":"Detached","oldOrNew":"Established","duration":"Freehold","paon":"2","saon":"","street":"STANBURYS ORCHARD","locality":"CROCKERNWELL","townOrCity":"EXETER","district":"MID DEVON","county":"DEVON","ppdCategoryType":"Standard","recordStatus":"Addition","latitude":50.71786,"longitude":-3.76804,"postcodeStart":"EX6 6","postcode":["EX6","6NA"]}
{"price":200000,"dateOfTransfer":"2000-04-07T00:00:00","postcodeFull":"EX6 6JB","propertyType":"Detached","oldOrNew":"Established","duration":"Freehold","paon":"PINDYHAYES","saon":"","street":"","locality":"CHERITON BISHOP","townOrCity":"EXETER","district":"MID DEVON","county":"DEVON","ppdCategoryType":"Standard","recordStatus":"Addition","latitude":50.728926,"longitude":-3.748719,"postcodeStart":"EX6 6","postcode":["EX6","6JB"]}
{"price":179000,"dateOfTransfer":"2000-10-20T00:00:00","postcodeFull":"EX6 6RS","propertyType":"Detached","oldOrNew":"Established","duration":"Freehold","paon":"5","saon":"","street":"MILLERS WAY","locality":"TEDBURN ST MARY","townOrCity":"EXETER","district":"TEIGNBRIDGE","county":"DEVON","ppdCategoryType":"Standard","recordStatus":"Addition","latitude":50.733585,"longitude":-3.678958,"postcodeStart":"EX6 6","postcode":["EX6","6RS"]}
{"price":269950,"dateOfTransfer":"2000-03-29T00:00:00","postcodeFull":"EX6 6BB","propertyType":"Detached","oldOrNew":"Established","duration":"Freehold","paon":"WELL PARK","saon":"","street":"","locality":"TEDBURN ST MARY","townOrCity":"EXETER","district":"MID DEVON","county":"DEVON","ppdCategoryType":"Standard","recordStatus":"Addition","latitude":50.738788,"longitude":-3.656624,"postcodeStart":"EX6 6","postcode":["EX6","6BB"]}
{"price":320000,"dateOfTransfer":"2000-02-29T00:00:00","postcodeFull":"EX6 6RB","propertyType":"Detached","oldOrNew":"Established","duration":"Freehold","paon":"WEST NETHERTON","saon":"","street":"","locality":"DREWSTEIGNTON","townOrCity":"EXETER","district":"WEST DEVON","county":"DEVON","ppdCategoryType":"Standard","recordStatus":"Addition","latitude":50.705733,"longitude":-3.79244,"postcodeStart":"EX6 6","postcode":["EX6","6RB"]}
{"price":69000,"dateOfTransfer":"2000-07-25T00:00:00","postcodeFull":"EX6 6JL","propertyType":"Terraced","oldOrNew":"Established","duration":"Freehold","paon":"HILLVIEW","saon":"2","street":"","locality":"CHERITON BISHOP","townOrCity":"EXETER","district":"MID DEVON","county":"DEVON","ppdCategoryType":"Standard","recordStatus":"Addition","latitude":50.725781,"longitude":-3.731092,"postcodeStart":"EX6 6","postcode":["EX6","6JL"]}
{"price":113000,"dateOfTransfer":"2000-06-19T00:00:00","postcodeFull":"EX6 6QR","propertyType":"Terraced","oldOrNew":"Established","duration":"Freehold","paon":"HILLMORHAYES","saon":"2","street":"","locality":"DREWSTEIGNTON","townOrCity":"EXETER","district":"WEST DEVON","county":"DEVON","ppdCategoryType":"Standard","recordStatus":"Addition","latitude":50.703457,"longitude":-3.792495,"postcodeStart":"EX6 6","postcode":["EX6","6QR"]}
{"price":245000,"dateOfTransfer":"2000-05-22T00:00:00","postcodeFull":"EX6 6AD","propertyType":"Detached","oldOrNew":"Established","duration":"Freehold","paon":"WHITE COTTAGE","saon":"","street":"","locality":"TEDBURN ST MARY","townOrCity":"EXETER","district":"TEIGNBRIDGE","county":"DEVON","ppdCategoryType":"Standard","recordStatus":"Addition","latitude":50.731715,"longitude":-3.671424,"postcodeStart":"EX6 6","postcode":["EX6","6AD"]}
{"price":120000,"dateOfTransfer":"2000-07-10T00:00:00","postcodeFull":"EX6 6QD","propertyType":"Detached","oldOrNew":"Established","duration":"Freehold","paon":"CLIFFORD CROSS COTTAGE","saon":"","street":"","locality":"DREWSTEIGNTON","townOrCity":"EXETER","district":"TEIGNBRIDGE","county":"DEVON","ppdCategoryType":"Standard","recordStatus":"Addition","latitude":50.695459,"longitude":-3.725314,"postcodeStart":"EX6 6","postcode":["EX6","6QD"]}
{"price":200000,"dateOfTransfer":"2000-04-28T00:00:00","postcodeFull":"EX6 6HD","propertyType":"Detached","oldOrNew":"Established","duration":"Freehold","paon":"TUDOR HOUSE","saon":"","street":"","locality":"CHERITON BISHOP","townOrCity":"EXETER","district":"MID DEVON","county":"DEVON","ppdCategoryType":"Standard","recordStatus":"Addition","latitude":50.731555,"longitude":-3.740102,"postcodeStart":"EX6 6","postcode":["EX6","6HD"]}
{"price":180000,"dateOfTransfer":"2000-02-01T00:00:00","postcodeFull":"EX6 6NT","propertyType":"Detached","oldOrNew":"Established","duration":"Freehold","paon":"1","saon":"","street":"SADDLERS CLOSE","locality":"CROCKERNWELL","townOrCity":"EXETER","district":"MID DEVON","county":"DEVON","ppdCategoryType":"Standard","recordStatus":"Addition","latitude":50.718308,"longitude":-3.766428,"postcodeStart":"EX6 6","postcode":["EX6","6NT"]}
{"price":84000,"dateOfTransfer":"2000-12-20T00:00:00","postcodeFull":"EX6 6AA","propertyType":"Semi-detached","oldOrNew":"Established","duration":"Freehold","paon":"29","saon":"","street":"SCHOOL LANE","locality":"TEDBURN ST MARY","townOrCity":"EXETER","district":"TEIGNBRIDGE","county":"DEVON","ppdCategoryType":"Standard","recordStatus":"Addition","latitude":50.733097,"longitude":-3.677838,"postcodeStart":"EX6 6","postcode":["EX6","6AA"]}
{"price":115000,"dateOfTransfer":"2000-06-19T00:00:00","postcodeFull":"EX6 6JH","propertyType":"Semi-detached","oldOrNew":"Established","duration":"Freehold","paon":"COPPER WALLS LODGE","saon":"","street":"","locality":"CHERITON BISHOP","townOrCity":"EXETER","district":"MID DEVON","county":"DEVON","ppdCategoryType":"Standard","recordStatus":"Addition","latitude":50.723473,"longitude":-3.738471,"postcodeStart":"EX6 6","postcode":["EX6","6JH"]}
{"price":137000,"dateOfTransfer":"2000-10-16T00:00:00","postcodeFull":"EX6 6RS","propertyType":"Detached","oldOrNew":"Established","duration":"Freehold","paon":"17","saon":"","street":"MILLERS WAY","locality":"TEDBURN ST MARY","townOrCity":"EXETER","district":"TEIGNBRIDGE","county":"DEVON","ppdCategoryType":"Standard","recordStatus":"Addition","latitude":50.733585,"longitude":-3.678958,"postcodeStart":"EX6 6","postcode":["EX6","6RS"]}
{"price":147000,"dateOfTransfer":"2000-11-14T00:00:00","postcodeFull":"EX6 6JP","propertyType":"Detached","oldOrNew":"Established","duration":"Freehold","paon":"23","saon":"","street":"HESCANE PARK","locality":"CHERITON BISHOP","townOrCity":"EXETER","district":"MID DEVON","county":"DEVON","ppdCategoryType":"Standard","recordStatus":"Addition","latitude":50.724279,"longitude":-3.738348,"postcodeStart":"EX6 6","postcode":["EX6","6JP"]}
