{"price":158000,"dateOfTransfer":"1995-04-28T00:00:00","postcodeFull":"GL19 3QA","propertyType":"Detached","oldOrNew":"Established","duration":"Freehold","paon":"FLORENCE COTTAGE","saon":"","street":"LEDBURY ROAD","locality":"STAUNTON","townOrCity":"GLOUCESTER","district":"FOREST OF DEAN","county":"GLOUCESTERSHIRE","ppdCategoryType":"Standard","recordStatus":"Addition","latitude":51.962606,"longitude":-2.307276,"postcodeStart":"GL19 3","postcode":["GL19","3QA"]}
{"price":48000,"dateOfTransfer":"1995-03-07T00:00:00","postcodeFull":"GL19 3SF","propertyType":"Semi-detached","oldOrNew":"Established","duration":"Freehold","paon":"5","saon":"","street":"PAULS WALK","locality":"HUNTLEY","townOrCity":"GLOUCESTER","district":"FOREST OF DEAN","county":"GLOUCESTERSHIRE","ppdCategoryType":"Standard","recordStatus":"Addition","latitude":51.873719,"longitude":-2.406385,"postcodeStart":"GL19 3","postcode":["GL19","3SF"]}
{"price":181000,"dateOfTransfer":"1995-08-24T00:00:00","postcodeFull":"GL19 3QA","propertyType":"Detached","oldOrNew":"Established","duration":"Freehold","paon":"LINDEN HOUSE","saon":"","street":"LEDBURY ROAD","locality":"STAUNTON","townOrCity":"GLOUCESTER","district":"FOREST OF DEAN","county":"GLOUCESTERSHIRE","ppdCategoryType":"Standard","recordStatus":"Addition","latitude":51.962606,"longitude":-2.307276,"postcodeStart":"GL19 3","postcode":["GL19","3QA"]}
{"price":40000,"dateOfTransfer":"1995-02-27T00:00:00","postcodeFull":"GL19 3RS","propertyType":"Semi-detached","oldOrNew":"Established","duration":"Freehold","paon":"6","saon":"","street":"JUBILEE PLACE","locality":"STAUNTON","townOrCity":"GLOUCESTER","district":"FOREST OF DEAN","county":"GLOUCESTERSHIRE","ppdCategoryType":"Standard","recordStatus":"Addition","latitude":51.958289,"longitude":-2.311379,"postcodeStart":"GL19 3","postcode":["GL19","3RS"]}
{"price":59000,"dateOfTransfer":"1995-07-07T00:00:00","postcodeFull":"GL19 3SA","propertyType":"Detached","oldOrNew":"Established","duration":"Freehold","paon":"5","saon":"","street":"BYFORDS CLOSE","locality":"HUNTLEY","townOrCity":"GLOUCESTER","district":"FOREST OF DEAN","county":"GLOUCESTERSHIRE","ppdCategoryType":"Standard","recordStatus":"Addition","latitude":51.873623,"longitude":-2.405426,"postcodeStart":"GL19 3","postcode":["GL19","3SA"]}
{"price":60000,"dateOfTransfer":"1995-09-28T00:00:00","postcodeFull":"GL19 3RX","propertyType":"Terraced","oldOrNew":"Established","duration":"Freehold","paon":"33","saon":"","street":"CULLINGHAM CLOSE","locality":"STAUNTON","townOrCity":"GLOUCESTER","district":"FOREST OF DEAN","county":"GLOUCESTERSHIRE","ppdCategoryType":"Standard","recordStatus":"Addition","latitude":51.960672,"longitude":-2.307685,"postcodeStart":"GL19 3","postcode":["GL19","3RX"]}
{"price":40000,"dateOfTransfer":"1995-04-13T00:00:00","postcodeFull":"GL19 3SD","propertyType":"Semi-detached","oldOrNew":"Established","duration":"Freehold","paon":"83","saon":"","street":"OAK WAY","locality":"HUNTLEY","townOrCity":"GLOUCESTER","district":"FOREST OF DEAN","county":"GLOUCESTERSHIRE","ppdCategoryType":"Standard","recordStatus":"Addition","latitude":51.872978,"longitude":-2.407454,"postcodeStart":"GL19 3","postcode":["GL19","3SD"]}
{"price":97000,"dateOfTransfer":"1995-10-27T00:00:00","postcodeFull":"GL19 3AX","propertyType":"Detached","oldOrNew":"New build","duration":"Freehold","paon":"12","saon":"","street":"LOWER ORCHARD","locality":"TIBBERTON","townOrCity":"GLOUCESTER","district":"FOREST OF DEAN","county":"GLOUCESTERSHIRE","ppdCategoryType":"Standard","recordStatus":"Addition","latitude":51.896331,"longitude":-2.344492,"postcodeStart":"GL19 3","postcode":["GL19","3AX"]}
{"price":48000,"dateOfTransfer":"1995-12-21T00:00:00","postcodeFull":"GL19 3RP","propertyType":"Semi-detached","oldOrNew":"Established","duration":"Freehold","paon":"2","saon":"","street":"COMPTON CLOSE","locality":"CORSE","townOrCity":"GLOUCESTER","district":"FOREST OF DEAN","county":"GLOUCESTERSHIRE","ppdCategoryType":"Standard","recordStatus":"Addition","latitude":51.958253,"longitude":-2.307813,"postcodeStart":"GL19 3","postcode":["GL19","3RP"]}
{"price":148000,"dateOfTransfer":"1995-10-06T00:00:00","postcodeFull":"GL19 3BP","propertyType":"Detached","oldOrNew":"Established","duration":"Freehold","paon":"3","saon":"","street":"CORSEND ROAD","locality":"HARTPURY","townOrCity":"GLOUCESTER","district":"FOREST OF DEAN","county":"GLOUCESTERSHIRE","ppdCategoryType":"Standard","recordStatus":"Addition","latitude":51.924557,"longitude":-2.297025,"postcodeStart":"GL19 3","postcode":["GL19","3BP"]}
{"price":55000,"dateOfTransfer":"1995-03-24T00:00:00","postcodeFull":"GL19 3RX","propertyType":"Terraced","oldOrNew":"Established","duration":"Freehold","paon":"21","saon":"","street":"CULLINGHAM CLOSE","locality":"STAUNTON","townOrCity":"GLOUCESTER","district":"FOREST OF DEAN","county":"GLOUCESTERSHIRE","ppdCategoryType":"Standard","recordStatus":"Addition","latitude":51.960672,"longitude":-2.307685,"postcodeStart":"GL19 3","postcode":["GL19","3RX"]}
{"price":59500,"dateOfTransfer":"1995-11-03T00:00:00","postcodeFull":"GL19 3RX","propertyType":"Terraced","oldOrNew":"Established","duration":"Freehold","paon":"13","saon":"","street":"CULLINGHAM CLOSE","locality":"STAUNTON","townOrCity":"GLOUCESTER","district":"FOREST OF DEAN","county":"GLOUCESTERSHIRE","ppdCategoryType":"Standard","recordStatus":"Addition","latitude":51.960672,"longitude":-2.307685,"postcodeStart":"GL19 3","postcode":["GL19","3RX"]}
{"price":107000,"dateOfTransfer":"1995-06-30T00:00:00","postcodeFull":"GL19 3AZ","propertyType":"Detached","oldOrNew":"Established","duration":"Freehold","paon":"LAWN COTTAGE","saon":"","street":"FULLERS LANE","locality":"HARTPURY","townOrCity":"GLOUCESTER","district":"TEWKESBURY","county":"GLOUCESTERSHIRE","ppdCategoryType":"Standard","recordStatus":"Addition","latitude":51.928627,"longitude":-2.290901,"postcodeStart":"GL19 3","postcode":["GL19","3AZ"]}
{"price":75000,"dateOfTransfer":"1995-01-26T00:00:00","postcodeFull":"GL19 3EA","propertyType":"Detached","oldOrNew":"Established","duration":"Freehold","paon":"SUNNYSIDE","saon":"","street":"MAIN ROAD","locality":"HUNTLEY","townOrCity":"GLOUCESTER","district":"FOREST OF DEAN","county":"GLOUCESTERSHIRE","ppdCategoryType":"Standard","recordStatus":"Addition","latitude":51.871471,"longitude":-2.39842,"postcodeStart":"GL19 3","postcode":["GL19","3EA"]}
{"price":97000,"dateOfTransfer":"1995-07-07T00:00:00","postcodeFull":"GL19 3EZ","propertyType":"Detached","oldOrNew":"Established","duration":"Freehold","paon":"BROOK VILLA","saon":"","street":"HINDERS LANE","locality":"HUNTLEY","townOrCity":"GLOUCESTER","district":"FOREST OF DEAN","county":"GLOUCESTERSHIRE","ppdCategoryType":"Standard","recordStatus":"Addition","latitude":51.87206,"longitude":-2.422943,"postcodeStart":"GL19 3","postcode":["GL19","3EZ"]}
{"price":66000,"dateOfTransfer":"1995-11-03T00:00:00","postcodeFull":"GL19 3EN","propertyType":"Detached","oldOrNew":"Established","duration":"Freehold","paon":"14","saon":"","street":"TIBBERTON LANE","locality":"HUNTLEY","townOrCity":"GLOUCESTER","district":"FOREST OF DEAN","county":"GLOUCESTERSHIRE","ppdCategoryType":"Standard","recordStatus":"Addition","latitude":51.874152,"longitude":-2.400753,"postcodeStart":"GL19 3","postcode":["GL19","3EN"]}
{"price":54750,"dateOfTransfer":"1995-12-01T00:00:00","postcodeFull":"GL19 3SD","propertyType":"Detached","oldOrNew":"Established","duration":"Freehold","paon":"17","saon":"","street":"OAK WAY","locality":"HUNTLEY","townOrCity":"GLOUCESTER","district":"FOREST OF DEAN","county":"GLOUCESTERSHIRE","ppdCategoryType":"Standard","recordStatus":"Addition","latitude":51.872978,"longitude":-2.407454,"postcodeStart":"GL19 3","postcode":["GL19","3SD"]}
{"price":86750,"dateOfTransfer":"1995-11-17T00:00:00","postcodeFull":"GL19 3AB","propertyType":"Semi-detached","oldOrNew":"Established","duration":"Freehold","paon":"LAKE END COTTAGE","saon":"","street":"HUNTLEY ROAD","locality":"TIBBERTON","townOrCity":"GLOUCESTER","district":"FOREST OF DEAN","county":"GLOUCESTERSHIRE","ppdCategoryType":"Standard","recordStatus":"Addition","latitude":51.886031,"longitude":-2.372106,"postcodeStart":"GL19 3","postcode":["GL19","3AB"]}
{"price":48500,"dateOfTransfer":"1995-03-16T00:00:00","postcodeFull":"GL19 3SD","propertyType":"Semi-detached","oldOrNew":"Established","duration":"Freehold","paon":"53","saon":"","street":"OAK WAY","locality":"HUNTLEY","townOrCity":"GLOUCESTER","district":"FOREST OF DEAN","county":"GLOUCESTERSHIRE","ppdCategoryType":"Standard","recordStatus":"Addition","latitude":51.872978,"longitude":-2.407454,"postcodeStart":"GL19 3","postcode":["GL19","3SD"]}
{"price":147000,"dateOfTransfer":"1995-11-17T00:00:00","postcodeFull":"GL19 3BT","propertyType":"Detached","oldOrNew":"Established","duration":"Freehold","paon":"MEADOWSIDE","saon":"","street":"GLOUCESTER ROAD","locality":"HARTPURY","townOrCity":"GLOUCESTER","district":"FOREST OF DEAN","county":"GLOUCESTERSHIRE","ppdCategoryType":"Standard","recordStatus":"Addition","latitude":51.927307,"longitude":-2.29383,"postcodeStart":"GL19 3","postcode":["GL19","3BT"]}
{"price":66500,"dateOfTransfer":"1995-05-19T00:00:00","postcodeFull":"GL19 3EW","propertyType":"Detached","oldOrNew":"Established","duration":"Freehold","paon":"11","saon":"","street":"WESTWICK ROAD","locality":"HUNTLEY","townOrCity":"GLOUCESTER","district":"FOREST OF DEAN","county":"GLOUCESTERSHIRE","ppdCategoryType":"Standard","recordStatus":"Addition","latitude":51.873519,"longitude":-2.401663,"postcodeStart":"GL19 3","postcode":["GL19","3EW"]}
{"price":80000,"dateOfTransfer":"1995-07-21T00:00:00","postcodeFull":"GL19 3JD","propertyType":"Semi-detached","oldOrNew":"Established","duration":"Freehold","paon":"SUNNYBANK","saon":"","street":"BRAND GREEN","locality":"REDMARLEY","townOrCity":"GLOUCESTER","district":"FOREST OF DEAN","county":"GLOUCESTERSHIRE","ppdCategoryType":"Standard","recordStatus":"Addition","latitude":51.952262,"longitude":-2.379681,"postcodeStart":"GL19 3","postcode":["GL19","3JD"]}
{"price":95000,"dateOfTransfer":"1995-11-24T00:00:00","postcodeFull":"GL19 3AW","propertyType":"Detached","oldOrNew":"Established","duration":"Freehold","paon":"THE OLD FORGE","saon":"","street":"","locality":"TAYNTON","townOrCity":"GLOUCESTER","district":"FOREST OF DEAN","county":"GLOUCESTERSHIRE","ppdCategoryType":"Standard","recordStatus":"Addition","latitude":51.893564,"longitude":-2.3977,"postcodeStart":"GL19 3","postcode":["GL19","3AW"]}
{"price":77000,"dateOfTransfer":"1995-04-28T00:00:00","postcodeFull":"GL19 3RF","propertyType":"Detached","oldOrNew":"Established","duration":"Freehold","paon":"BRIGHT PATCH","saon":"","street":"PRINCE CRESCENT","locality":"STAUNTON","townOrCity":"GLOUCESTER","district":"FOREST OF DEAN","county":"GLOUCESTERSHIRE","ppdCategoryType":"Standard","recordStatus":"Addition","latitude":51.958984,"longitude":-2.310012,"postcodeStart":"GL19 3","postcode":["GL19","3RF"]}
{"price":95000,"dateOfTransfer":"1995-01-11T00:00:00","postcodeFull":"GL19 3AX","propertyType":"Detached","oldOrNew":"New build","duration":"Freehold","paon":"5","saon":"","street":"LOWER ORCHARD","locality":"TIBBERTON","townOrCity":"GLOUCESTER","district":"FOREST OF DEAN","county":"GLOUCESTERSHIRE","ppdCategoryType":"Standard","recordStatus":"Addition","latitude":51.896331,"longitude":-2.344492,"postcodeStart":"GL19 3","postcode":["GL19","3AX"]}
{"price":57000,"dateOfTransfer":"1995-06-23T00:00:00","postcodeFull":"GL19 3SD","propertyType":"Semi-detached","oldOrNew":"Established","duration":"Freehold","paon":"33","saon":"","street":"OAK WAY","locality":"HUNTLEY","townOrCity":"GLOUCESTER","district":"FOREST OF DEAN","county":"GLOUCESTERSHIRE","ppdCategoryType":"Standard","recordStatus":"Addition","latitude":51.872978,"longitude":-2.407454,"postcodeStart":"GL19 3","postcode":["GL19","3SD"]}
{"price":57500,"dateOfTransfer":"1995-09-04T00:00:00","postcodeFull":"GL19 3JY","propertyType":"Semi-detached","oldOrNew":"Established","duration":"Freehold","paon":"THE POUND","saon":"1","street":"LEDBURY ROAD","locality":"REDMARLEY","townOrCity":"GLOUCESTER","district":"FOREST OF DEAN","county":"GLOUCESTERSHIRE","ppdCategoryType":"Standard","recordStatus":"Addition","latitude":51.986549,"longitude":-2.349011,"postcodeStart":"GL19 3","postcode":["GL19","3JY"]}
{"price":58000,"dateOfTransfer":"1995-01-04T00:00:00","postcodeFull":"GL19 3SE","propertyType":"Detached","oldOrNew":"Established","duration":"Freehold","paon":"3","saon":"","street":"NEWENT LANE","locality":"HUNTLEY","townOrCity":"GLOUCESTER","district":"FOREST OF DEAN","county":"GLOUCESTERSHIRE","ppdCategoryType":"Standard","recordStatus":"Addition","latitude":51.873071,"longitude":-2.409009,"postcodeStart":"GL19 3","postcode":["GL19","3SE"]}
{"price":92500,"dateOfTransfer":"1995-12-19T00:00:00","postcodeFull":"GL19 3EZ","propertyType":"Detached","oldOrNew":"Established","duration":"Freehold","paon":"BROOK COTTAGE","saon":"","street":"HINDERS LANE","locality":"HUNTLEY","townOrCity":"GLOUCESTER","district":"FOREST OF DEAN","county":"GLOUCESTERSHIRE","ppdCategoryType":"Standard","recordStatus":"Addition","latitude":51.87206,"longitude":-2.422943,"postcodeStart":"GL19 3","postcode":["GL19","3EZ"]}
{"price":12000,"dateOfTransfer":"1995-04-07T00:00:00","postcodeFull":"GL19 3EF","propertyType":"Detached","oldOrNew":"Established","duration":"Freehold","paon":"ROBINS NEST","saon":"","street":"","locality":"BIRDWOOD","townOrCity":"GLOUCESTER","district":"FOREST OF DEAN","county":"GLOUCESTERSHIRE","ppdCategoryType":"Standard","recordStatus":"Addition","latitude":51.867661,"longitude":-2.381728,"postcodeStart":"GL19 3","postcode":["GL19","3EF"]}
{"price":34000,"dateOfTransfer":"1995-03-07T00:00:00","postcodeFull":"GL19 3DZ","propertyType":"Detached","oldOrNew":"Established","duration":"Freehold","paon":"IVY COTTAGE","saon":"","street":"MAIN ROAD","locality":"HUNTLEY","townOrCity":"GLOUCESTER","district":"FOREST OF DEAN","county":"GLOUCESTERSHIRE","ppdCategoryType":"Standard","recordStatus":"Addition","latitude":51.871742,"longitude":-2.402271,"postcodeStart":"GL19 3","postcode":["GL19","3DZ"]}
{"price":56250,"dateOfTransfer":"1995-06-02T00:00:00","postcodeFull":"GL19 3EN","propertyType":"Semi-detached","oldOrNew":"Established","duration":"Freehold","paon":"24","saon":"","street":"TIBBERTON LANE","locality":"HUNTLEY","townOrCity":"GLOUCESTER","district":"FOREST OF DEAN","county":"GLOUCESTERSHIRE","ppdCategoryType":"Standard","recordStatus":"Addition","latitude":51.874152,"longitude":-2.400753,"postcodeStart":"GL19 3","postcode":["GL19","3EN"]}
{"price":68000,"dateOfTransfer":"1995-01-10T00:00:00","postcodeFull":"GL19 3RF","propertyType":"Semi-detached","oldOrNew":"Established","duration":"Freehold","paon":"PRINCES LODGE","saon":"","street":"PRINCE CRESCENT","locality":"STAUNTON","townOrCity":"GLOUCESTER","district":"FOREST OF DEAN","county":"GLOUCESTERSHIRE","ppdCategoryType":"Standard","recordStatus":"Addition","latitude":51.958984,"longitude":-2.310012,"postcodeStart":"GL19 3","postcode":["GL19","3RF"]}
{"price":200000,"dateOfTransfer":"1995-08-07T00:00:00","postcodeFull":"GL19 3HH","propertyType":"Detached","oldOrNew":"Established","duration":"Freehold","paon":"NORTHEND FARMHOUSE","saon":"","street":"NEWENT LANE","locality":"HUNTLEY","townOrCity":"GLOUCESTER","district":"FOREST OF DEAN","county":"GLOUCESTERSHIRE","ppdCategoryType":"Standard","recordStatus":"Addition","latitude":51.883254,"longitude":-2.407692,"postcodeStart":"GL19 3","postcode":["GL19","3HH"]}
{"price":79000,"dateOfTransfer":"1995-10-12T00:00:00","postcodeFull":"GL19 3EP","propertyType":"Detached","oldOrNew":"Established","duration":"Freehold","paon":"12","saon":"","street":"FROGMORE ROAD","locality":"HUNTLEY","townOrCity":"GLOUCESTER","district":"FOREST OF DEAN","county":"GLOUCESTERSHIRE","ppdCategoryType":"Standard","recordStatus":"Addition","latitude":51.874948,"longitude":-2.401763,"postcodeStart":"GL19 3","postcode":["GL19","3EP"]}
{"price":59750,"dateOfTransfer":"1995-08-14T00:00:00","postcodeFull":"GL19 3SE","propertyType":"Detached","oldOrNew":"Established","duration":"Freehold","paon":"15","saon":"","street":"NEWENT LANE","locality":"HUNTLEY","townOrCity":"GLOUCESTER","district":"FOREST OF DEAN","county":"GLOUCESTERSHIRE","ppdCategoryType":"Standard","recordStatus":"Addition","latitude":51.873071,"longitude":-2.409009,"postcodeStart":"GL19 3","postcode":["GL19","3SE"]}
{"price":159000,"dateOfTransfer":"1995-10-19T00:00:00","postcodeFull":"GL19 3JD","propertyType":"Detached","oldOrNew":"Established","duration":"Freehold","paon":"ST BOSWELLS COTTAGE","saon":"","street":"BRAND GREEN","locality":"REDMARLEY","townOrCity":"GLOUCESTER","district":"FOREST OF DEAN","county":"GLOUCESTERSHIRE","ppdCategoryType":"Standard","recordStatus":"Addition","latitude":51.952262,"longitude":-2.379681,"postcodeStart":"GL19 3","postcode":["GL19","3JD"]}
{"price":59900,"dateOfTransfer":"1995-06-02T00:00:00","postcodeFull":"GL19 3SA","propertyType":"Detached","oldOrNew":"Established","duration":"Freehold","paon":"3","saon":"","street":"BYFORDS CLOSE","locality":"HUNTLEY","townOrCity":"GLOUCESTER","district":"FOREST OF DEAN","county":"GLOUCESTERSHIRE","ppdCategoryType":"Standard","recordStatus":"Addition","latitude":51.873623,"longitude":-2.405426,"postcodeStart":"GL19 3","postcode":["GL19","3SA"]}
{"price":40500,"dateOfTransfer":"1995-09-01T00:00:00","postcodeFull":"GL19 3RS","propertyType":"Semi-detached","oldOrNew":"Established","duration":"Freehold","paon":"6","saon":"","street":"JUBILEE PLACE","locality":"STAUNTON","townOrCity":"GLOUCESTER","district":"FOREST OF DEAN","county":"GLOUCESTERSHIRE","ppdCategoryType":"Standard","recordStatus":"Addition","latitude":51.958289,"longitude":-2.311379,"postcodeStart":"GL19 3","postcode":["GL19","3RS"]}
{"price":78950,"dateOfTransfer":"1995-01-06T00:00:00","postcodeFull":"GL19 3RF","propertyType":"Semi-detached","oldOrNew":"Established","duration":"Freehold","paon":"KINGAROY","saon":"","street":"PRINCE CRESCENT","locality":"STAUNTON","townOrCity":"GLOUCESTER","district":"FOREST OF DEAN","county":"GLOUCESTERSHIRE","ppdCategoryType":"Standard","recordStatus":"Addition","latitude":51.958984,"longitude":-2.310012,"postcodeStart":"GL19 3","postcode":["GL19","3RF"]}
{"price":88000,"dateOfTransfer":"1995-03-31T00:00:00","postcodeFull":"GL19 3NF","propertyType":"Detached","oldOrNew":"Established","duration":"Freehold","paon":"GREENACRES","saon":"","street":"PHILLIPS LANE","locality":"REDMARLEY","townOrCity":"GLOUCESTER","district":"FOREST OF DEAN","county":"GLOUCESTERSHIRE","ppdCategoryType":"Standard","recordStatus":"Addition","latitude":51.979541,"longitude":-2.325413,"postcodeStart":"GL19 3","postcode":["GL19","3NF"]}
{"price":45000,"dateOfTransfer":"1995-02-28T00:00:00","postcodeFull":"GL19 3SD","propertyType":"Semi-detached","oldOrNew":"Established","duration":"Freehold","paon":"11","saon":"","street":"OAK WAY","locality":"HUNTLEY","townOrCity":"GLOUCESTER","district":"FOREST OF DEAN","county":"GLOUCESTERSHIRE","ppdCategoryType":"Standard","recordStatus":"Addition","latitude":51.872978,"longitude":-2.407454,"postcodeStart":"GL19 3","postcode":["GL19","3SD"]}
{"price":93000,"dateOfTransfer":"1995-02-27T00:00:00","postcodeFull":"GL19 3EF","propertyType":"Detached","oldOrNew":"Established","duration":"Freehold","paon":"POPLARS COTTAGE","saon":"","street":"","locality":"BIRDWOOD","townOrCity":"GLOUCESTER","district":"FOREST OF DEAN","county":"GLOUCESTERSHIRE","ppdCategoryType":"Standard","recordStatus":"Addition","latitude":51.867661,"longitude":-2.381728,"postcodeStart":"GL19 3","postcode":["GL19","3EF"]}
{"price":95000,"dateOfTransfer":"1995-09-25T00:00:00","postcodeFull":"GL19 3PL","propertyType":"Detached","oldOrNew":"Established","duration":"Freehold","paon":"HONEY POT COTTAGE","saon":"","street":"","locality":"PENDOCK","townOrCity":"GLOUCESTER","district":"MALVERN HILLS","county":"WORCESTERSHIRE","ppdCategoryType":"Standard","recordStatus":"Addition","latitude":51.992283,"longitude":-2.318212,"postcodeStart":"GL19 3","postcode":["GL19","3PL"]}
{"price":63000,"dateOfTransfer":"1995-08-11T00:00:00","postcodeFull":"GL19 3AT","propertyType":"Semi-detached","oldOrNew":"Established","duration":"Freehold","paon":"42","saon":"","street":"ORCHARD RISE","locality":"TIBBERTON","townOrCity":"GLOUCESTER","district":"FOREST OF DEAN","county":"GLOUCESTERSHIRE","ppdCategoryType":"Standard","recordStatus":"Addition","latitude":51.896158,"longitude":-2.347948,"postcodeStart":"GL19 3","postcode":["GL19","3AT"]}
{"price":68250,"dateOfTransfer":"1995-02-17T00:00:00","postcodeFull":"GL19 3EL","propertyType":"Detached","oldOrNew":"Established","duration":"Freehold","paon":"11","saon":"","street":"BYFORDS ROAD","locality":"HUNTLEY","townOrCity":"GLOUCESTER","district":"FOREST OF DEAN","county":"GLOUCESTERSHIRE","ppdCategoryType":"Standard","recordStatus":"Addition","latitude":51.874386,"longitude":-2.40581,"postcodeStart":"GL19 3","postcode":["GL19","3EL"]}
{"price":71000,"dateOfTransfer":"1995-03-27T00:00:00","postcodeFull":"GL19 3QY","propertyType":"Detached","oldOrNew":"New build","duration":"Freehold","paon":"1","saon":"","street":"HADFIELD CLOSE","locality":"STAUNTON","townOrCity":"GLOUCESTER","district":"FOREST OF DEAN","county":"GLOUCESTERSHIRE","ppdCategoryType":"Standard","recordStatus":"Addition","latitude":51.959682,"longitude":-2.307983,"postcodeStart":"GL19 3","postcode":["GL19","3QY"]}
{"price":101500,"dateOfTransfer":"1995-05-04T00:00:00","postcodeFull":"GL19 3AX","propertyType":"Detached","oldOrNew":"New build","duration":"Freehold","paon":"6","saon":"","street":"LOWER ORCHARD","locality":"TIBBERTON","townOrCity":"GLOUCESTER","district":"FOREST OF DEAN","county":"GLOUCESTERSHIRE","ppdCategoryType":"Standard","recordStatus":"Addition","latitude":51.896331,"longitude":-2.344492,"postcodeStart":"GL19 3","postcode":["GL19","3AX"]}
{"price":115000,"dateOfTransfer":"1995-10-02T00:00:00","postcodeFull":"GL19 3LB","propertyType":"Detached","oldOrNew":"Established","duration":"Freehold","paon":"BURY MILL","saon":"","street":"","locality":"REDMARLEY","townOrCity":"GLOUCESTER","district":"FOREST OF DEAN","county":"GLOUCESTERSHIRE","ppdCategoryType":"Standard","recordStatus":"Addition","latitude":51.992442,"longitude":-2.347484,"postcodeStart":"GL19 3","postcode":["GL19","3LB"]}
{"price":190000,"dateOfTransfer":"1995-09-15T00:00:00","postcodeFull":"GL19 3EH","propertyType":"Detached","oldOrNew":"Established","duration":"Freehold","paon":"SUNNYSIDE","saon":"","street":"","locality":"BIRDWOOD","townOrCity":"GLOUCESTER","district":"FOREST OF DEAN","county":"GLOUCESTERSHIRE","ppdCategoryType":"Standard","recordStatus":"Addition","latitude":51.870109,"longitude":-2.383506,"postcodeStart":"GL19 3","postcode":["GL19","3EH"]}
{"price":130000,"dateOfTransfer":"1995-02-28T00:00:00","postcodeFull":"GL19 3JE","propertyType":"Detached","oldOrNew":"Established","duration":"Freehold","paon":"TRINITY HOUSE","saon":"","street":"BRAND GREEN","locality":"REDMARLEY","townOrCity":"GLOUCESTER","district":"FOREST OF DEAN","county":"GLOUCESTERSHIRE","ppdCategoryType":"Standard","recordStatus":"Addition","latitude":51.949423,"longitude":-2.376442,"postcodeStart":"GL19 3","postcode":["GL19","3JE"]}
{"price":82500,"dateOfTransfer":"1995-09-18T00:00:00","postcodeFull":"GL19 3SJ","propertyType":"Detached","oldOrNew":"Established","duration":"Freehold","paon":"HARKAWAY","saon":"","street":"PARSONS LANE","locality":"REDMARLEY","townOrCity":"GLOUCESTER","district":"FOREST OF DEAN","county":"GLOUCESTERSHIRE","ppdCategoryType":"Standard","recordStatus":"Addition","latitude":51.979697,"longitude":-2.334037,"postcodeStart":"GL19 3","postcode":["GL19","3SJ"]}
{"price":52500,"dateOfTransfer":"1995-07-03T00:00:00","postcodeFull":"GL19 3RX","propertyType":"Terraced","oldOrNew":"Established","duration":"Freehold","paon":"19","saon":"","street":"CULLINGHAM CLOSE","locality":"STAUNTON","townOrCity":"GLOUCESTER","district":"FOREST OF DEAN","county":"GLOUCESTERSHIRE","ppdCategoryType":"Standard","recordStatus":"Addition","latitude":51.960672,"longitude":-2.307685,"postcodeStart":"GL19 3","postcode":["GL19","3RX"]}
{"price":165001,"dateOfTransfer":"1996-10-01T00:00:00","postcodeFull":"GL19 3NJ","propertyType":"Detached","oldOrNew":"Established","duration":"Freehold","paon":"WISTERIA COTTAGE","saon":"","street":"LEDBURY ROAD","locality":"REDMARLEY","townOrCity":"GLOUCESTER","district":"FOREST OF DEAN","county":"GLOUCESTERSHIRE","ppdCategoryType":"Standard","recordStatus":"Addition","latitude":51.984366,"longitude":-2.348341,"postcodeStart":"GL19 3","postcode":["GL19","3NJ"]}
{"price":126000,"dateOfTransfer":"1996-06-28T00:00:00","postcodeFull":"GL19 3DW","propertyType":"Detached","oldOrNew":"Established","duration":"Freehold","paon":"3","saon":"","street":"FOLEY RISE","locality":"HARTPURY","townOrCity":"GLOUCESTER","district":"FOREST OF DEAN","county":"GLOUCESTERSHIRE","ppdCategoryType":"Standard","recordStatus":"Addition","latitude":51.923112,"longitude":-2.292072,"postcodeStart":"GL19 3","postcode":["GL19","3DW"]}
{"price":180000,"dateOfTransfer":"1996-10-01T00:00:00","postcodeFull":"GL19 3AF","propertyType":"Detached","oldOrNew":"Established","duration":"Freehold","paon":"POUND COTTAGE","saon":"","street":"HUNTLEY ROAD","locality":"TIBBERTON","townOrCity":"GLOUCESTER","district":"FOREST OF DEAN","county":"GLOUCESTERSHIRE","ppdCategoryType":"Standard","recordStatus":"Addition","latitude":51.89407,"longitude":-2.354616,"postcodeStart":"GL19 3","postcode":["GL19","3AF"]}
{"price":65000,"dateOfTransfer":"1996-11-29T00:00:00","postcodeFull":"GL19 3ED","propertyType":"Detached","oldOrNew":"Established","duration":"Freehold","paon":"THE BAKEHOUSE","saon":"","street":"TITHE FARM LANE","locality":"BIRDWOOD","townOrCity":"GLOUCESTER","district":"FOREST OF DEAN","county":"GLOUCESTERSHIRE","ppdCategoryType":"Standard","recordStatus":"Addition","latitude":51.870242,"longitude":-2.389724,"postcodeStart":"GL19 3","postcode":["GL19","3ED"]}
{"price":106822,"dateOfTransfer":"1996-08-23T00:00:00","postcodeFull":"GL19 3NW","propertyType":"Detached","oldOrNew":"New build","duration":"Freehold","paon":"9","saon":"","street":"SOVEREIGN CHASE","locality":"STAUNTON","townOrCity":"GLOUCESTER","district":"FOREST OF DEAN","county":"GLOUCESTERSHIRE","ppdCategoryType":"Standard","recordStatus":"Addition","latitude":51.959985,"longitude":-2.305875,"postcodeStart":"GL19 3","postcode":["GL19","3NW"]}
{"price":50000,"dateOfTransfer":"1996-09-06T00:00:00","postcodeFull":"GL19 3RQ","propertyType":"Detached","oldOrNew":"Established","duration":"Freehold","paon":"LONG CORSE LODGE","saon":"","street":"GLOUCESTER ROAD","locality":"CORSE","townOrCity":"GLOUCESTER","district":"FOREST OF DEAN","county":"GLOUCESTERSHIRE","ppdCategoryType":"Standard","recordStatus":"Addition","latitude":51.955379,"longitude":-2.303356,"postcodeStart":"GL19 3","postcode":["GL19","3RQ"]}
{"price":112000,"dateOfTransfer":"1996-04-12T00:00:00","postcodeFull":"GL19 3JE","propertyType":"Detached","oldOrNew":"Established","duration":"Freehold","paon":"WOODHOUSE","saon":"","street":"BRAND GREEN","locality":"REDMARLEY","townOrCity":"GLOUCESTER","district":"FOREST OF DEAN","county":"GLOUCESTERSHIRE","ppdCategoryType":"Standard","recordStatus":"Addition","latitude":51.949423,"longitude":-2.376442,"postcodeStart":"GL19 3","postcode":["GL19","3JE"]}
{"price":59950,"dateOfTransfer":"1996-04-11T00:00:00","postcodeFull":"GL19 3DU","propertyType":"Detached","oldOrNew":"Established","duration":"Freehold","paon":"THE POPPIES","saon":"","street":"NORTH ROAD","locality":"HUNTLEY","townOrCity":"GLOUCESTER","district":"FOREST OF DEAN","county":"GLOUCESTERSHIRE","ppdCategoryType":"Standard","recordStatus":"Addition","latitude":51.873466,"longitude":-2.404045,"postcodeStart":"GL19 3","postcode":["GL19","3DU"]}
{"price":58500,"dateOfTransfer":"1996-11-15T00:00:00","postcodeFull":"GL19 3BP","propertyType":"Semi-detached","oldOrNew":"Established","duration":"Freehold","paon":"4","saon":"","street":"CORSEND VILLAS","locality":"HARTPURY","townOrCity":"GLOUCESTER","district":"FOREST OF DEAN","county":"GLOUCESTERSHIRE","ppdCategoryType":"Standard","recordStatus":"Addition","latitude":51.924557,"longitude":-2.297025,"postcodeStart":"GL19 3","postcode":["GL19","3BP"]}
{"price":40500,"dateOfTransfer":"1996-01-12T00:00:00","postcodeFull":"GL19 3RS","propertyType":"Terraced","oldOrNew":"Established","duration":"Freehold","paon":"23","saon":"","street":"JUBILEE PLACE","locality":"STAUNTON","townOrCity":"GLOUCESTER","district":"FOREST OF DEAN","county":"GLOUCESTERSHIRE","ppdCategoryType":"Standard","recordStatus":"Addition","latitude":51.958289,"longitude":-2.311379,"postcodeStart":"GL19 3","postcode":["GL19","3RS"]}
{"price":69500,"dateOfTransfer":"1996-01-12T00:00:00","postcodeFull":"GL19 3RP","propertyType":"Semi-detached","oldOrNew":"Established","duration":"Freehold","paon":"5","saon":"","street":"COMPTON CLOSE","locality":"CORSE","townOrCity":"GLOUCESTER","district":"FOREST OF DEAN","county":"GLOUCESTERSHIRE","ppdCategoryType":"Standard","recordStatus":"Addition","latitude":51.958253,"longitude":-2.307813,"postcodeStart":"GL19 3","postcode":["GL19","3RP"]}
{"price":119500,"dateOfTransfer":"1996-08-07T00:00:00","postcodeFull":"GL19 3NW","propertyType":"Detached","oldOrNew":"New build","duration":"Freehold","paon":"19","saon":"","street":"SOVEREIGN CHASE","locality":"STAUNTON","townOrCity":"GLOUCESTER","district":"FOREST OF DEAN","county":"GLOUCESTERSHIRE","ppdCategoryType":"Standard","recordStatus":"Addition","latitude":51.959985,"longitude":-2.305875,"postcodeStart":"GL19 3","postcode":["GL19","3NW"]}
{"price":83000,"dateOfTransfer":"1996-08-30T00:00:00","postcodeFull":"GL19 3JB","propertyType":"Detached","oldOrNew":"Established","duration":"Freehold","paon":"THE ORCHARDS","saon":"","street":"COMPTON GREEN","locality":"REDMARLEY","townOrCity":"GLOUCESTER","district":"FOREST OF DEAN","county":"GLOUCESTERSHIRE","ppdCategoryType":"Standard","recordStatus":"Addition","latitude":51.956028,"longitude":-2.385521,"postcodeStart":"GL19 3","postcode":["GL19","3JB"]}
{"price":153000,"dateOfTransfer":"1996-04-17T00:00:00","postcodeFull":"GL19 3JE","propertyType":"Detached","oldOrNew":"Established","duration":"Freehold","paon":"WALNUT HOUSE","saon":"","street":"BRAND GREEN","locality":"REDMARLEY","townOrCity":"GLOUCESTER","district":"FOREST OF DEAN","county":"GLOUCESTERSHIRE","ppdCategoryType":"Standard","recordStatus":"Addition","latitude":51.949423,"longitude":-2.376442,"postcodeStart":"GL19 3","postcode":["GL19","3JE"]}
{"price":59500,"dateOfTransfer":"1996-05-31T00:00:00","postcodeFull":"GL19 3SB","propertyType":"Detached","oldOrNew":"Established","duration":"Freehold","paon":"9","saon":"","street":"ELM GROVE","locality":"HUNTLEY","townOrCity":"GLOUCESTER","district":"FOREST OF DEAN","county":"GLOUCESTERSHIRE","ppdCategoryType":"Standard","recordStatus":"Addition","latitude":51.873662,"longitude":-2.407271,"postcodeStart":"GL19 3","postcode":["GL19","3SB"]}
{"price":172000,"dateOfTransfer":"1996-09-18T00:00:00","postcodeFull":"GL19 3RE","propertyType":"Detached","oldOrNew":"Established","duration":"Freehold","paon":"CHARTER COTTAGE","saon":"","street":"SCHOOL CRESCENT","locality":"CORSE","townOrCity":"GLOUCESTER","district":"FOREST OF DEAN","county":"GLOUCESTERSHIRE","ppdCategoryType":"Standard","recordStatus":"Addition","latitude":51.957733,"longitude":-2.300301,"postcodeStart":"GL19 3","postcode":["GL19","3RE"]}
{"price":116950,"dateOfTransfer":"1996-09-26T00:00:00","postcodeFull":"GL19 3NW","propertyType":"Detached","oldOrNew":"New build","duration":"Freehold","paon":"7","saon":"","street":"SOVEREIGN CHASE","locality":"STAUNTON","townOrCity":"GLOUCESTER","district":"FOREST OF DEAN","county":"GLOUCESTERSHIRE","ppdCategoryType":"Standard","recordStatus":"Addition","latitude":51.959985,"longitude":-2.305875,"postcodeStart":"GL19 3","postcode":["GL19","3NW"]}
{"price":150000,"dateOfTransfer":"1996-03-22T00:00:00","postcodeFull":"GL19 3RA","propertyType":"Detached","oldOrNew":"Established","duration":"Freehold","paon":"SPRING FIELD","saon":"","street":"GLOUCESTER ROAD","locality":"CORSE","townOrCity":"GLOUCESTER","district":"GLOUCESTER","county":"GLOUCESTERSHIRE","ppdCategoryType":"Standard","recordStatus":"Addition","latitude":51.960701,"longitude":-2.303464,"postcodeStart":"GL19 3","postcode":["GL19","3RA"]}
{"price":140000,"dateOfTransfer":"1996-05-10T00:00:00","postcodeFull":"GL19 3LR","propertyType":"Detached","oldOrNew":"Established","duration":"Freehold","paon":"MURRELLS END BARN","saon":"","street":"","locality":"REDMARLEY","townOrCity":"GLOUCESTER","district":"FOREST OF DEAN","county":"GLOUCESTERSHIRE","ppdCategoryType":"Standard","recordStatus":"Addition","latitude":51.968891,"longitude":-2.375004,"postcodeStart":"GL19 3","postcode":["GL19","3LR"]}
{"price":115950,"dateOfTransfer":"1996-05-16T00:00:00","postcodeFull":"GL19 3NW","propertyType":"Detached","oldOrNew":"New build","duration":"Freehold","paon":"1","saon":"","street":"SOVEREIGN CHASE","locality":"STAUNTON","townOrCity":"GLOUCESTER","district":"FOREST OF DEAN","county":"GLOUCESTERSHIRE","ppdCategoryType":"Standard","recordStatus":"Addition","latitude":51.959985,"longitude":-2.305875,"postcodeStart":"GL19 3","postcode":["GL19","3NW"]}
{"price":56500,"dateOfTransfer":"1996-04-04T00:00:00","postcodeFull":"GL19 3HW","propertyType":"Semi-detached","oldOrNew":"Established","duration":"Freehold","paon":"13","saon":"","street":"LAMBOURNE AVENUE","locality":"HUNTLEY","townOrCity":"GLOUCESTER","district":"FOREST OF DEAN","county":"GLOUCESTERSHIRE","ppdCategoryType":"Standard","recordStatus":"Addition","latitude":51.87322,"longitude":-2.399685,"postcodeStart":"GL19 3","postcode":["GL19","3HW"]}
{"price":46000,"dateOfTransfer":"1996-08-16T00:00:00","postcodeFull":"GL19 3RE","propertyType":"Detached","oldOrNew":"Established","duration":"Freehold","paon":"SEAHAVEN","saon":"","street":"SCHOOL CRESCENT","locality":"CORSE","townOrCity":"GLOUCESTER","district":"FOREST OF DEAN","county":"GLOUCESTERSHIRE","ppdCategoryType":"Standard","recordStatus":"Addition","latitude":51.957733,"longitude":-2.300301,"postcodeStart":"GL19 3","postcode":["GL19","3RE"]}
{"price":420000,"dateOfTransfer":"1996-11-29T00:00:00","postcodeFull":"GL19 3AP","propertyType":"Detached","oldOrNew":"Established","duration":"Freehold","paon":"TAYNTON HOUSE","saon":"","street":"","locality":"TAYNTON","townOrCity":"GLOUCESTER","district":"FOREST OF DEAN","county":"GLOUCESTERSHIRE","ppdCategoryType":"Standard","recordStatus":"Addition","latitude":51.894247,"longitude":-2.405422,"postcodeStart":"GL19 3","postcode":["GL19","3AP"]}
{"price":92500,"dateOfTransfer":"1996-03-29T00:00:00","postcodeFull":"GL19 3DW","propertyType":"Detached","oldOrNew":"Established","duration":"Freehold","paon":"6","saon":"","street":"FOLEY RISE","locality":"HARTPURY","townOrCity":"GLOUCESTER","district":"FOREST OF DEAN","county":"GLOUCESTERSHIRE","ppdCategoryType":"Standard","recordStatus":"Addition","latitude":51.923112,"longitude":-2.292072,"postcodeStart":"GL19 3","postcode":["GL19","3DW"]}
{"price":106700,"dateOfTransfer":"1996-06-21T00:00:00","postcodeFull":"GL19 3NW","propertyType":"Detached","oldOrNew":"New build","duration":"Freehold","paon":"12","saon":"","street":"SOVEREIGN CHASE","locality":"STAUNTON","townOrCity":"GLOUCESTER","district":"FOREST OF DEAN","county":"GLOUCESTERSHIRE","ppdCategoryType":"Standard","recordStatus":"Addition","latitude":51.959985,"longitude":-2.305875,"postcodeStart":"GL19 3","postcode":["GL19","3NW"]}
{"price":27500,"dateOfTransfer":"1996-02-02T00:00:00","postcodeFull":"GL19 3DW","propertyType":"Detached","oldOrNew":"Established","duration":"Freehold","paon":"4","saon":"","street":"FOLEY RISE","locality":"HARTPURY","townOrCity":"GLOUCESTER","district":"FOREST OF DEAN","county":"GLOUCESTERSHIRE","ppdCategoryType":"Standard","recordStatus":"Addition","latitude":51.923112,"longitude":-2.292072,"postcodeStart":"GL19 3","postcode":["GL19","3DW"]}
{"price":98950,"dateOfTransfer":"1996-07-10T00:00:00","postcodeFull":"GL19 3NW","propertyType":"Detached","oldOrNew":"New build","duration":"Freehold","paon":"21","saon":"","street":"SOVEREIGN CHASE","locality":"STAUNTON","townOrCity":"GLOUCESTER","district":"FOREST OF DEAN","county":"GLOUCESTERSHIRE","ppdCategoryType":"Standard","recordStatus":"Addition","latitude":51.959985,"longitude":-2.305875,"postcodeStart":"GL19 3","postcode":["GL19","3NW"]}
{"price":94500,"dateOfTransfer":"1996-06-19T00:00:00","postcodeFull":"GL19 3NW","propertyType":"Detached","oldOrNew":"New build","duration":"Freehold","paon":"6","saon":"","street":"SOVEREIGN CHASE","locality":"STAUNTON","townOrCity":"GLOUCESTER","district":"FOREST OF DEAN","county":"GLOUCESTERSHIRE","ppdCategoryType":"Standard","recordStatus":"Addition","latitude":51.959985,"longitude":-2.305875,"postcodeStart":"GL19 3","postcode":["GL19","3NW"]}
{"price":106950,"dateOfTransfer":"1996-06-28T00:00:00","postcodeFull":"GL19 3NW","propertyType":"Detached","oldOrNew":"New build","duration":"Freehold","paon":"11","saon":"","street":"SOVEREIGN CHASE","locality":"STAUNTON","townOrCity":"GLOUCESTER","district":"FOREST OF DEAN","county":"GLOUCESTERSHIRE","ppdCategoryType":"Standard","recordStatus":"Addition","latitude":51.959985,"longitude":-2.305875,"postcodeStart":"GL19 3","postcode":["GL19","3NW"]}
{"price":66300,"dateOfTransfer":"1996-03-07T00:00:00","postcodeFull":"GL19 3BT","propertyType":"Detached","oldOrNew":"Established","duration":"Freehold","paon":"TOAD HALL","saon":"","street":"GLOUCESTER ROAD","locality":"HARTPURY","townOrCity":"GLOUCESTER","district":"FOREST OF DEAN","county":"GLOUCESTERSHIRE","ppdCategoryType":"Standard","recordStatus":"Addition","latitude":51.927307,"longitude":-2.29383,"postcodeStart":"GL19 3","postcode":["GL19","3BT"]}
{"price":53000,"dateOfTransfer":"1996-03-29T00:00:00","postcodeFull":"GL19 3DF","propertyType":"Semi-detached","oldOrNew":"Established","duration":"Freehold","paon":"LAUGHTONS COTTAGE","saon":"","street":"MURRELLS END","locality":"HARTPURY","townOrCity":"GLOUCESTER","district":"FOREST OF DEAN","county":"GLOUCESTERSHIRE","ppdCategoryType":"Standard","recordStatus":"Addition","latitude":51.901389,"longitude":-2.306799,"postcodeStart":"GL19 3","postcode":["GL19","3DF"]}
{"price":49500,"dateOfTransfer":"1996-08-02T00:00:00","postcodeFull":"GL19 3SD","propertyType":"Semi-detached","oldOrNew":"Established","duration":"Freehold","paon":"55","saon":"","street":"OAK WAY","locality":"HUNTLEY","townOrCity":"GLOUCESTER","district":"FOREST OF DEAN","county":"GLOUCESTERSHIRE","ppdCategoryType":"Standard","recordStatus":"Addition","latitude":51.872978,"longitude":-2.407454,"postcodeStart":"GL19 3","postcode":["GL19","3SD"]}
{"price":94000,"dateOfTransfer":"1996-06-12T00:00:00","postcodeFull":"GL19 3DG","propertyType":"Semi-detached","oldOrNew":"Established","duration":"Freehold","paon":"CAVALIER COTTAGE","saon":"","street":"MOOREND","locality":"HARTPURY","townOrCity":"GLOUCESTER","district":"FOREST OF DEAN","county":"GLOUCESTERSHIRE","ppdCategoryType":"Standard","recordStatus":"Addition","latitude":51.906943,"longitude":-2.300689,"postcodeStart":"GL19 3","postcode":["GL19","3DG"]}
{"price":95000,"dateOfTransfer":"1996-02-02T00:00:00","postcodeFull":"GL19 3DQ","propertyType":"Detached","oldOrNew":"Established","duration":"Freehold","paon":"KILLARNEY HOUSE","saon":"","street":"HIAMS LANE","locality":"HARTPURY","townOrCity":"GLOUCESTER","district":"FOREST OF DEAN","county":"GLOUCESTERSHIRE","ppdCategoryType":"Standard","recordStatus":"Addition","latitude":51.9084,"longitude":-2.289723,"postcodeStart":"GL19 3","postcode":["GL19","3DQ"]}
{"price":49000,"dateOfTransfer":"1996-07-12T00:00:00","postcodeFull":"GL19 3RS","propertyType":"Semi-detached","oldOrNew":"Established","duration":"Freehold","paon":"8","saon":"","street":"JUBILEE PLACE","locality":"STAUNTON","townOrCity":"GLOUCESTER","district":"FOREST OF DEAN","county":"GLOUCESTERSHIRE","ppdCategoryType":"Standard","recordStatus":"Addition","latitude":51.958289,"longitude":-2.311379,"postcodeStart":"GL19 3","postcode":["GL19","3RS"]}
{"price":110000,"dateOfTransfer":"1996-09-02T00:00:00","postcodeFull":"GL19 3DW","propertyType":"Detached","oldOrNew":"Established","duration":"Freehold","paon":"12","saon":"","street":"FOLEY RISE","locality":"HARTPURY","townOrCity":"GLOUCESTER","district":"FOREST OF DEAN","county":"GLOUCESTERSHIRE","ppdCategoryType":"Standard","recordStatus":"Addition","latitude":51.923112,"longitude":-2.292072,"postcodeStart":"GL19 3","postcode":["GL19","3DW"]}
{"price":40000,"dateOfTransfer":"1996-04-18T00:00:00","postcodeFull":"GL19 3RS","propertyType":"Semi-detached","oldOrNew":"Established","duration":"Freehold","paon":"4","saon":"","street":"JUBILEE PLACE","locality":"STAUNTON","townOrCity":"GLOUCESTER","district":"FOREST OF DEAN","county":"GLOUCESTERSHIRE","ppdCategoryType":"Standard","recordStatus":"Addition","latitude":51.958289,"longitude":-2.311379,"postcodeStart":"GL19 3","postcode":["GL19","3RS"]}
{"price":64000,"dateOfTransfer":"1996-11-29T00:00:00","postcodeFull":"GL19 3SL","propertyType":"Detached","oldOrNew":"Established","duration":"Freehold","paon":"CHAPEL HOUSE","saon":"","street":"LOWBANDS","locality":"REDMARLEY","townOrCity":"GLOUCESTER","district":"FOREST OF DEAN","county":"GLOUCESTERSHIRE","ppdCategoryType":"Standard","recordStatus":"Addition","latitude":51.980316,"longitude":-2.331333,"postcodeStart":"GL19 3","postcode":["GL19","3SL"]}
{"price":74500,"dateOfTransfer":"1996-12-23T00:00:00","postcodeFull":"GL19 3BP","propertyType":"Semi-detached","oldOrNew":"Established","duration":"Freehold","paon":"10","saon":"","street":"CORSEND ROAD","locality":"HARTPURY","townOrCity":"GLOUCESTER","district":"FOREST OF DEAN","county":"GLOUCESTERSHIRE","ppdCategoryType":"Standard","recordStatus":"Addition","latitude":51.924557,"longitude":-2.297025,"postcodeStart":"GL19 3","postcode":["GL19","3BP"]}
{"price":109999,"dateOfTransfer":"1996-05-23T00:00:00","postcodeFull":"GL19 3BT","propertyType":"Detached","oldOrNew":"Established","duration":"Freehold","paon":"CANNING","saon":"","street":"GLOUCESTER ROAD","locality":"HARTPURY","townOrCity":"GLOUCESTER","district":"FOREST OF DEAN","county":"GLOUCESTERSHIRE","ppdCategoryType":"Standard","recordStatus":"Addition","latitude":51.927307,"longitude":-2.29383,"postcodeStart":"GL19 3","postcode":["GL19","3BT"]}
{"price":54525,"dateOfTransfer":"1996-02-23T00:00:00","postcodeFull":"GL19 3AT","propertyType":"Semi-detached","oldOrNew":"Established","duration":"Freehold","paon":"31","saon":"","street":"ORCHARD RISE","locality":"TIBBERTON","townOrCity":"GLOUCESTER","district":"FOREST OF DEAN","county":"GLOUCESTERSHIRE","ppdCategoryType":"Standard","recordStatus":"Addition","latitude":51.896158,"longitude":-2.347948,"postcodeStart":"GL19 3","postcode":["GL19","3AT"]}
{"price":110000,"dateOfTransfer":"1996-06-21T00:00:00","postcodeFull":"GL19 3DW","propertyType":"Detached","oldOrNew":"Established","duration":"Freehold","paon":"4","saon":"","street":"FOLEY RISE","locality":"HARTPURY","townOrCity":"GLOUCESTER","district":"FOREST OF DEAN","county":"GLOUCESTERSHIRE","ppdCategoryType":"Standard","recordStatus":"Addition","latitude":51.923112,"longitude":-2.292072,"postcodeStart":"GL19 3","postcode":["GL19","3DW"]}
{"price":56500,"dateOfTransfer":"1996-09-06T00:00:00","postcodeFull":"GL19 3AT","propertyType":"Semi-detached","oldOrNew":"Established","duration":"Freehold","paon":"38","saon":"","street":"ORCHARD RISE","locality":"TIBBERTON","townOrCity":"GLOUCESTER","district":"FOREST OF DEAN","county":"GLOUCESTERSHIRE","ppdCategoryType":"Standard","recordStatus":"Addition","latitude":51.896158,"longitude":-2.347948,"postcodeStart":"GL19 3","postcode":["GL19","3AT"]}
{"price":56000,"dateOfTransfer":"1996-12-13T00:00:00","postcodeFull":"GL19 3SD","propertyType":"Semi-detached","oldOrNew":"Established","duration":"Freehold","paon":"47","saon":"","street":"OAK WAY","locality":"HUNTLEY","townOrCity":"GLOUCESTER","district":"FOREST OF DEAN","county":"GLOUCESTERSHIRE","ppdCategoryType":"Standard","recordStatus":"Addition","latitude":51.872978,"longitude":-2.407454,"postcodeStart":"GL19 3","postcode":["GL19","3SD"]}
{"price":50000,"dateOfTransfer":"1996-10-07T00:00:00","postcodeFull":"GL19 3EL","propertyType":"Detached","oldOrNew":"Established","duration":"Freehold","paon":"21","saon":"","street":"BYFORDS ROAD","locality":"HUNTLEY","townOrCity":"GLOUCESTER","district":"FOREST OF DEAN","county":"GLOUCESTERSHIRE","ppdCategoryType":"Standard","recordStatus":"Addition","latitude":51.874386,"longitude":-2.40581,"postcodeStart":"GL19 3","postcode":["GL19","3EL"]}
{"price":90000,"dateOfTransfer":"1996-04-19T00:00:00","postcodeFull":"GL19 3EF","propertyType":"Detached","oldOrNew":"Established","duration":"Freehold","paon":"SCATTER MILL","saon":"","street":"","locality":"BIRDWOOD","townOrCity":"GLOUCESTER","district":"FOREST OF DEAN","county":"GLOUCESTERSHIRE","ppdCategoryType":"Standard","recordStatus":"Addition","latitude":51.867661,"longitude":-2.381728,"postcodeStart":"GL19 3","postcode":["GL19","3EF"]}
{"price":128000,"dateOfTransfer":"1996-04-29T00:00:00","postcodeFull":"GL19 3SL","propertyType":"Detached","oldOrNew":"Established","duration":"Freehold","paon":"THE OLD STORES","saon":"","street":"LOWBANDS","locality":"REDMARLEY","townOrCity":"GLOUCESTER","district":"FOREST OF DEAN","county":"GLOUCESTERSHIRE","ppdCategoryType":"Standard","recordStatus":"Addition","latitude":51.980316,"longitude":-2.331333,"postcodeStart":"GL19 3","postcode":["GL19","3SL"]}
{"price":187000,"dateOfTransfer":"1996-11-29T00:00:00","postcodeFull":"GL19 3SJ","propertyType":"Detached","oldOrNew":"Established","duration":"Freehold","paon":"HEATHERBANK","saon":"","street":"PARSONS LANE","locality":"REDMARLEY","townOrCity":"GLOUCESTER","district":"FOREST OF DEAN","county":"GLOUCESTERSHIRE","ppdCategoryType":"Standard","recordStatus":"Addition","latitude":51.979697,"longitude":-2.334037,"postcodeStart":"GL19 3","postcode":["GL19","3SJ"]}
{"price":47750,"dateOfTransfer":"1996-09-20T00:00:00","postcodeFull":"GL19 3HN","propertyType":"Detached","oldOrNew":"Established","duration":"Freehold","paon":"11","saon":"","street":"NEWTON CLOSE","locality":"HUNTLEY","townOrCity":"GLOUCESTER","district":"FOREST OF DEAN","county":"GLOUCESTERSHIRE","ppdCategoryType":"Standard","recordStatus":"Addition","latitude":51.873289,"longitude":-2.400586,"postcodeStart":"GL19 3","postcode":["GL19","3HN"]}
{"price":85000,"dateOfTransfer":"1996-06-21T00:00:00","postcodeFull":"GL19 3RE","propertyType":"Detached","oldOrNew":"Established","duration":"Freehold","paon":"FREEDOM COTTAGE","saon":"","street":"SCHOOL CRESCENT","locality":"CORSE","townOrCity":"GLOUCESTER","district":"FOREST OF DEAN","county":"GLOUCESTERSHIRE","ppdCategoryType":"Standard","recordStatus":"Addition","latitude":51.957733,"longitude":-2.300301,"postcodeStart":"GL19 3","postcode":["GL19","3RE"]}
{"price":88000,"dateOfTransfer":"1996-06-26T00:00:00","postcodeFull":"GL19 3JS","propertyType":"Detached","oldOrNew":"Established","duration":"Freehold","paon":"3","saon":"","street":"CAUSEWAY","locality":"REDMARLEY","townOrCity":"GLOUCESTER","district":"FOREST OF DEAN","county":"GLOUCESTERSHIRE","ppdCategoryType":"Standard","recordStatus":"Addition","latitude":51.980351,"longitude":-2.362096,"postcodeStart":"GL19 3","postcode":["GL19","3JS"]}
{"price":135000,"dateOfTransfer":"1996-02-13T00:00:00","postcodeFull":"GL19 3DA","propertyType":"Detached","oldOrNew":"Established","duration":"Freehold","paon":"THE PATCH HOUSE","saon":"","street":"ORIDGE STREET","locality":"CORSE","townOrCity":"GLOUCESTER","district":"FOREST OF DEAN","county":"GLOUCESTERSHIRE","ppdCategoryType":"Standard","recordStatus":"Addition","latitude":51.946452,"longitude":-2.313174,"postcodeStart":"GL19 3","postcode":["GL19","3DA"]}
{"price":98000,"dateOfTransfer":"1996-12-17T00:00:00","postcodeFull":"GL19 3RU","propertyType":"Detached","oldOrNew":"Established","duration":"Freehold","paon":"2","saon":"","street":"CHARTIST PIECE","locality":"STAUNTON","townOrCity":"GLOUCESTER","district":"FOREST OF DEAN","county":"GLOUCESTERSHIRE","ppdCategoryType":"Standard","recordStatus":"Addition","latitude":51.96027,"longitude":-2.306867,"postcodeStart":"GL19 3","postcode":["GL19","3RU"]}
{"price":130000,"dateOfTransfer":"1996-09-27T00:00:00","postcodeFull":"GL19 3RD","propertyType":"Detached","oldOrNew":"Established","duration":"Freehold","paon":"SILVER BIRCHES","saon":"","street":"GLOUCESTER ROAD","locality":"CORSE","townOrCity":"GLOUCESTER","district":"FOREST OF DEAN","county":"GLOUCESTERSHIRE","ppdCategoryType":"Standard","recordStatus":"Addition","latitude":51.958459,"longitude":-2.304846,"postcodeStart":"GL19 3","postcode":["GL19","3RD"]}
{"price":59950,"dateOfTransfer":"1996-05-24T00:00:00","postcodeFull":"GL19 3AL","propertyType":"Semi-detached","oldOrNew":"Established","duration":"Freehold","paon":"1","saon":"","street":"WYNFORD VILLAS","locality":"TAYNTON","townOrCity":"GLOUCESTER","district":"FOREST OF DEAN","county":"GLOUCESTERSHIRE","ppdCategoryType":"Standard","recordStatus":"Addition","latitude":51.900681,"longitude":-2.365904,"postcodeStart":"GL19 3","postcode":["GL19","3AL"]}
{"price":176500,"dateOfTransfer":"1996-08-05T00:00:00","postcodeFull":"GL19 3BN","propertyType":"Detached","oldOrNew":"Established","duration":"Freehold","paon":"THE WHITE COTTAGE","saon":"","street":"BROAD STREET","locality":"HARTPURY","townOrCity":"GLOUCESTER","district":"FOREST OF DEAN","county":"GLOUCESTERSHIRE","ppdCategoryType":"Standard","recordStatus":"Addition","latitude":51.92346,"longitude":-2.289748,"postcodeStart":"GL19 3","postcode":["GL19","3BN"]}
{"price":134250,"dateOfTransfer":"1996-11-22T00:00:00","postcodeFull":"GL19 3RE","propertyType":"Detached","oldOrNew":"Established","duration":"Freehold","paon":"FAIRLAWNS","saon":"","street":"SCHOOL CRESCENT","locality":"CORSE","townOrCity":"GLOUCESTER","district":"FOREST OF DEAN","county":"GLOUCESTERSHIRE","ppdCategoryType":"Standard","recordStatus":"Addition","latitude":51.957733,"longitude":-2.300301,"postcodeStart":"GL19 3","postcode":["GL19","3RE"]}
{"price":190000,"dateOfTransfer":"1996-04-12T00:00:00","postcodeFull":"GL19 3AE","propertyType":"Detached","oldOrNew":"New build","duration":"Freehold","paon":"BIRDSEND FARMHOUSE","saon":"","street":"HUNTLEY ROAD","locality":"TIBBERTON","townOrCity":"GLOUCESTER","district":"FOREST OF DEAN","county":"GLOUCESTERSHIRE","ppdCategoryType":"Standard","recordStatus":"Addition","latitude":51.888518,"longitude":-2.353382,"postcodeStart":"GL19 3","postcode":["GL19","3AE"]}
{"price":73000,"dateOfTransfer":"1996-03-05T00:00:00","postcodeFull":"GL19 3ER","propertyType":"Detached","oldOrNew":"Established","duration":"Freehold","paon":"6","saon":"","street":"SUNSET PLACE","locality":"HUNTLEY","townOrCity":"GLOUCESTER","district":"FOREST OF DEAN","county":"GLOUCESTERSHIRE","ppdCategoryType":"Standard","recordStatus":"Addition","latitude":51.873561,"longitude":-2.402506,"postcodeStart":"GL19 3","postcode":["GL19","3ER"]}
{"price":111250,"dateOfTransfer":"1996-03-28T00:00:00","postcodeFull":"GL19 3NW","propertyType":"Detached","oldOrNew":"New build","duration":"Freehold","paon":"2","saon":"","street":"SOVEREIGN CHASE","locality":"STAUNTON","townOrCity":"GLOUCESTER","district":"FOREST OF DEAN","county":"GLOUCESTERSHIRE","ppdCategoryType":"Standard","recordStatus":"Addition","latitude":51.959985,"longitude":-2.305875,"postcodeStart":"GL19 3","postcode":["GL19","3NW"]}
{"price":110500,"dateOfTransfer":"1996-05-10T00:00:00","postcodeFull":"GL19 3NW","propertyType":"Detached","oldOrNew":"New build","duration":"Freehold","paon":"10","saon":"","street":"SOVEREIGN CHASE","locality":"STAUNTON","townOrCity":"GLOUCESTER","district":"FOREST OF DEAN","county":"GLOUCESTERSHIRE","ppdCategoryType":"Standard","recordStatus":"Addition","latitude":51.959985,"longitude":-2.305875,"postcodeStart":"GL19 3","postcode":["GL19","3NW"]}
{"price":48500,"dateOfTransfer":"1996-02-23T00:00:00","postcodeFull":"GL19 3SD","propertyType":"Semi-detached","oldOrNew":"Established","duration":"Freehold","paon":"21","saon":"","street":"OAK WAY","locality":"HUNTLEY","townOrCity":"GLOUCESTER","district":"FOREST OF DEAN","county":"GLOUCESTERSHIRE","ppdCategoryType":"Standard","recordStatus":"Addition","latitude":51.872978,"longitude":-2.407454,"postcodeStart":"GL19 3","postcode":["GL19","3SD"]}
{"price":53000,"dateOfTransfer":"1996-05-01T00:00:00","postcodeFull":"GL19 3BP","propertyType":"Terraced","oldOrNew":"Established","duration":"Freehold","paon":"40","saon":"","street":"CORSEND ROAD","locality":"HARTPURY","townOrCity":"GLOUCESTER","district":"FOREST OF DEAN","county":"GLOUCESTERSHIRE","ppdCategoryType":"Standard","recordStatus":"Addition","latitude":51.924557,"longitude":-2.297025,"postcodeStart":"GL19 3","postcode":["GL19","3BP"]}
{"price":46500,"dateOfTransfer":"1996-04-18T00:00:00","postcodeFull":"GL19 3RG","propertyType":"Semi-detached","oldOrNew":"Established","duration":"Freehold","paon":"29","saon":"","street":"BOUNDARY PLACE","locality":"CORSE","townOrCity":"GLOUCESTER","district":"FOREST OF DEAN","county":"GLOUCESTERSHIRE","ppdCategoryType":"Standard","recordStatus":"Addition","latitude":51.958267,"longitude":-2.30912,"postcodeStart":"GL19 3","postcode":["GL19","3RG"]}
{"price":111950,"dateOfTransfer":"1996-08-29T00:00:00","postcodeFull":"GL19 3NW","propertyType":"Detached","oldOrNew":"New build","duration":"Freehold","paon":"15","saon":"","street":"SOVEREIGN CHASE","locality":"STAUNTON","townOrCity":"GLOUCESTER","district":"FOREST OF DEAN","county":"GLOUCESTERSHIRE","ppdCategoryType":"Standard","recordStatus":"Addition","latitude":51.959985,"longitude":-2.305875,"postcodeStart":"GL19 3","postcode":["GL19","3NW"]}
{"price":117000,"dateOfTransfer":"1996-10-03T00:00:00","postcodeFull":"GL19 3NW","propertyType":"Detached","oldOrNew":"New build","duration":"Freehold","paon":"3","saon":"","street":"SOVEREIGN CHASE","locality":"STAUNTON","townOrCity":"GLOUCESTER","district":"FOREST OF DEAN","county":"GLOUCESTERSHIRE","ppdCategoryType":"Standard","recordStatus":"Addition","latitude":51.959985,"longitude":-2.305875,"postcodeStart":"GL19 3","postcode":["GL19","3NW"]}
{"price":54000,"dateOfTransfer":"1996-10-11T00:00:00","postcodeFull":"GL19 3AT","propertyType":"Semi-detached","oldOrNew":"Established","duration":"Freehold","paon":"36","saon":"","street":"ORCHARD RISE","locality":"TIBBERTON","townOrCity":"GLOUCESTER","district":"FOREST OF DEAN","county":"GLOUCESTERSHIRE","ppdCategoryType":"Standard","recordStatus":"Addition","latitude":51.896158,"longitude":-2.347948,"postcodeStart":"GL19 3","postcode":["GL19","3AT"]}
{"price":58000,"dateOfTransfer":"1996-10-30T00:00:00","postcodeFull":"GL19 3QG","propertyType":"Semi-detached","oldOrNew":"Established","duration":"Freehold","paon":"2","saon":"","street":"MOAT LANE","locality":"STAUNTON","townOrCity":"GLOUCESTER","district":"FOREST OF DEAN","county":"GLOUCESTERSHIRE","ppdCategoryType":"Standard","recordStatus":"Addition","latitude":51.966972,"longitude":-2.308659,"postcodeStart":"GL19 3","postcode":["GL19","3QG"]}
{"price":112000,"dateOfTransfer":"1996-06-05T00:00:00","postcodeFull":"GL19 3NW","propertyType":"Detached","oldOrNew":"New build","duration":"Freehold","paon":"4","saon":"","street":"SOVEREIGN CHASE","locality":"STAUNTON","townOrCity":"GLOUCESTER","district":"FOREST OF DEAN","county":"GLOUCESTERSHIRE","ppdCategoryType":"Standard","recordStatus":"Addition","latitude":51.959985,"longitude":-2.305875,"postcodeStart":"GL19 3","postcode":["GL19","3NW"]}
{"price":228000,"dateOfTransfer":"1996-06-28T00:00:00","postcodeFull":"GL19 3LG","propertyType":"Detached","oldOrNew":"Established","duration":"Freehold","paon":"BARN COTTAGE","saon":"","street":"PENDOCK ROAD","locality":"REDMARLEY","townOrCity":"GLOUCESTER","district":"FOREST OF DEAN","county":"GLOUCESTERSHIRE","ppdCategoryType":"Standard","recordStatus":"Addition","latitude":51.990424,"longitude":-2.327225,"postcodeStart":"GL19 3","postcode":["GL19","3LG"]}
{"price":32500,"dateOfTransfer":"1996-01-16T00:00:00","postcodeFull":"GL19 3QF","propertyType":"Semi-detached","oldOrNew":"Established","duration":"Freehold","paon":"STAUNTON C E HALL","saon":"","street":"LEDBURY ROAD","locality":"STAUNTON","townOrCity":"GLOUCESTER","district":"FOREST OF DEAN","county":"GLOUCESTERSHIRE","ppdCategoryType":"Standard","recordStatus":"Addition","latitude":51.962981,"longitude":-2.31195,"postcodeStart":"GL19 3","postcode":["GL19","3QF"]}
{"price":108500,"dateOfTransfer":"1996-10-25T00:00:00","postcodeFull":"GL19 3NW","propertyType":"Detached","oldOrNew":"New build","duration":"Freehold","paon":"5","saon":"","street":"SOVEREIGN CHASE","locality":"STAUNTON","townOrCity":"GLOUCESTER","district":"FOREST OF DEAN","county":"GLOUCESTERSHIRE","ppdCategoryType":"Standard","recordStatus":"Addition","latitude":51.959985,"longitude":-2.305875,"postcodeStart":"GL19 3","postcode":["GL19","3NW"]}
{"price":59000,"dateOfTransfer":"1996-11-01T00:00:00","postcodeFull":"GL19 3SD","propertyType":"Semi-detached","oldOrNew":"Established","duration":"Freehold","paon":"22","saon":"","street":"OAK WAY","locality":"HUNTLEY","townOrCity":"GLOUCESTER","district":"FOREST OF DEAN","county":"GLOUCESTERSHIRE","ppdCategoryType":"Standard","recordStatus":"Addition","latitude":51.872978,"longitude":-2.407454,"postcodeStart":"GL19 3","postcode":["GL19","3SD"]}
{"price":50000,"dateOfTransfer":"1996-08-30T00:00:00","postcodeFull":"GL19 3SD","propertyType":"Semi-detached","oldOrNew":"Established","duration":"Freehold","paon":"81","saon":"","street":"OAK WAY","locality":"HUNTLEY","townOrCity":"GLOUCESTER","district":"FOREST OF DEAN","county":"GLOUCESTERSHIRE","ppdCategoryType":"Standard","recordStatus":"Addition","latitude":51.872978,"longitude":-2.407454,"postcodeStart":"GL19 3","postcode":["GL19","3SD"]}
{"price":59000,"dateOfTransfer":"1996-01-12T00:00:00","postcodeFull":"GL19 3NB","propertyType":"Semi-detached","oldOrNew":"Established","duration":"Freehold","paon":"2","saon":"","street":"PLAYLEY GREEN","locality":"REDMARLEY","townOrCity":"GLOUCESTER","district":"FOREST OF DEAN","county":"GLOUCESTERSHIRE","ppdCategoryType":"Standard","recordStatus":"Addition","latitude":51.981765,"longitude":-2.349399,"postcodeStart":"GL19 3","postcode":["GL19","3NB"]}
{"price":40000,"dateOfTransfer":"1996-06-28T00:00:00","postcodeFull":"GL19 3RX","propertyType":"Terraced","oldOrNew":"Established","duration":"Freehold","paon":"9","saon":"","street":"CULLINGHAM CLOSE","locality":"STAUNTON","townOrCity":"GLOUCESTER","district":"FOREST OF DEAN","county":"GLOUCESTERSHIRE","ppdCategoryType":"Standard","recordStatus":"Addition","latitude":51.960672,"longitude":-2.307685,"postcodeStart":"GL19 3","postcode":["GL19","3RX"]}
{"price":105000,"dateOfTransfer":"1996-05-10T00:00:00","postcodeFull":"GL19 3AN","propertyType":"Detached","oldOrNew":"Established","duration":"Freehold","paon":"THE STALLS","saon":"","street":"","locality":"TAYNTON","townOrCity":"GLOUCESTER","district":"FOREST OF DEAN","county":"GLOUCESTERSHIRE","ppdCategoryType":"Standard","recordStatus":"Addition","latitude":51.89694,"longitude":-2.382789,"postcodeStart":"GL19 3","postcode":["GL19","3AN"]}
{"price":53000,"dateOfTransfer":"1996-11-29T00:00:00","postcodeFull":"GL19 3SA","propertyType":"Semi-detached","oldOrNew":"Established","duration":"Freehold","paon":"22","saon":"","street":"BYFORDS CLOSE","locality":"HUNTLEY","townOrCity":"GLOUCESTER","district":"FOREST OF DEAN","county":"GLOUCESTERSHIRE","ppdCategoryType":"Standard","recordStatus":"Addition","latitude":51.873623,"longitude":-2.405426,"postcodeStart":"GL19 3","postcode":["GL19","3SA"]}
{"price":125000,"dateOfTransfer":"1996-08-01T00:00:00","postcodeFull":"GL19 3NF","propertyType":"Detached","oldOrNew":"Established","duration":"Freehold","paon":"GLENCOTT","saon":"","street":"PHILLIPS LANE","locality":"REDMARLEY","townOrCity":"GLOUCESTER","district":"FOREST OF DEAN","county":"GLOUCESTERSHIRE","ppdCategoryType":"Standard","recordStatus":"Addition","latitude":51.979541,"longitude":-2.325413,"postcodeStart":"GL19 3","postcode":["GL19","3NF"]}
{"price":135000,"dateOfTransfer":"1996-04-12T00:00:00","postcodeFull":"GL19 3NT","propertyType":"Detached","oldOrNew":"Established","duration":"Freehold","paon":"OLD POST OFFICE","saon":"","street":"MALVERN ROAD","locality":"STAUNTON","townOrCity":"GLOUCESTER","district":"FOREST OF DEAN","county":"GLOUCESTERSHIRE","ppdCategoryType":"Standard","recordStatus":"Addition","latitude":51.963443,"longitude":-2.303745,"postcodeStart":"GL19 3","postcode":["GL19","3NT"]}
{"price":113950,"dateOfTransfer":"1996-10-01T00:00:00","postcodeFull":"GL19 3NW","propertyType":"Detached","oldOrNew":"New build","duration":"Freehold","paon":"8","saon":"","street":"SOVEREIGN CHASE","locality":"STAUNTON","townOrCity":"GLOUCESTER","district":"FOREST OF DEAN","county":"GLOUCESTERSHIRE","ppdCategoryType":"Standard","recordStatus":"Addition","latitude":51.959985,"longitude":-2.305875,"postcodeStart":"GL19 3","postcode":["GL19","3NW"]}
{"price":47000,"dateOfTransfer":"1996-04-26T00:00:00","postcodeFull":"GL19 3RG","propertyType":"Semi-detached","oldOrNew":"Established","duration":"Freehold","paon":"27","saon":"","street":"BOUNDARY PLACE","locality":"CORSE","townOrCity":"GLOUCESTER","district":"FOREST OF DEAN","county":"GLOUCESTERSHIRE","ppdCategoryType":"Standard","recordStatus":"Addition","latitude":51.958267,"longitude":-2.30912,"postcodeStart":"GL19 3","postcode":["GL19","3RG"]}
{"price":86000,"dateOfTransfer":"1996-07-05T00:00:00","postcodeFull":"GL19 3EH","propertyType":"Detached","oldOrNew":"Established","duration":"Freehold","paon":"ROSELYN","saon":"","street":"","locality":"BIRDWOOD","townOrCity":"GLOUCESTER","district":"FOREST OF DEAN","county":"GLOUCESTERSHIRE","ppdCategoryType":"Standard","recordStatus":"Addition","latitude":51.870109,"longitude":-2.383506,"postcodeStart":"GL19 3","postcode":["GL19","3EH"]}
{"price":103000,"dateOfTransfer":"1996-07-17T00:00:00","postcodeFull":"GL19 3BT","propertyType":"Detached","oldOrNew":"Established","duration":"Freehold","paon":"LAVENDEL","saon":"","street":"GLOUCESTER ROAD","locality":"HARTPURY","townOrCity":"GLOUCESTER","district":"FOREST OF DEAN","county":"GLOUCESTERSHIRE","ppdCategoryType":"Standard","recordStatus":"Addition","latitude":51.927307,"longitude":-2.29383,"postcodeStart":"GL19 3","postcode":["GL19","3BT"]}
{"price":57000,"dateOfTransfer":"1996-03-29T00:00:00","postcodeFull":"GL19 3SA","propertyType":"Detached","oldOrNew":"Established","duration":"Freehold","paon":"7","saon":"","street":"BYFORDS CLOSE","locality":"HUNTLEY","townOrCity":"GLOUCESTER","district":"FOREST OF DEAN","county":"GLOUCESTERSHIRE","ppdCategoryType":"Standard","recordStatus":"Addition","latitude":51.873623,"longitude":-2.405426,"postcodeStart":"GL19 3","postcode":["GL19","3SA"]}
{"price":102000,"dateOfTransfer":"1996-01-12T00:00:00","postcodeFull":"GL19 3RU","propertyType":"Detached","oldOrNew":"Established","duration":"Freehold","paon":"6","saon":"","street":"CHARTIST PIECE","locality":"STAUNTON","townOrCity":"GLOUCESTER","district":"FOREST OF DEAN","county":"GLOUCESTERSHIRE","ppdCategoryType":"Standard","recordStatus":"Addition","latitude":51.96027,"longitude":-2.306867,"postcodeStart":"GL19 3","postcode":["GL19","3RU"]}
{"price":108000,"dateOfTransfer":"1996-08-23T00:00:00","postcodeFull":"GL19 3QY","propertyType":"Detached","oldOrNew":"Established","duration":"Freehold","paon":"1","saon":"","street":"HADFIELD CLOSE","locality":"STAUNTON","townOrCity":"GLOUCESTER","district":"FOREST OF DEAN","county":"GLOUCESTERSHIRE","ppdCategoryType":"Standard","recordStatus":"Addition","latitude":51.959682,"longitude":-2.307983,"postcodeStart":"GL19 3","postcode":["GL19","3QY"]}
{"price":93000,"dateOfTransfer":"1996-03-29T00:00:00","postcodeFull":"GL19 3NB","propertyType":"Detached","oldOrNew":"Established","duration":"Freehold","paon":"CHAPEL VILLA","saon":"","street":"PLAYLEY GREEN","locality":"REDMARLEY","townOrCity":"GLOUCESTER","district":"FOREST OF DEAN","county":"GLOUCESTERSHIRE","ppdCategoryType":"Standard","recordStatus":"Addition","latitude":51.981765,"longitude":-2.349399,"postcodeStart":"GL19 3","postcode":["GL19","3NB"]}
{"price":60000,"dateOfTransfer":"1996-06-21T00:00:00","postcodeFull":"GL19 3AT","propertyType":"Detached","oldOrNew":"Established","duration":"Freehold","paon":"39","saon":"","street":"ORCHARD RISE","locality":"TIBBERTON","townOrCity":"GLOUCESTER","district":"FOREST OF DEAN","county":"GLOUCESTERSHIRE","ppdCategoryType":"Standard","recordStatus":"Addition","latitude":51.896158,"longitude":-2.347948,"postcodeStart":"GL19 3","postcode":["GL19","3AT"]}
{"price":58500,"dateOfTransfer":"1996-04-01T00:00:00","postcodeFull":"GL19 3NB","propertyType":"Semi-detached","oldOrNew":"Established","duration":"Freehold","paon":"5","saon":"","street":"PLAYLEY GREEN","locality":"REDMARLEY","townOrCity":"GLOUCESTER","district":"FOREST OF DEAN","county":"GLOUCESTERSHIRE","ppdCategoryType":"Standard","recordStatus":"Addition","latitude":51.981765,"longitude":-2.349399,"postcodeStart":"GL19 3","postcode":["GL19","3NB"]}
{"price":155000,"dateOfTransfer":"1996-12-10T00:00:00","postcodeFull":"GL19 3DA","propertyType":"Detached","oldOrNew":"Established","duration":"Freehold","paon":"THE PATCH HOUSE","saon":"","street":"ORIDGE STREET","locality":"CORSE","townOrCity":"GLOUCESTER","district":"FOREST OF DEAN","county":"GLOUCESTERSHIRE","ppdCategoryType":"Standard","recordStatus":"Addition","latitude":51.946452,"longitude":-2.313174,"postcodeStart":"GL19 3","postcode":["GL19","3DA"]}
{"price":59500,"dateOfTransfer":"1996-05-17T00:00:00","postcodeFull":"GL19 3RX","propertyType":"Terraced","oldOrNew":"Established","duration":"Freehold","paon":"25","saon":"","street":"CULLINGHAM CLOSE","locality":"STAUNTON","townOrCity":"GLOUCESTER","district":"FOREST OF DEAN","county":"GLOUCESTERSHIRE","ppdCategoryType":"Standard","recordStatus":"Addition","latitude":51.960672,"longitude":-2.307685,"postcodeStart":"GL19 3","postcode":["GL19","3RX"]}
{"price":69500,"dateOfTransfer":"1996-11-12T00:00:00","postcodeFull":"GL19 3BW","propertyType":"Detached","oldOrNew":"Established","duration":"Freehold","paon":"MAITLANDS","saon":"","street":"GLOUCESTER ROAD","locality":"HARTPURY","townOrCity":"GLOUCESTER","district":"FOREST OF DEAN","county":"GLOUCESTERSHIRE","ppdCategoryType":"Standard","recordStatus":"Addition","latitude":51.922562,"longitude":-2.293043,"postcodeStart":"GL19 3","postcode":["GL19","3BW"]}
{"price":111000,"dateOfTransfer":"1996-11-07T00:00:00","postcodeFull":"GL19 3EA","propertyType":"Detached","oldOrNew":"Established","duration":"Freehold","paon":"NORTHWAYS","saon":"","street":"MAIN ROAD","locality":"HUNTLEY","townOrCity":"GLOUCESTER","district":"FOREST OF DEAN","county":"GLOUCESTERSHIRE","ppdCategoryType":"Standard","recordStatus":"Addition","latitude":51.871471,"longitude":-2.39842,"postcodeStart":"GL19 3","postcode":["GL19","3EA"]}
{"price":44000,"dateOfTransfer":"1996-04-12T00:00:00","postcodeFull":"GL19 3SD","propertyType":"Semi-detached","oldOrNew":"Established","duration":"Freehold","paon":"57","saon":"","street":"OAK WAY","locality":"HUNTLEY","townOrCity":"GLOUCESTER","district":"FOREST OF DEAN","county":"GLOUCESTERSHIRE","ppdCategoryType":"Standard","recordStatus":"Addition","latitude":51.872978,"longitude":-2.407454,"postcodeStart":"GL19 3","postcode":["GL19","3SD"]}
{"price":55000,"dateOfTransfer":"1996-12-06T00:00:00","postcodeFull":"GL19 3AT","propertyType":"Semi-detached","oldOrNew":"Established","duration":"Freehold","paon":"7","saon":"","street":"ORCHARD RISE","locality":"TIBBERTON","townOrCity":"GLOUCESTER","district":"FOREST OF DEAN","county":"GLOUCESTERSHIRE","ppdCategoryType":"Standard","recordStatus":"Addition","latitude":51.896158,"longitude":-2.347948,"postcodeStart":"GL19 3","postcode":["GL19","3AT"]}
{"price":63000,"dateOfTransfer":"1996-10-18T00:00:00","postcodeFull":"GL19 3BP","propertyType":"Terraced","oldOrNew":"Established","duration":"Freehold","paon":"34","saon":"","street":"CORSEND ROAD","locality":"HARTPURY","townOrCity":"GLOUCESTER","district":"FOREST OF DEAN","county":"GLOUCESTERSHIRE","ppdCategoryType":"Standard","recordStatus":"Addition","latitude":51.924557,"longitude":-2.297025,"postcodeStart":"GL19 3","postcode":["GL19","3BP"]}
{"price":108000,"dateOfTransfer":"1996-10-31T00:00:00","postcodeFull":"GL19 3DA","propertyType":"Detached","oldOrNew":"Established","duration":"Freehold","paon":"BUCKLAND","saon":"","street":"ORIDGE STREET","locality":"CORSE","townOrCity":"GLOUCESTER","district":"FOREST OF DEAN","county":"GLOUCESTERSHIRE","ppdCategoryType":"Standard","recordStatus":"Addition","latitude":51.946452,"longitude":-2.313174,"postcodeStart":"GL19 3","postcode":["GL19","3DA"]}
{"price":57000,"dateOfTransfer":"1996-10-31T00:00:00","postcodeFull":"GL19 3RX","propertyType":"Terraced","oldOrNew":"Established","duration":"Freehold","paon":"13","saon":"","street":"CULLINGHAM CLOSE","locality":"STAUNTON","townOrCity":"GLOUCESTER","district":"FOREST OF DEAN","county":"GLOUCESTERSHIRE","ppdCategoryType":"Standard","recordStatus":"Addition","latitude":51.960672,"longitude":-2.307685,"postcodeStart":"GL19 3","postcode":["GL19","3RX"]}
{"price":176000,"dateOfTransfer":"1996-10-31T00:00:00","postcodeFull":"GL19 3EZ","propertyType":"Detached","oldOrNew":"Established","duration":"Freehold","paon":"THE FIRS","saon":"","street":"HINDERS LANE","locality":"HUNTLEY","townOrCity":"GLOUCESTER","district":"FOREST OF DEAN","county":"GLOUCESTERSHIRE","ppdCategoryType":"Standard","recordStatus":"Addition","latitude":51.87206,"longitude":-2.422943,"postcodeStart":"GL19 3","postcode":["GL19","3EZ"]}
{"price":78250,"dateOfTransfer":"1996-10-25T00:00:00","postcodeFull":"GL19 3RF","propertyType":"Semi-detached","oldOrNew":"Established","duration":"Freehold","paon":"KINGAROY","saon":"","street":"PRINCE CRESCENT","locality":"STAUNTON","townOrCity":"GLOUCESTER","district":"FOREST OF DEAN","county":"GLOUCESTERSHIRE","ppdCategoryType":"Standard","recordStatus":"Addition","latitude":51.958984,"longitude":-2.310012,"postcodeStart":"GL19 3","postcode":["GL19","3RF"]}
{"price":109500,"dateOfTransfer":"1996-08-14T00:00:00","postcodeFull":"GL19 3NW","propertyType":"Detached","oldOrNew":"New build","duration":"Freehold","paon":"17","saon":"","street":"SOVEREIGN CHASE","locality":"STAUNTON","townOrCity":"GLOUCESTER","district":"FOREST OF DEAN","county":"GLOUCESTERSHIRE","ppdCategoryType":"Standard","recordStatus":"Addition","latitude":51.959985,"longitude":-2.305875,"postcodeStart":"GL19 3","postcode":["GL19","3NW"]}
{"price":44000,"dateOfTransfer":"1996-01-25T00:00:00","postcodeFull":"GL19 3RP","propertyType":"Terraced","oldOrNew":"Established","duration":"Freehold","paon":"26","saon":"","street":"COMPTON CLOSE","locality":"CORSE","townOrCity":"GLOUCESTER","district":"FOREST OF DEAN","county":"GLOUCESTERSHIRE","ppdCategoryType":"Standard","recordStatus":"Addition","latitude":51.958253,"longitude":-2.307813,"postcodeStart":"GL19 3","postcode":["GL19","3RP"]}
{"price":125000,"dateOfTransfer":"1996-10-18T00:00:00","postcodeFull":"GL19 3DW","propertyType":"Detached","oldOrNew":"Established","duration":"Freehold","paon":"14","saon":"","street":"FOLEY RISE","locality":"HARTPURY","townOrCity":"GLOUCESTER","district":"FOREST OF DEAN","county":"GLOUCESTERSHIRE","ppdCategoryType":"Standard","recordStatus":"Addition","latitude":51.923112,"longitude":-2.292072,"postcodeStart":"GL19 3","postcode":["GL19","3DW"]}
{"price":57000,"dateOfTransfer":"1996-07-19T00:00:00","postcodeFull":"GL19 3SD","propertyType":"Detached","oldOrNew":"Established","duration":"Freehold","paon":"25","saon":"","street":"OAK WAY","locality":"HUNTLEY","townOrCity":"GLOUCESTER","district":"FOREST OF DEAN","county":"GLOUCESTERSHIRE","ppdCategoryType":"Standard","recordStatus":"Addition","latitude":51.872978,"longitude":-2.407454,"postcodeStart":"GL19 3","postcode":["GL19","3SD"]}
{"price":102000,"dateOfTransfer":"1997-01-24T00:00:00","postcodeFull":"GL19 3EF","propertyType":"Detached","oldOrNew":"Established","duration":"Freehold","paon":"POPLARS COTTAGE","saon":"","street":"","locality":"BIRDWOOD","townOrCity":"GLOUCESTER","district":"FOREST OF DEAN","county":"GLOUCESTERSHIRE","ppdCategoryType":"Standard","recordStatus":"Addition","latitude":51.867661,"longitude":-2.381728,"postcodeStart":"GL19 3","postcode":["GL19","3EF"]}
{"price":63000,"dateOfTransfer":"1997-04-11T00:00:00","postcodeFull":"GL19 3SD","propertyType":"Terraced","oldOrNew":"Established","duration":"Freehold","paon":"20","saon":"","street":"OAK WAY","locality":"HUNTLEY","townOrCity":"GLOUCESTER","district":"FOREST OF DEAN","county":"GLOUCESTERSHIRE","ppdCategoryType":"Standard","recordStatus":"Addition","latitude":51.872978,"longitude":-2.407454,"postcodeStart":"GL19 3","postcode":["GL19","3SD"]}
{"price":118950,"dateOfTransfer":"1997-12-12T00:00:00","postcodeFull":"GL19 3QZ","propertyType":"Detached","oldOrNew":"New build","duration":"Freehold","paon":"6","saon":"","street":"COLLINS CLOSE","locality":"STAUNTON","townOrCity":"GLOUCESTER","district":"FOREST OF DEAN","county":"GLOUCESTERSHIRE","ppdCategoryType":"Standard","recordStatus":"Addition","latitude":51.959894,"longitude":-2.309189,"postcodeStart":"GL19 3","postcode":["GL19","3QZ"]}
{"price":59500,"dateOfTransfer":"1997-02-04T00:00:00","postcodeFull":"GL19 3SD","propertyType":"Detached","oldOrNew":"Established","duration":"Freehold","paon":"41","saon":"","street":"OAK WAY","locality":"HUNTLEY","townOrCity":"GLOUCESTER","district":"FOREST OF DEAN","county":"GLOUCESTERSHIRE","ppdCategoryType":"Standard","recordStatus":"Addition","latitude":51.872978,"longitude":-2.407454,"postcodeStart":"GL19 3","postcode":["GL19","3SD"]}
{"price":117950,"dateOfTransfer":"1997-09-30T00:00:00","postcodeFull":"GL19 3RZ","propertyType":"Detached","oldOrNew":"New build","duration":"Freehold","paon":"8","saon":"","street":"LOVETT CLOSE","locality":"STAUNTON","townOrCity":"GLOUCESTER","district":"FOREST OF DEAN","county":"GLOUCESTERSHIRE","ppdCategoryType":"Standard","recordStatus":"Addition","latitude":51.96075,"longitude":-2.308762,"postcodeStart":"GL19 3","postcode":["GL19","3RZ"]}
{"price":119000,"dateOfTransfer":"1997-08-15T00:00:00","postcodeFull":"GL19 3BS","propertyType":"Detached","oldOrNew":"Established","duration":"Freehold","paon":"3","saon":"","street":"BAKERS LANE","locality":"HARTPURY","townOrCity":"GLOUCESTER","district":"FOREST OF DEAN","county":"GLOUCESTERSHIRE","ppdCategoryType":"Standard","recordStatus":"Addition","latitude":51.920518,"longitude":-2.294207,"postcodeStart":"GL19 3","postcode":["GL19","3BS"]}
{"price":60000,"dateOfTransfer":"1997-10-20T00:00:00","postcodeFull":"GL19 3AT","propertyType":"Semi-detached","oldOrNew":"Established","duration":"Freehold","paon":"7","saon":"","street":"ORCHARD RISE","locality":"TIBBERTON","townOrCity":"GLOUCESTER","district":"FOREST OF DEAN","county":"GLOUCESTERSHIRE","ppdCategoryType":"Standard","recordStatus":"Addition","latitude":51.896158,"longitude":-2.347948,"postcodeStart":"GL19 3","postcode":["GL19","3AT"]}
{"price":119000,"dateOfTransfer":"1997-04-29T00:00:00","postcodeFull":"GL19 3JT","propertyType":"Detached","oldOrNew":"Established","duration":"Freehold","paon":"NARE HOUSE","saon":"","street":"THE GREEN","locality":"REDMARLEY","townOrCity":"GLOUCESTER","district":"FOREST OF DEAN","county":"GLOUCESTERSHIRE","ppdCategoryType":"Standard","recordStatus":"Addition","latitude":51.981321,"longitude":-2.362366,"postcodeStart":"GL19 3","postcode":["GL19","3JT"]}
{"price":119950,"dateOfTransfer":"1997-06-27T00:00:00","postcodeFull":"GL19 3RZ","propertyType":"Detached","oldOrNew":"New build","duration":"Freehold","paon":"10","saon":"","street":"LOVETT CLOSE","locality":"STAUNTON","townOrCity":"GLOUCESTER","district":"FOREST OF DEAN","county":"GLOUCESTERSHIRE","ppdCategoryType":"Standard","recordStatus":"Addition","latitude":51.96075,"longitude":-2.308762,"postcodeStart":"GL19 3","postcode":["GL19","3RZ"]}
{"price":115000,"dateOfTransfer":"1997-06-05T00:00:00","postcodeFull":"GL19 3EL","propertyType":"Detached","oldOrNew":"Established","duration":"Freehold","paon":"42","saon":"","street":"BYFORDS ROAD","locality":"HUNTLEY","townOrCity":"GLOUCESTER","district":"FOREST OF DEAN","county":"GLOUCESTERSHIRE","ppdCategoryType":"Standard","recordStatus":"Addition","latitude":51.874386,"longitude":-2.40581,"postcodeStart":"GL19 3","postcode":["GL19","3EL"]}
{"price":63500,"dateOfTransfer":"1997-02-20T00:00:00","postcodeFull":"GL19 3RF","propertyType":"Semi-detached","oldOrNew":"Established","duration":"Freehold","paon":"WOLVERTON","saon":"","street":"PRINCE CRESCENT","locality":"STAUNTON","townOrCity":"GLOUCESTER","district":"FOREST OF DEAN","county":"GLOUCESTERSHIRE","ppdCategoryType":"Standard","recordStatus":"Addition","latitude":51.958984,"longitude":-2.310012,"postcodeStart":"GL19 3","postcode":["GL19","3RF"]}
{"price":113950,"dateOfTransfer":"1997-11-20T00:00:00","postcodeFull":"GL19 3QZ","propertyType":"Detached","oldOrNew":"New build","duration":"Freehold","paon":"8","saon":"","street":"COLLINS CLOSE","locality":"STAUNTON","townOrCity":"GLOUCESTER","district":"FOREST OF DEAN","county":"GLOUCESTERSHIRE","ppdCategoryType":"Standard","recordStatus":"Addition","latitude":51.959894,"longitude":-2.309189,"postcodeStart":"GL19 3","postcode":["GL19","3QZ"]}
{"price":59500,"dateOfTransfer":"1997-12-22T00:00:00","postcodeFull":"GL19 3RP","propertyType":"Terraced","oldOrNew":"Established","duration":"Freehold","paon":"25","saon":"","street":"COMPTON CLOSE","locality":"CORSE","townOrCity":"GLOUCESTER","district":"FOREST OF DEAN","county":"GLOUCESTERSHIRE","ppdCategoryType":"Standard","recordStatus":"Addition","latitude":51.958253,"longitude":-2.307813,"postcodeStart":"GL19 3","postcode":["GL19","3RP"]}
{"price":75000,"dateOfTransfer":"1997-07-08T00:00:00","postcodeFull":"GL19 3HW","propertyType":"Detached","oldOrNew":"Established","duration":"Freehold","paon":"3","saon":"","street":"LAMBOURNE AVENUE","locality":"HUNTLEY","townOrCity":"GLOUCESTER","district":"FOREST OF DEAN","county":"GLOUCESTERSHIRE","ppdCategoryType":"Standard","recordStatus":"Addition","latitude":51.87322,"longitude":-2.399685,"postcodeStart":"GL19 3","postcode":["GL19","3HW"]}
{"price":110000,"dateOfTransfer":"1997-09-01T00:00:00","postcodeFull":"GL19 3RF","propertyType":"Detached","oldOrNew":"Established","duration":"Freehold","paon":"THE ORCHARDS","saon":"","street":"PRINCE CRESCENT","locality":"STAUNTON","townOrCity":"GLOUCESTER","district":"FOREST OF DEAN","county":"GLOUCESTERSHIRE","ppdCategoryType":"Standard","recordStatus":"Addition","latitude":51.958984,"longitude":-2.310012,"postcodeStart":"GL19 3","postcode":["GL19","3RF"]}
{"price":84000,"dateOfTransfer":"1997-05-16T00:00:00","postcodeFull":"GL19 3EL","propertyType":"Detached","oldOrNew":"Established","duration":"Freehold","paon":"2","saon":"","street":"BYFORDS ROAD","locality":"HUNTLEY","townOrCity":"GLOUCESTER","district":"FOREST OF DEAN","county":"GLOUCESTERSHIRE","ppdCategoryType":"Standard","recordStatus":"Addition","latitude":51.874386,"longitude":-2.40581,"postcodeStart":"GL19 3","postcode":["GL19","3EL"]}
{"price":113950,"dateOfTransfer":"1997-10-22T00:00:00","postcodeFull":"GL19 3RZ","propertyType":"Detached","oldOrNew":"New build","duration":"Freehold","paon":"9","saon":"","street":"LOVETT CLOSE","locality":"STAUNTON","townOrCity":"GLOUCESTER","district":"FOREST OF DEAN","county":"GLOUCESTERSHIRE","ppdCategoryType":"Standard","recordStatus":"Addition","latitude":51.96075,"longitude":-2.308762,"postcodeStart":"GL19 3","postcode":["GL19","3RZ"]}
{"price":55750,"dateOfTransfer":"1997-02-07T00:00:00","postcodeFull":"GL19 3HW","propertyType":"Semi-detached","oldOrNew":"Established","duration":"Freehold","paon":"19","saon":"","street":"LAMBOURNE AVENUE","locality":"HUNTLEY","townOrCity":"GLOUCESTER","district":"FOREST OF DEAN","county":"GLOUCESTERSHIRE","ppdCategoryType":"Standard","recordStatus":"Addition","latitude":51.87322,"longitude":-2.399685,"postcodeStart":"GL19 3","postcode":["GL19","3HW"]}
{"price":152000,"dateOfTransfer":"1997-09-05T00:00:00","postcodeFull":"GL19 3PW","propertyType":"Detached","oldOrNew":"Established","duration":"Freehold","paon":"THISTLEDOWN","saon":"","street":"","locality":"PENDOCK","townOrCity":"GLOUCESTER","district":"MALVERN HILLS","county":"WORCESTERSHIRE","ppdCategoryType":"Standard","recordStatus":"Addition","latitude":51.996781,"longitude":-2.310292,"postcodeStart":"GL19 3","postcode":["GL19","3PW"]}
{"price":122500,"dateOfTransfer":"1997-08-19T00:00:00","postcodeFull":"GL19 3JS","propertyType":"Detached","oldOrNew":"Established","duration":"Freehold","paon":"PEAR TREE COTTAGE","saon":"","street":"CAUSEWAY","locality":"REDMARLEY","townOrCity":"GLOUCESTER","district":"FOREST OF DEAN","county":"GLOUCESTERSHIRE","ppdCategoryType":"Standard","recordStatus":"Addition","latitude":51.980351,"longitude":-2.362096,"postcodeStart":"GL19 3","postcode":["GL19","3JS"]}
{"price":130000,"dateOfTransfer":"1997-11-13T00:00:00","postcodeFull":"GL19 3HS","propertyType":"Detached","oldOrNew":"Established","duration":"Freehold","paon":"MINNACK","saon":"","street":"","locality":"REDMARLEY","townOrCity":"GLOUCESTER","district":"FOREST OF DEAN","county":"GLOUCESTERSHIRE","ppdCategoryType":"Standard","recordStatus":"Addition","latitude":51.979183,"longitude":-2.361839,"postcodeStart":"GL19 3","postcode":["GL19","3HS"]}
{"price":59500,"dateOfTransfer":"1997-12-12T00:00:00","postcodeFull":"GL19 3RX","propertyType":"Terraced","oldOrNew":"Established","duration":"Freehold","paon":"21","saon":"","street":"CULLINGHAM CLOSE","locality":"STAUNTON","townOrCity":"GLOUCESTER","district":"FOREST OF DEAN","county":"GLOUCESTERSHIRE","ppdCategoryType":"Standard","recordStatus":"Addition","latitude":51.960672,"longitude":-2.307685,"postcodeStart":"GL19 3","postcode":["GL19","3RX"]}
{"price":12000,"dateOfTransfer":"1997-04-17T00:00:00","postcodeFull":"GL19 3BT","propertyType":"Semi-detached","oldOrNew":"Established","duration":"Freehold","paon":"HARTPURY COTTAGE","saon":"","street":"GLOUCESTER ROAD","locality":"HARTPURY","townOrCity":"GLOUCESTER","district":"FOREST OF DEAN","county":"GLOUCESTERSHIRE","ppdCategoryType":"Standard","recordStatus":"Addition","latitude":51.927307,"longitude":-2.29383,"postcodeStart":"GL19 3","postcode":["GL19","3BT"]}
{"price":113950,"dateOfTransfer":"1997-06-30T00:00:00","postcodeFull":"GL19 3RZ","propertyType":"Detached","oldOrNew":"New build","duration":"Freehold","paon":"4","saon":"","street":"LOVETT CLOSE","locality":"STAUNTON","townOrCity":"GLOUCESTER","district":"FOREST OF DEAN","county":"GLOUCESTERSHIRE","ppdCategoryType":"Standard","recordStatus":"Addition","latitude":51.96075,"longitude":-2.308762,"postcodeStart":"GL19 3","postcode":["GL19","3RZ"]}
{"price":47500,"dateOfTransfer":"1997-08-29T00:00:00","postcodeFull":"GL19 3RP","propertyType":"Terraced","oldOrNew":"Established","duration":"Freehold","paon":"30","saon":"","street":"COMPTON CLOSE","locality":"CORSE","townOrCity":"GLOUCESTER","district":"FOREST OF DEAN","county":"GLOUCESTERSHIRE","ppdCategoryType":"Standard","recordStatus":"Addition","latitude":51.958253,"longitude":-2.307813,"postcodeStart":"GL19 3","postcode":["GL19","3RP"]}
{"price":115000,"dateOfTransfer":"1997-05-16T00:00:00","postcodeFull":"GL19 3RT","propertyType":"Detached","oldOrNew":"New build","duration":"Freehold","paon":"4","saon":"","street":"CHARTIST WAY","locality":"STAUNTON","townOrCity":"GLOUCESTER","district":"FOREST OF DEAN","county":"GLOUCESTERSHIRE","ppdCategoryType":"Standard","recordStatus":"Addition","latitude":51.960262,"longitude":-2.309541,"postcodeStart":"GL19 3","postcode":["GL19","3RT"]}
{"price":52000,"dateOfTransfer":"1997-07-04T00:00:00","postcodeFull":"GL19 3SF","propertyType":"Semi-detached","oldOrNew":"Established","duration":"Freehold","paon":"7","saon":"","street":"PAULS WALK","locality":"HUNTLEY","townOrCity":"GLOUCESTER","district":"FOREST OF DEAN","county":"GLOUCESTERSHIRE","ppdCategoryType":"Standard","recordStatus":"Addition","latitude":51.873719,"longitude":-2.406385,"postcodeStart":"GL19 3","postcode":["GL19","3SF"]}
{"price":137000,"dateOfTransfer":"1997-11-25T00:00:00","postcodeFull":"GL19 3JQ","propertyType":"Detached","oldOrNew":"Established","duration":"Freehold","paon":"BANK HOUSE","saon":"","street":"HAWCROSS","locality":"REDMARLEY","townOrCity":"GLOUCESTER","district":"FOREST OF DEAN","county":"GLOUCESTERSHIRE","ppdCategoryType":"Standard","recordStatus":"Addition","latitude":51.97045,"longitude":-2.348931,"postcodeStart":"GL19 3","postcode":["GL19","3JQ"]}
{"price":115000,"dateOfTransfer":"1997-04-01T00:00:00","postcodeFull":"GL19 3PL","propertyType":"Detached","oldOrNew":"Established","duration":"Freehold","paon":"HONEY POT COTTAGE","saon":"","street":"","locality":"PENDOCK","townOrCity":"GLOUCESTER","district":"MALVERN HILLS","county":"WORCESTERSHIRE","ppdCategoryType":"Standard","recordStatus":"Addition","latitude":51.992283,"longitude":-2.318212,"postcodeStart":"GL19 3","postcode":["GL19","3PL"]}
{"price":112950,"dateOfTransfer":"1997-05-30T00:00:00","postcodeFull":"GL19 3RT","propertyType":"Detached","oldOrNew":"New build","duration":"Freehold","paon":"WINCHESTER LODGE","saon":"","street":"CHARTIST WAY","locality":"STAUNTON","townOrCity":"GLOUCESTER","district":"FOREST OF DEAN","county":"GLOUCESTERSHIRE","ppdCategoryType":"Standard","recordStatus":"Addition","latitude":51.960262,"longitude":-2.309541,"postcodeStart":"GL19 3","postcode":["GL19","3RT"]}
{"price":130000,"dateOfTransfer":"1997-03-24T00:00:00","postcodeFull":"GL19 3EB","propertyType":"Detached","oldOrNew":"Established","duration":"Freehold","paon":"IVY COTTAGE","saon":"","street":"SOLOMONS TUMP","locality":"HUNTLEY","townOrCity":"GLOUCESTER","district":"FOREST OF DEAN","county":"GLOUCESTERSHIRE","ppdCategoryType":"Standard","recordStatus":"Addition","latitude":51.872981,"longitude":-2.390648,"postcodeStart":"GL19 3","postcode":["GL19","3EB"]}
{"price":70000,"dateOfTransfer":"1997-02-27T00:00:00","postcodeFull":"GL19 3SA","propertyType":"Detached","oldOrNew":"Established","duration":"Freehold","paon":"3","saon":"","street":"BYFORDS CLOSE","locality":"HUNTLEY","townOrCity":"GLOUCESTER","district":"FOREST OF DEAN","county":"GLOUCESTERSHIRE","ppdCategoryType":"Standard","recordStatus":"Addition","latitude":51.873623,"longitude":-2.405426,"postcodeStart":"GL19 3","postcode":["GL19","3SA"]}
{"price":101950,"dateOfTransfer":"1997-12-10T00:00:00","postcodeFull":"GL19 3QZ","propertyType":"Detached","oldOrNew":"New build","duration":"Freehold","paon":"7","saon":"","street":"COLLINS CLOSE","locality":"STAUNTON","townOrCity":"GLOUCESTER","district":"FOREST OF DEAN","county":"GLOUCESTERSHIRE","ppdCategoryType":"Standard","recordStatus":"Addition","latitude":51.959894,"longitude":-2.309189,"postcodeStart":"GL19 3","postcode":["GL19","3QZ"]}
{"price":125950,"dateOfTransfer":"1997-12-19T00:00:00","postcodeFull":"GL19 3QZ","propertyType":"Detached","oldOrNew":"New build","duration":"Freehold","paon":"5","saon":"","street":"COLLINS CLOSE","locality":"STAUNTON","townOrCity":"GLOUCESTER","district":"FOREST OF DEAN","county":"GLOUCESTERSHIRE","ppdCategoryType":"Standard","recordStatus":"Addition","latitude":51.959894,"longitude":-2.309189,"postcodeStart":"GL19 3","postcode":["GL19","3QZ"]}
{"price":165000,"dateOfTransfer":"1997-07-07T00:00:00","postcodeFull":"GL19 3DT","propertyType":"Detached","oldOrNew":"Established","duration":"Freehold","paon":"ROUNDELAY","saon":"","street":"GRANGE COURT LANE","locality":"HUNTLEY","townOrCity":"GLOUCESTER","district":"FOREST OF DEAN","county":"GLOUCESTERSHIRE","ppdCategoryType":"Standard","recordStatus":"Addition","latitude":51.871455,"longitude":-2.405406,"postcodeStart":"GL19 3","postcode":["GL19","3DT"]}
{"price":92000,"dateOfTransfer":"1997-05-23T00:00:00","postcodeFull":"GL19 3SA","propertyType":"Detached","oldOrNew":"Established","duration":"Freehold","paon":"1","saon":"","street":"BYFORDS CLOSE","locality":"HUNTLEY","townOrCity":"GLOUCESTER","district":"FOREST OF DEAN","county":"GLOUCESTERSHIRE","ppdCategoryType":"Standard","recordStatus":"Addition","latitude":51.873623,"longitude":-2.405426,"postcodeStart":"GL19 3","postcode":["GL19","3SA"]}
{"price":60000,"dateOfTransfer":"1997-06-30T00:00:00","postcodeFull":"GL19 3HA","propertyType":"Detached","oldOrNew":"Established","duration":"Freehold","paon":"STORMONT","saon":"","street":"BROOM HILL","locality":"HUNTLEY","townOrCity":"GLOUCESTER","district":"FOREST OF DEAN","county":"GLOUCESTERSHIRE","ppdCategoryType":"Standard","recordStatus":"Addition","latitude":51.870518,"longitude":-2.416378,"postcodeStart":"GL19 3","postcode":["GL19","3HA"]}
{"price":49500,"dateOfTransfer":"1997-05-09T00:00:00","postcodeFull":"GL19 3RP","propertyType":"Terraced","oldOrNew":"Established","duration":"Freehold","paon":"31","saon":"","street":"COMPTON CLOSE","locality":"CORSE","townOrCity":"GLOUCESTER","district":"FOREST OF DEAN","county":"GLOUCESTERSHIRE","ppdCategoryType":"Standard","recordStatus":"Addition","latitude":51.958253,"longitude":-2.307813,"postcodeStart":"GL19 3","postcode":["GL19","3RP"]}
{"price":81500,"dateOfTransfer":"1997-11-21T00:00:00","postcodeFull":"GL19 3PP","propertyType":"Semi-detached","oldOrNew":"Established","duration":"Freehold","paon":"6","saon":"","street":"NETHERLEY LANE","locality":"PENDOCK","townOrCity":"GLOUCESTER","district":"MALVERN HILLS","county":"WORCESTERSHIRE","ppdCategoryType":"Standard","recordStatus":"Addition","latitude":51.997882,"longitude":-2.308857,"postcodeStart":"GL19 3","postcode":["GL19","3PP"]}
{"price":170000,"dateOfTransfer":"1997-03-24T00:00:00","postcodeFull":"GL19 3LQ","propertyType":"Detached","oldOrNew":"Established","duration":"Freehold","paon":"4","saon":"","street":"LITTLE GREEN","locality":"REDMARLEY","townOrCity":"GLOUCESTER","district":"FOREST OF DEAN","county":"GLOUCESTERSHIRE","ppdCategoryType":"Standard","recordStatus":"Addition","latitude":51.981818,"longitude":-2.361336,"postcodeStart":"GL19 3","postcode":["GL19","3LQ"]}
{"price":220000,"dateOfTransfer":"1997-06-26T00:00:00","postcodeFull":"GL19 3RZ","propertyType":"Detached","oldOrNew":"New build","duration":"Freehold","paon":"5","saon":"","street":"LOVETT CLOSE","locality":"STAUNTON","townOrCity":"GLOUCESTER","district":"FOREST OF DEAN","county":"GLOUCESTERSHIRE","ppdCategoryType":"Standard","recordStatus":"Addition","latitude":51.96075,"longitude":-2.308762,"postcodeStart":"GL19 3","postcode":["GL19","3RZ"]}
{"price":110500,"dateOfTransfer":"1997-05-22T00:00:00","postcodeFull":"GL19 3RZ","propertyType":"Detached","oldOrNew":"New build","duration":"Freehold","paon":"14","saon":"","street":"LOVETT CLOSE","locality":"STAUNTON","townOrCity":"GLOUCESTER","district":"FOREST OF DEAN","county":"GLOUCESTERSHIRE","ppdCategoryType":"Standard","recordStatus":"Addition","latitude":51.96075,"longitude":-2.308762,"postcodeStart":"GL19 3","postcode":["GL19","3RZ"]}
{"price":59950,"dateOfTransfer":"1997-06-30T00:00:00","postcodeFull":"GL19 3DU","propertyType":"Detached","oldOrNew":"Established","duration":"Freehold","paon":"ROSEMARY COTTAGE","saon":"","street":"NORTH ROAD","locality":"HUNTLEY","townOrCity":"GLOUCESTER","district":"FOREST OF DEAN","county":"GLOUCESTERSHIRE","ppdCategoryType":"Standard","recordStatus":"Addition","latitude":51.873466,"longitude":-2.404045,"postcodeStart":"GL19 3","postcode":["GL19","3DU"]}
{"price":24950,"dateOfTransfer":"1997-01-10T00:00:00","postcodeFull":"GL19 3SD","propertyType":"Semi-detached","oldOrNew":"Established","duration":"Leasehold","paon":"53","saon":"","street":"OAK WAY","locality":"HUNTLEY","townOrCity":"GLOUCESTER","district":"FOREST OF DEAN","county":"GLOUCESTERSHIRE","ppdCategoryType":"Standard","recordStatus":"Addition","latitude":51.872978,"longitude":-2.407454,"postcodeStart":"GL19 3","postcode":["GL19","3SD"]}
{"price":147500,"dateOfTransfer":"1997-12-05T00:00:00","postcodeFull":"GL19 3NL","propertyType":"Detached","oldOrNew":"Established","duration":"Freehold","paon":"FAIRFIELDS","saon":"","street":"CHARTIST LANE","locality":"REDMARLEY","townOrCity":"GLOUCESTER","district":"FOREST OF DEAN","county":"GLOUCESTERSHIRE","ppdCategoryType":"Standard","recordStatus":"Addition","latitude":51.98366,"longitude":-2.331285,"postcodeStart":"GL19 3","postcode":["GL19","3NL"]}
{"price":155000,"dateOfTransfer":"1997-10-27T00:00:00","postcodeFull":"GL19 3PL","propertyType":"Detached","oldOrNew":"Established","duration":"Freehold","paon":"LITTLE ACRE","saon":"","street":"","locality":"PENDOCK","townOrCity":"GLOUCESTER","district":"MALVERN HILLS","county":"WORCESTERSHIRE","ppdCategoryType":"Standard","recordStatus":"Addition","latitude":51.992283,"longitude":-2.318212,"postcodeStart":"GL19 3","postcode":["GL19","3PL"]}
{"price":115000,"dateOfTransfer":"1997-04-25T00:00:00","postcodeFull":"GL19 3AQ","propertyType":"Semi-detached","oldOrNew":"Established","duration":"Freehold","paon":"WHEATLANDS","saon":"","street":"","locality":"TIBBERTON","townOrCity":"GLOUCESTER","district":"FOREST OF DEAN","county":"GLOUCESTERSHIRE","ppdCategoryType":"Standard","recordStatus":"Addition","latitude":51.899521,"longitude":-2.356652,"postcodeStart":"GL19 3","postcode":["GL19","3AQ"]}
{"price":113000,"dateOfTransfer":"1997-08-12T00:00:00","postcodeFull":"GL19 3RZ","propertyType":"Detached","oldOrNew":"New build","duration":"Freehold","paon":"6","saon":"","street":"LOVETT CLOSE","locality":"STAUNTON","townOrCity":"GLOUCESTER","district":"FOREST OF DEAN","county":"GLOUCESTERSHIRE","ppdCategoryType":"Standard","recordStatus":"Addition","latitude":51.96075,"longitude":-2.308762,"postcodeStart":"GL19 3","postcode":["GL19","3RZ"]}
{"price":79500,"dateOfTransfer":"1997-10-17T00:00:00","postcodeFull":"GL19 3DD","propertyType":"Semi-detached","oldOrNew":"Established","duration":"Freehold","paon":"HOLLY TREE COTTAGE","saon":"","street":"","locality":"HARTPURY","townOrCity":"GLOUCESTER","district":"FOREST OF DEAN","county":"GLOUCESTERSHIRE","ppdCategoryType":"Standard","recordStatus":"Addition","latitude":51.923149,"longitude":-2.326171,"postcodeStart":"GL19 3","postcode":["GL19","3DD"]}
{"price":63000,"dateOfTransfer":"1997-08-29T00:00:00","postcodeFull":"GL19 3SD","propertyType":"Semi-detached","oldOrNew":"Established","duration":"Freehold","paon":"12","saon":"","street":"OAK WAY","locality":"HUNTLEY","townOrCity":"GLOUCESTER","district":"FOREST OF DEAN","county":"GLOUCESTERSHIRE","ppdCategoryType":"Standard","recordStatus":"Addition","latitude":51.872978,"longitude":-2.407454,"postcodeStart":"GL19 3","postcode":["GL19","3SD"]}
{"price":148000,"dateOfTransfer":"1997-03-26T00:00:00","postcodeFull":"GL19 3BN","propertyType":"Detached","oldOrNew":"Established","duration":"Freehold","paon":"BEECH HOUSE","saon":"","street":"BROAD STREET","locality":"HARTPURY","townOrCity":"GLOUCESTER","district":"FOREST OF DEAN","county":"GLOUCESTERSHIRE","ppdCategoryType":"Standard","recordStatus":"Addition","latitude":51.92346,"longitude":-2.289748,"postcodeStart":"GL19 3","postcode":["GL19","3BN"]}
{"price":89000,"dateOfTransfer":"1997-05-15T00:00:00","postcodeFull":"GL19 3RG","propertyType":"Semi-detached","oldOrNew":"Established","duration":"Freehold","paon":"3","saon":"","street":"BOUNDARY PLACE","locality":"CORSE","townOrCity":"GLOUCESTER","district":"FOREST OF DEAN","county":"GLOUCESTERSHIRE","ppdCategoryType":"Standard","recordStatus":"Addition","latitude":51.958267,"longitude":-2.30912,"postcodeStart":"GL19 3","postcode":["GL19","3RG"]}
{"price":187000,"dateOfTransfer":"1997-03-14T00:00:00","postcodeFull":"GL19 3PR","propertyType":"Detached","oldOrNew":"New build","duration":"Freehold","paon":"FISHERS PLACE","saon":"TUDOR HOUSE","street":"","locality":"PENDOCK","townOrCity":"GLOUCESTER","district":"MALVERN HILLS","county":"WORCESTERSHIRE","ppdCategoryType":"Standard","recordStatus":"Addition","latitude":51.998571,"longitude":-2.299773,"postcodeStart":"GL19 3","postcode":["GL19","3PR"]}
{"price":105000,"dateOfTransfer":"1997-11-21T00:00:00","postcodeFull":"GL19 3DT","propertyType":"Detached","oldOrNew":"Established","duration":"Freehold","paon":"LEYSIDE","saon":"","street":"GRANGE COURT LANE","locality":"HUNTLEY","townOrCity":"GLOUCESTER","district":"FOREST OF DEAN","county":"GLOUCESTERSHIRE","ppdCategoryType":"Standard","recordStatus":"Addition","latitude":51.871455,"longitude":-2.405406,"postcodeStart":"GL19 3","postcode":["GL19","3DT"]}
{"price":145000,"dateOfTransfer":"1997-05-12T00:00:00","postcodeFull":"GL19 3DA","propertyType":"Detached","oldOrNew":"Established","duration":"Freehold","paon":"OLD FORGE","saon":"","street":"ORIDGE STREET","locality":"CORSE","townOrCity":"GLOUCESTER","district":"FOREST OF DEAN","county":"GLOUCESTERSHIRE","ppdCategoryType":"Standard","recordStatus":"Addition","latitude":51.946452,"longitude":-2.313174,"postcodeStart":"GL19 3","postcode":["GL19","3DA"]}
{"price":120000,"dateOfTransfer":"1997-08-19T00:00:00","postcodeFull":"GL19 3JB","propertyType":"Semi-detached","oldOrNew":"New build","duration":"Freehold","paon":"COMPTON HOUSE","saon":"THE ORANGERY","street":"COMPTON GREEN","locality":"REDMARLEY","townOrCity":"GLOUCESTER","district":"FOREST OF DEAN","county":"GLOUCESTERSHIRE","ppdCategoryType":"Standard","recordStatus":"Addition","latitude":51.956028,"longitude":-2.385521,"postcodeStart":"GL19 3","postcode":["GL19","3JB"]}
{"price":226000,"dateOfTransfer":"1997-03-18T00:00:00","postcodeFull":"GL19 3AR","propertyType":"Detached","oldOrNew":"Established","duration":"Freehold","paon":"ABBOTS CHASE","saon":"","street":"MOAT LANE","locality":"TAYNTON","townOrCity":"GLOUCESTER","district":"FOREST OF DEAN","county":"GLOUCESTERSHIRE","ppdCategoryType":"Standard","recordStatus":"Addition","latitude":51.890939,"longitude":-2.39246,"postcodeStart":"GL19 3","postcode":["GL19","3AR"]}
{"price":65500,"dateOfTransfer":"1997-09-19T00:00:00","postcodeFull":"GL19 3RX","propertyType":"Terraced","oldOrNew":"Established","duration":"Freehold","paon":"11","saon":"","street":"CULLINGHAM CLOSE","locality":"STAUNTON","townOrCity":"GLOUCESTER","district":"FOREST OF DEAN","county":"GLOUCESTERSHIRE","ppdCategoryType":"Standard","recordStatus":"Addition","latitude":51.960672,"longitude":-2.307685,"postcodeStart":"GL19 3","postcode":["GL19","3RX"]}
{"price":101950,"dateOfTransfer":"1997-06-02T00:00:00","postcodeFull":"GL19 3RZ","propertyType":"Detached","oldOrNew":"New build","duration":"Freehold","paon":"11","saon":"","street":"LOVETT CLOSE","locality":"STAUNTON","townOrCity":"GLOUCESTER","district":"FOREST OF DEAN","county":"GLOUCESTERSHIRE","ppdCategoryType":"Standard","recordStatus":"Addition","latitude":51.96075,"longitude":-2.308762,"postcodeStart":"GL19 3","postcode":["GL19","3RZ"]}
{"price":58000,"dateOfTransfer":"1997-01-21T00:00:00","postcodeFull":"GL19 3NJ","propertyType":"Detached","oldOrNew":"Established","duration":"Freehold","paon":"WISTERIA COTTAGE","saon":"","street":"LEDBURY ROAD","locality":"REDMARLEY","townOrCity":"GLOUCESTER","district":"FOREST OF DEAN","county":"GLOUCESTERSHIRE","ppdCategoryType":"Standard","recordStatus":"Addition","latitude":51.984366,"longitude":-2.348341,"postcodeStart":"GL19 3","postcode":["GL19","3NJ"]}
{"price":97500,"dateOfTransfer":"1997-03-13T00:00:00","postcodeFull":"GL19 3RX","propertyType":"Detached","oldOrNew":"New build","duration":"Freehold","paon":"5","saon":"","street":"CULLINGHAM CLOSE","locality":"STAUNTON","townOrCity":"GLOUCESTER","district":"FOREST OF DEAN","county":"GLOUCESTERSHIRE","ppdCategoryType":"Standard","recordStatus":"Addition","latitude":51.960672,"longitude":-2.307685,"postcodeStart":"GL19 3","postcode":["GL19","3RX"]}
