{"price":155000,"dateOfTransfer":"1995-06-02T00:00:00","postcodeFull":"HU14 3NH","propertyType":"Detached","oldOrNew":"Established","duration":"Freehold","paon":"8B","saon":"","street":"GREENSTILES LANE","locality":"SWANLAND","townOrCity":"NORTH FERRIBY","district":"THE EAST YORKSHIRE BOROUGH OF BEVERLEY","county":"HUMBERSIDE","ppdCategoryType":"Standard","recordStatus":"Addition","latitude":53.739845,"longitude":-0.480963,"postcodeStart":"HU14 3","postcode":["HU14","3NH"]}
{"price":67500,"dateOfTransfer":"1995-11-17T00:00:00","postcodeFull":"HU14 3BW","propertyType":"Semi-detached","oldOrNew":"New build","duration":"Freehold","paon":"2","saon":"","street":"WILSON CLOSE","locality":"NORTH FERRIBY","townOrCity":"NORTH FERRIBY","district":"EAST RIDING OF YORKSHIRE","county":"EAST RIDING OF YORKSHIRE","ppdCategoryType":"Standard","recordStatus":"Addition","latitude":53.719816,"longitude":-0.501422,"postcodeStart":"HU14 3","postcode":["HU14","3BW"]}
{"price":48950,"dateOfTransfer":"1995-12-20T00:00:00","postcodeFull":"HU14 3HS","propertyType":"Semi-detached","oldOrNew":"Established","duration":"Freehold","paon":"37","saon":"","street":"EAST DALE ROAD","locality":"MELTON","townOrCity":"NORTH FERRIBY","district":"THE EAST YORKSHIRE BOROUGH OF BEVERLEY","county":"HUMBERSIDE","ppdCategoryType":"Standard","recordStatus":"Addition","latitude":53.72775,"longitude":-0.533967,"postcodeStart":"HU14 3","postcode":["HU14","3HS"]}
{"price":94900,"dateOfTransfer":"1995-10-09T00:00:00","postcodeFull":"HU14 3PB","propertyType":"Detached","oldOrNew":"Established","duration":"Freehold","paon":"36","saon":"","street":"MANOR ROAD","locality":"SWANLAND","townOrCity":"NORTH FERRIBY","district":"THE EAST YORKSHIRE BOROUGH OF BEVERLEY","county":"HUMBERSIDE","ppdCategoryType":"Standard","recordStatus":"Addition","latitude":53.737157,"longitude":-0.494492,"postcodeStart":"HU14 3","postcode":["HU14","3PB"]}
{"price":106495,"dateOfTransfer":"1995-05-26T00:00:00","postcodeFull":"HU14 3DS","propertyType":"Detached","oldOrNew":"Established","duration":"Freehold","paon":"37","saon":"","street":"MARINE AVENUE","locality":"NORTH FERRIBY","townOrCity":"NORTH FERRIBY","district":"THE EAST YORKSHIRE BOROUGH OF BEVERLEY","county":"HUMBERSIDE","ppdCategoryType":"Standard","recordStatus":"Addition","latitude":53.716574,"longitude":-0.511836,"postcodeStart":"HU14 3","postcode":["HU14","3DS"]}
{"price":60000,"dateOfTransfer":"1995-04-13T00:00:00","postcodeFull":"HU14 3QG","propertyType":"Semi-detached","oldOrNew":"Established","duration":"Freehold","paon":"80","saon":"","street":"CHANTRY WAY EAST","locality":"SWANLAND","townOrCity":"NORTH FERRIBY","district":"EAST YORKSHIRE","county":"HUMBERSIDE","ppdCategoryType":"Standard","recordStatus":"Addition","latitude":53.73997,"longitude":-0.493589,"postcodeStart":"HU14 3","postcode":["HU14","3QG"]}
{"price":85000,"dateOfTransfer":"1995-12-08T00:00:00","postcodeFull":"HU14 3QX","propertyType":"Detached","oldOrNew":"Established","duration":"Freehold","paon":"1","saon":"","street":"HOLGATE PLACE","locality":"SWANLAND","townOrCity":"NORTH FERRIBY","district":"THE EAST YORKSHIRE BOROUGH OF BEVERLEY","county":"HUMBERSIDE","ppdCategoryType":"Standard","recordStatus":"Addition","latitude":53.738925,"longitude":-0.489214,"postcodeStart":"HU14 3","postcode":["HU14","3QX"]}
{"price":63000,"dateOfTransfer":"1995-03-24T00:00:00","postcodeFull":"HU14 3DR","propertyType":"Semi-detached","oldOrNew":"Established","duration":"Freehold","paon":"73","saon":"","street":"MARINE AVENUE","locality":"NORTH FERRIBY","townOrCity":"NORTH FERRIBY","district":"THE EAST YORKSHIRE BOROUGH OF BEVERLEY","county":"HUMBERSIDE","ppdCategoryType":"Standard","recordStatus":"Addition","latitude":53.716581,"longitude":-0.508851,"postcodeStart":"HU14 3","postcode":["HU14","3DR"]}
{"price":60000,"dateOfTransfer":"1995-07-21T00:00:00","postcodeFull":"HU14 3RG","propertyType":"Detached","oldOrNew":"Established","duration":"Freehold","paon":"25","saon":"","street":"NORTHFIELD","locality":"SWANLAND","townOrCity":"NORTH FERRIBY","district":"THE EAST YORKSHIRE BOROUGH OF BEVERLEY","county":"HUMBERSIDE","ppdCategoryType":"Standard","recordStatus":"Addition","latitude":53.742942,"longitude":-0.488433,"postcodeStart":"HU14 3","postcode":["HU14","3RG"]}
{"price":59950,"dateOfTransfer":"1995-10-02T00:00:00","postcodeFull":"HU14 3QH","propertyType":"Semi-detached","oldOrNew":"Established","duration":"Freehold","paon":"51","saon":"","street":"DALE ROAD","locality":"SWANLAND","townOrCity":"NORTH FERRIBY","district":"THE EAST YORKSHIRE BOROUGH OF BEVERLEY","county":"HUMBERSIDE","ppdCategoryType":"Standard","recordStatus":"Addition","latitude":53.740888,"longitude":-0.49307,"postcodeStart":"HU14 3","postcode":["HU14","3QH"]}
{"price":58500,"dateOfTransfer":"1995-07-26T00:00:00","postcodeFull":"HU14 3QB","propertyType":"Detached","oldOrNew":"Established","duration":"Freehold","paon":"3","saon":"","street":"MERE WAY","locality":"SWANLAND","townOrCity":"NORTH FERRIBY","district":"THE EAST YORKSHIRE BOROUGH OF BEVERLEY","county":"HUMBERSIDE","ppdCategoryType":"Standard","recordStatus":"Addition","latitude":53.74009,"longitude":-0.491067,"postcodeStart":"HU14 3","postcode":["HU14","3QB"]}
{"price":71250,"dateOfTransfer":"1995-10-18T00:00:00","postcodeFull":"HU14 3NW","propertyType":"Flat/Maisonette/Townhouse","oldOrNew":"New build","duration":"Leasehold","paon":"SWANLAND HALL","saon":"FLAT 2","street":"HALL PARK","locality":"SWANLAND","townOrCity":"NORTH FERRIBY","district":"THE EAST YORKSHIRE BOROUGH OF BEVERLEY","county":"HUMBERSIDE","ppdCategoryType":"Standard","recordStatus":"Addition","latitude":53.738388,"longitude":-0.484472,"postcodeStart":"HU14 3","postcode":["HU14","3NW"]}
{"price":57000,"dateOfTransfer":"1995-09-04T00:00:00","postcodeFull":"HU14 3PL","propertyType":"Semi-detached","oldOrNew":"New build","duration":"Freehold","paon":"54","saon":"","street":"MILL ROAD","locality":"SWANLAND","townOrCity":"NORTH FERRIBY","district":"THE EAST YORKSHIRE BOROUGH OF BEVERLEY","county":"HUMBERSIDE","ppdCategoryType":"Standard","recordStatus":"Addition","latitude":53.736964,"longitude":-0.502019,"postcodeStart":"HU14 3","postcode":["HU14","3PL"]}
{"price":59950,"dateOfTransfer":"1995-07-17T00:00:00","postcodeFull":"HU14 3PL","propertyType":"Semi-detached","oldOrNew":"New build","duration":"Freehold","paon":"56","saon":"","street":"MILL ROAD","locality":"SWANLAND","townOrCity":"NORTH FERRIBY","district":"THE EAST YORKSHIRE BOROUGH OF BEVERLEY","county":"HUMBERSIDE","ppdCategoryType":"Standard","recordStatus":"Addition","latitude":53.736964,"longitude":-0.502019,"postcodeStart":"HU14 3","postcode":["HU14","3PL"]}
{"price":75000,"dateOfTransfer":"1995-06-30T00:00:00","postcodeFull":"HU14 3QT","propertyType":"Semi-detached","oldOrNew":"Established","duration":"Freehold","paon":"30","saon":"","street":"DOWER RISE","locality":"SWANLAND","townOrCity":"NORTH FERRIBY","district":"THE EAST YORKSHIRE BOROUGH OF BEVERLEY","county":"HUMBERSIDE","ppdCategoryType":"Standard","recordStatus":"Addition","latitude":53.741019,"longitude":-0.488486,"postcodeStart":"HU14 3","postcode":["HU14","3QT"]}
{"price":59950,"dateOfTransfer":"1995-04-07T00:00:00","postcodeFull":"HU14 3QH","propertyType":"Semi-detached","oldOrNew":"Established","duration":"Freehold","paon":"83","saon":"","street":"DALE ROAD","locality":"SWANLAND","townOrCity":"NORTH FERRIBY","district":"THE EAST YORKSHIRE BOROUGH OF BEVERLEY","county":"HUMBERSIDE","ppdCategoryType":"Standard","recordStatus":"Addition","latitude":53.740888,"longitude":-0.49307,"postcodeStart":"HU14 3","postcode":["HU14","3QH"]}
{"price":75000,"dateOfTransfer":"1995-12-04T00:00:00","postcodeFull":"HU14 3RE","propertyType":"Detached","oldOrNew":"Established","duration":"Freehold","paon":"7","saon":"","street":"WAULDBY VIEW","locality":"SWANLAND","townOrCity":"NORTH FERRIBY","district":"THE EAST YORKSHIRE BOROUGH OF BEVERLEY","county":"HUMBERSIDE","ppdCategoryType":"Standard","recordStatus":"Addition","latitude":53.743002,"longitude":-0.491751,"postcodeStart":"HU14 3","postcode":["HU14","3RE"]}
{"price":58000,"dateOfTransfer":"1995-08-25T00:00:00","postcodeFull":"HU14 3DT","propertyType":"Semi-detached","oldOrNew":"Established","duration":"Freehold","paon":"48","saon":"","street":"RIVERVIEW AVENUE","locality":"NORTH FERRIBY","townOrCity":"NORTH FERRIBY","district":"THE EAST YORKSHIRE BOROUGH OF BEVERLEY","county":"HUMBERSIDE","ppdCategoryType":"Standard","recordStatus":"Addition","latitude":53.715073,"longitude":-0.51192,"postcodeStart":"HU14 3","postcode":["HU14","3DT"]}
{"price":59950,"dateOfTransfer":"1995-10-13T00:00:00","postcodeFull":"HU14 3PQ","propertyType":"Flat/Maisonette/Townhouse","oldOrNew":"Established","duration":"Leasehold","paon":"15","saon":"","street":"HALDENBY COURT","locality":"SWANLAND","townOrCity":"NORTH FERRIBY","district":"THE EAST YORKSHIRE BOROUGH OF BEVERLEY","county":"HUMBERSIDE","ppdCategoryType":"Standard","recordStatus":"Addition","latitude":53.737767,"longitude":-0.493637,"postcodeStart":"HU14 3","postcode":["HU14","3PQ"]}
{"price":250000,"dateOfTransfer":"1995-07-11T00:00:00","postcodeFull":"HU14 3NH","propertyType":"Detached","oldOrNew":"Established","duration":"Freehold","paon":"WOODSIDE","saon":"2","street":"GREENSTILES LANE","locality":"SWANLAND","townOrCity":"NORTH FERRIBY","district":"THE EAST YORKSHIRE BOROUGH OF BEVERLEY","county":"HUMBERSIDE","ppdCategoryType":"Standard","recordStatus":"Addition","latitude":53.739845,"longitude":-0.480963,"postcodeStart":"HU14 3","postcode":["HU14","3NH"]}
{"price":219950,"dateOfTransfer":"1995-09-18T00:00:00","postcodeFull":"HU14 3NU","propertyType":"Detached","oldOrNew":"New build","duration":"Freehold","paon":"14","saon":"","street":"STYLES CROFT","locality":"SWANLAND","townOrCity":"NORTH FERRIBY","district":"THE EAST YORKSHIRE BOROUGH OF BEVERLEY","county":"HUMBERSIDE","ppdCategoryType":"Standard","recordStatus":"Addition","latitude":53.738702,"longitude":-0.481565,"postcodeStart":"HU14 3","postcode":["HU14","3NU"]}
{"price":108000,"dateOfTransfer":"1995-01-31T00:00:00","postcodeFull":"HU14 3QP","propertyType":"Detached","oldOrNew":"Established","duration":"Freehold","paon":"75","saon":"","street":"MAIN STREET","locality":"SWANLAND","townOrCity":"NORTH FERRIBY","district":"THE EAST YORKSHIRE BOROUGH OF BEVERLEY","county":"HUMBERSIDE","ppdCategoryType":"Standard","recordStatus":"Addition","latitude":53.74043,"longitude":-0.488129,"postcodeStart":"HU14 3","postcode":["HU14","3QP"]}
{"price":50000,"dateOfTransfer":"1995-02-03T00:00:00","postcodeFull":"HU14 3NP","propertyType":"Terraced","oldOrNew":"New build","duration":"Freehold","paon":"6","saon":"","street":"EASENBY CLOSE","locality":"SWANLAND","townOrCity":"NORTH FERRIBY","district":"THE EAST YORKSHIRE BOROUGH OF BEVERLEY","county":"HUMBERSIDE","ppdCategoryType":"Standard","recordStatus":"Addition","latitude":53.741652,"longitude":-0.480261,"postcodeStart":"HU14 3","postcode":["HU14","3NP"]}
{"price":44000,"dateOfTransfer":"1995-04-13T00:00:00","postcodeFull":"HU14 3JP","propertyType":"Semi-detached","oldOrNew":"Established","duration":"Freehold","paon":"20","saon":"","street":"HIGH STREET","locality":"NORTH FERRIBY","townOrCity":"NORTH FERRIBY","district":"THE EAST YORKSHIRE BOROUGH OF BEVERLEY","county":"HUMBERSIDE","ppdCategoryType":"Standard","recordStatus":"Addition","latitude":53.723012,"longitude":-0.504987,"postcodeStart":"HU14 3","postcode":["HU14","3JP"]}
{"price":229950,"dateOfTransfer":"1995-04-21T00:00:00","postcodeFull":"HU14 3QP","propertyType":"Detached","oldOrNew":"New build","duration":"Freehold","paon":"97","saon":"","street":"MAIN STREET","locality":"SWANLAND","townOrCity":"NORTH FERRIBY","district":"THE EAST YORKSHIRE BOROUGH OF BEVERLEY","county":"HUMBERSIDE","ppdCategoryType":"Standard","recordStatus":"Addition","latitude":53.74043,"longitude":-0.488129,"postcodeStart":"HU14 3","postcode":["HU14","3QP"]}
{"price":152950,"dateOfTransfer":"1995-05-26T00:00:00","postcodeFull":"HU14 3NU","propertyType":"Detached","oldOrNew":"New build","duration":"Freehold","paon":"8","saon":"","street":"STYLES CROFT","locality":"SWANLAND","townOrCity":"NORTH FERRIBY","district":"THE EAST YORKSHIRE BOROUGH OF BEVERLEY","county":"HUMBERSIDE","ppdCategoryType":"Standard","recordStatus":"Addition","latitude":53.738702,"longitude":-0.481565,"postcodeStart":"HU14 3","postcode":["HU14","3NU"]}
{"price":72500,"dateOfTransfer":"1995-09-29T00:00:00","postcodeFull":"HU14 3PE","propertyType":"Semi-detached","oldOrNew":"Established","duration":"Freehold","paon":"28","saon":"","street":"WEST END","locality":"SWANLAND","townOrCity":"NORTH FERRIBY","district":"THE EAST YORKSHIRE BOROUGH OF BEVERLEY","county":"HUMBERSIDE","ppdCategoryType":"Standard","recordStatus":"Addition","latitude":53.738141,"longitude":-0.494093,"postcodeStart":"HU14 3","postcode":["HU14","3PE"]}
{"price":76000,"dateOfTransfer":"1995-04-26T00:00:00","postcodeFull":"HU14 3LB","propertyType":"Semi-detached","oldOrNew":"Established","duration":"Freehold","paon":"12","saon":"","street":"HUMBERDALE DRIVE","locality":"NORTH FERRIBY","townOrCity":"NORTH FERRIBY","district":"THE EAST YORKSHIRE BOROUGH OF BEVERLEY","county":"HUMBERSIDE","ppdCategoryType":"Standard","recordStatus":"Addition","latitude":53.72108,"longitude":-0.484109,"postcodeStart":"HU14 3","postcode":["HU14","3LB"]}
{"price":34500,"dateOfTransfer":"1995-07-28T00:00:00","postcodeFull":"HU14 3AG","propertyType":"Terraced","oldOrNew":"Established","duration":"Freehold","paon":"4","saon":"","street":"WEST VIEW","locality":"NORTH FERRIBY","townOrCity":"NORTH FERRIBY","district":"THE EAST YORKSHIRE BOROUGH OF BEVERLEY","county":"HUMBERSIDE","ppdCategoryType":"Standard","recordStatus":"Addition","latitude":53.718048,"longitude":-0.503919,"postcodeStart":"HU14 3","postcode":["HU14","3AG"]}
{"price":87000,"dateOfTransfer":"1995-07-21T00:00:00","postcodeFull":"HU14 3NP","propertyType":"Terraced","oldOrNew":"New build","duration":"Freehold","paon":"17","saon":"","street":"EASENBY CLOSE","locality":"SWANLAND","townOrCity":"NORTH FERRIBY","district":"THE EAST YORKSHIRE BOROUGH OF BEVERLEY","county":"HUMBERSIDE","ppdCategoryType":"Standard","recordStatus":"Addition","latitude":53.741652,"longitude":-0.480261,"postcodeStart":"HU14 3","postcode":["HU14","3NP"]}
{"price":54500,"dateOfTransfer":"1995-03-24T00:00:00","postcodeFull":"HU14 3EL","propertyType":"Terraced","oldOrNew":"Established","duration":"Freehold","paon":"26","saon":"","street":"INGS LANE","locality":"NORTH FERRIBY","townOrCity":"NORTH FERRIBY","district":"THE EAST YORKSHIRE BOROUGH OF BEVERLEY","county":"HUMBERSIDE","ppdCategoryType":"Standard","recordStatus":"Addition","latitude":53.71631,"longitude":-0.50436,"postcodeStart":"HU14 3","postcode":["HU14","3EL"]}
{"price":132500,"dateOfTransfer":"1995-04-18T00:00:00","postcodeFull":"HU14 3DQ","propertyType":"Detached","oldOrNew":"Established","duration":"Freehold","paon":"20","saon":"","street":"STATION ROAD","locality":"NORTH FERRIBY","townOrCity":"NORTH FERRIBY","district":"THE EAST YORKSHIRE BOROUGH OF BEVERLEY","county":"HUMBERSIDE","ppdCategoryType":"Standard","recordStatus":"Addition","latitude":53.719886,"longitude":-0.50643,"postcodeStart":"HU14 3","postcode":["HU14","3DQ"]}
{"price":65000,"dateOfTransfer":"1995-10-17T00:00:00","postcodeFull":"HU14 3LA","propertyType":"Detached","oldOrNew":"Established","duration":"Freehold","paon":"127","saon":"","street":"FERRIBY HIGH ROAD","locality":"NORTH FERRIBY","townOrCity":"NORTH FERRIBY","district":"THE EAST YORKSHIRE BOROUGH OF BEVERLEY","county":"HUMBERSIDE","ppdCategoryType":"Standard","recordStatus":"Addition","latitude":53.721741,"longitude":-0.486632,"postcodeStart":"HU14 3","postcode":["HU14","3LA"]}
{"price":175000,"dateOfTransfer":"1995-10-13T00:00:00","postcodeFull":"HU14 3NA","propertyType":"Detached","oldOrNew":"Established","duration":"Freehold","paon":"5","saon":"","street":"GRANGE PARK","locality":"SWANLAND","townOrCity":"NORTH FERRIBY","district":"EAST YORKSHIRE","county":"HUMBERSIDE","ppdCategoryType":"Standard","recordStatus":"Addition","latitude":53.731618,"longitude":-0.492886,"postcodeStart":"HU14 3","postcode":["HU14","3NA"]}
{"price":41000,"dateOfTransfer":"1995-08-31T00:00:00","postcodeFull":"HU14 3AF","propertyType":"Semi-detached","oldOrNew":"Established","duration":"Freehold","paon":"16","saon":"","street":"SELWYN AVENUE","locality":"NORTH FERRIBY","townOrCity":"NORTH FERRIBY","district":"THE EAST YORKSHIRE BOROUGH OF BEVERLEY","county":"HUMBERSIDE","ppdCategoryType":"Standard","recordStatus":"Addition","latitude":53.717444,"longitude":-0.504486,"postcodeStart":"HU14 3","postcode":["HU14","3AF"]}
{"price":75000,"dateOfTransfer":"1995-04-12T00:00:00","postcodeFull":"HU14 3NW","propertyType":"Flat/Maisonette/Townhouse","oldOrNew":"Established","duration":"Leasehold","paon":"SWANLAND HALL","saon":"FLAT 3","street":"HALL PARK","locality":"SWANLAND","townOrCity":"NORTH FERRIBY","district":"THE EAST YORKSHIRE BOROUGH OF BEVERLEY","county":"HUMBERSIDE","ppdCategoryType":"Standard","recordStatus":"Addition","latitude":53.738388,"longitude":-0.484472,"postcodeStart":"HU14 3","postcode":["HU14","3NW"]}
{"price":63000,"dateOfTransfer":"1995-05-05T00:00:00","postcodeFull":"HU14 3DD","propertyType":"Detached","oldOrNew":"Established","duration":"Freehold","paon":"6A","saon":"","street":"LOW STREET","locality":"NORTH FERRIBY","townOrCity":"NORTH FERRIBY","district":"THE EAST YORKSHIRE BOROUGH OF BEVERLEY","county":"HUMBERSIDE","ppdCategoryType":"Standard","recordStatus":"Addition","latitude":53.721228,"longitude":-0.505155,"postcodeStart":"HU14 3","postcode":["HU14","3DD"]}
{"price":48000,"dateOfTransfer":"1995-03-21T00:00:00","postcodeFull":"HU14 3DZ","propertyType":"Semi-detached","oldOrNew":"Established","duration":"Freehold","paon":"1","saon":"","street":"DERWENT AVENUE","locality":"NORTH FERRIBY","townOrCity":"NORTH FERRIBY","district":"THE EAST YORKSHIRE BOROUGH OF BEVERLEY","county":"HUMBERSIDE","ppdCategoryType":"Standard","recordStatus":"Addition","latitude":53.715719,"longitude":-0.510973,"postcodeStart":"HU14 3","postcode":["HU14","3DZ"]}
{"price":40750,"dateOfTransfer":"1995-04-13T00:00:00","postcodeFull":"HU14 3AG","propertyType":"Terraced","oldOrNew":"Established","duration":"Freehold","paon":"9","saon":"","street":"WEST VIEW","locality":"NORTH FERRIBY","townOrCity":"NORTH FERRIBY","district":"THE EAST YORKSHIRE BOROUGH OF BEVERLEY","county":"HUMBERSIDE","ppdCategoryType":"Standard","recordStatus":"Addition","latitude":53.718048,"longitude":-0.503919,"postcodeStart":"HU14 3","postcode":["HU14","3AG"]}
{"price":78500,"dateOfTransfer":"1995-06-30T00:00:00","postcodeFull":"HU14 3RQ","propertyType":"Detached","oldOrNew":"Established","duration":"Freehold","paon":"16","saon":"","street":"WOOD VIEW","locality":"SWANLAND","townOrCity":"NORTH FERRIBY","district":"THE EAST YORKSHIRE BOROUGH OF BEVERLEY","county":"HUMBERSIDE","ppdCategoryType":"Standard","recordStatus":"Addition","latitude":53.743179,"longitude":-0.486544,"postcodeStart":"HU14 3","postcode":["HU14","3RQ"]}
{"price":180000,"dateOfTransfer":"1995-09-29T00:00:00","postcodeFull":"HU14 3RL","propertyType":"Detached","oldOrNew":"New build","duration":"Freehold","paon":"39","saon":"","street":"ST BARNABAS DRIVE","locality":"SWANLAND","townOrCity":"NORTH FERRIBY","district":"THE EAST YORKSHIRE BOROUGH OF BEVERLEY","county":"HUMBERSIDE","ppdCategoryType":"Standard","recordStatus":"Addition","latitude":53.742493,"longitude":-0.484218,"postcodeStart":"HU14 3","postcode":["HU14","3RL"]}
{"price":64000,"dateOfTransfer":"1995-06-19T00:00:00","postcodeFull":"HU14 3RH","propertyType":"Semi-detached","oldOrNew":"Established","duration":"Freehold","paon":"27","saon":"","street":"NORTHDALE PARK","locality":"SWANLAND","townOrCity":"NORTH FERRIBY","district":"THE EAST YORKSHIRE BOROUGH OF BEVERLEY","county":"HUMBERSIDE","ppdCategoryType":"Standard","recordStatus":"Addition","latitude":53.743525,"longitude":-0.488351,"postcodeStart":"HU14 3","postcode":["HU14","3RH"]}
{"price":100000,"dateOfTransfer":"1995-12-13T00:00:00","postcodeFull":"HU14 3BG","propertyType":"Detached","oldOrNew":"New build","duration":"Freehold","paon":"30","saon":"","street":"HIGHFIELD WAY","locality":"NORTH FERRIBY","townOrCity":"NORTH FERRIBY","district":"THE EAST YORKSHIRE BOROUGH OF BEVERLEY","county":"HUMBERSIDE","ppdCategoryType":"Standard","recordStatus":"Addition","latitude":53.721463,"longitude":-0.510376,"postcodeStart":"HU14 3","postcode":["HU14","3BG"]}
{"price":42000,"dateOfTransfer":"1995-11-09T00:00:00","postcodeFull":"HU14 3QH","propertyType":"Terraced","oldOrNew":"Established","duration":"Freehold","paon":"33","saon":"","street":"DALE ROAD","locality":"SWANLAND","townOrCity":"NORTH FERRIBY","district":"THE EAST YORKSHIRE BOROUGH OF BEVERLEY","county":"HUMBERSIDE","ppdCategoryType":"Standard","recordStatus":"Addition","latitude":53.740888,"longitude":-0.49307,"postcodeStart":"HU14 3","postcode":["HU14","3QH"]}
{"price":77500,"dateOfTransfer":"1995-03-31T00:00:00","postcodeFull":"HU14 3DF","propertyType":"Semi-detached","oldOrNew":"Established","duration":"Freehold","paon":"21","saon":"","street":"TURNERS LANE","locality":"NORTH FERRIBY","townOrCity":"NORTH FERRIBY","district":"THE EAST YORKSHIRE BOROUGH OF BEVERLEY","county":"HUMBERSIDE","ppdCategoryType":"Standard","recordStatus":"Addition","latitude":53.722043,"longitude":-0.50566,"postcodeStart":"HU14 3","postcode":["HU14","3DF"]}
{"price":100000,"dateOfTransfer":"1995-11-30T00:00:00","postcodeFull":"HU14 3JE","propertyType":"Detached","oldOrNew":"New build","duration":"Freehold","paon":"2","saon":"","street":"OLD POND PLACE","locality":"NORTH FERRIBY","townOrCity":"NORTH FERRIBY","district":"EAST RIDING OF YORKSHIRE","county":"EAST RIDING OF YORKSHIRE","ppdCategoryType":"Standard","recordStatus":"Addition","latitude":53.71572,"longitude":-0.503911,"postcodeStart":"HU14 3","postcode":["HU14","3JE"]}
{"price":55500,"dateOfTransfer":"1995-02-28T00:00:00","postcodeFull":"HU14 3PQ","propertyType":"Flat/Maisonette/Townhouse","oldOrNew":"Established","duration":"Leasehold","paon":"23","saon":"","street":"HALDENBY COURT","locality":"SWANLAND","townOrCity":"NORTH FERRIBY","district":"THE EAST YORKSHIRE BOROUGH OF BEVERLEY","county":"HUMBERSIDE","ppdCategoryType":"Standard","recordStatus":"Addition","latitude":53.737767,"longitude":-0.493637,"postcodeStart":"HU14 3","postcode":["HU14","3PQ"]}
{"price":41500,"dateOfTransfer":"1995-07-31T00:00:00","postcodeFull":"HU14 3AH","propertyType":"Terraced","oldOrNew":"Established","duration":"Freehold","paon":"17","saon":"","street":"NEW WALK","locality":"NORTH FERRIBY","townOrCity":"NORTH FERRIBY","district":"THE EAST YORKSHIRE BOROUGH OF BEVERLEY","county":"HUMBERSIDE","ppdCategoryType":"Standard","recordStatus":"Addition","latitude":53.718242,"longitude":-0.505079,"postcodeStart":"HU14 3","postcode":["HU14","3AH"]}
{"price":67500,"dateOfTransfer":"1995-05-12T00:00:00","postcodeFull":"HU14 3QS","propertyType":"Terraced","oldOrNew":"Established","duration":"Freehold","paon":"31","saon":"","street":"PRIORY CLOSE","locality":"SWANLAND","townOrCity":"NORTH FERRIBY","district":"THE EAST YORKSHIRE BOROUGH OF BEVERLEY","county":"HUMBERSIDE","ppdCategoryType":"Standard","recordStatus":"Addition","latitude":53.740435,"longitude":-0.489933,"postcodeStart":"HU14 3","postcode":["HU14","3QS"]}
{"price":60000,"dateOfTransfer":"1995-07-28T00:00:00","postcodeFull":"HU14 3LE","propertyType":"Semi-detached","oldOrNew":"Established","duration":"Freehold","paon":"66","saon":"","street":"FERRIBY HIGH ROAD","locality":"NORTH FERRIBY","townOrCity":"NORTH FERRIBY","district":"THE EAST YORKSHIRE BOROUGH OF BEVERLEY","county":"HUMBERSIDE","ppdCategoryType":"Standard","recordStatus":"Addition","latitude":53.7215,"longitude":-0.480381,"postcodeStart":"HU14 3","postcode":["HU14","3LE"]}
{"price":155000,"dateOfTransfer":"1995-12-15T00:00:00","postcodeFull":"HU14 3JR","propertyType":"Detached","oldOrNew":"Established","duration":"Freehold","paon":"46","saon":"","street":"WOODGATES LANE","locality":"NORTH FERRIBY","townOrCity":"NORTH FERRIBY","district":"THE EAST YORKSHIRE BOROUGH OF BEVERLEY","county":"HUMBERSIDE","ppdCategoryType":"Standard","recordStatus":"Addition","latitude":53.724312,"longitude":-0.506652,"postcodeStart":"HU14 3","postcode":["HU14","3JR"]}
{"price":46250,"dateOfTransfer":"1995-10-06T00:00:00","postcodeFull":"HU14 3QH","propertyType":"Terraced","oldOrNew":"Established","duration":"Freehold","paon":"27","saon":"","street":"DALE ROAD","locality":"SWANLAND","townOrCity":"NORTH FERRIBY","district":"THE EAST YORKSHIRE BOROUGH OF BEVERLEY","county":"HUMBERSIDE","ppdCategoryType":"Standard","recordStatus":"Addition","latitude":53.740888,"longitude":-0.49307,"postcodeStart":"HU14 3","postcode":["HU14","3QH"]}
{"price":59000,"dateOfTransfer":"1995-05-31T00:00:00","postcodeFull":"HU14 3HR","propertyType":"Semi-detached","oldOrNew":"Established","duration":"Freehold","paon":"28","saon":"","street":"REYNOLDS CLOSE","locality":"MELTON","townOrCity":"NORTH FERRIBY","district":"THE EAST YORKSHIRE BOROUGH OF BEVERLEY","county":"HUMBERSIDE","ppdCategoryType":"Standard","recordStatus":"Addition","latitude":53.726332,"longitude":-0.531924,"postcodeStart":"HU14 3","postcode":["HU14","3HR"]}
{"price":52000,"dateOfTransfer":"1995-11-03T00:00:00","postcodeFull":"HU14 3BY","propertyType":"Semi-detached","oldOrNew":"Established","duration":"Freehold","paon":"8","saon":"","street":"CHURCH AVENUE","locality":"NORTH FERRIBY","townOrCity":"NORTH FERRIBY","district":"THE EAST YORKSHIRE BOROUGH OF BEVERLEY","county":"HUMBERSIDE","ppdCategoryType":"Standard","recordStatus":"Addition","latitude":53.720071,"longitude":-0.504681,"postcodeStart":"HU14 3","postcode":["HU14","3BY"]}
{"price":30500,"dateOfTransfer":"1995-03-22T00:00:00","postcodeFull":"HU14 3QB","propertyType":"Semi-detached","oldOrNew":"Established","duration":"Freehold","paon":"21","saon":"","street":"MERE WAY","locality":"SWANLAND","townOrCity":"NORTH FERRIBY","district":"THE EAST YORKSHIRE BOROUGH OF BEVERLEY","county":"HUMBERSIDE","ppdCategoryType":"Standard","recordStatus":"Addition","latitude":53.74009,"longitude":-0.491067,"postcodeStart":"HU14 3","postcode":["HU14","3QB"]}
{"price":34000,"dateOfTransfer":"1995-07-28T00:00:00","postcodeFull":"HU14 3DN","propertyType":"Terraced","oldOrNew":"Established","duration":"Freehold","paon":"5","saon":"","street":"HUMBER ROAD","locality":"NORTH FERRIBY","townOrCity":"NORTH FERRIBY","district":"EAST RIDING OF YORKSHIRE","county":"EAST RIDING OF YORKSHIRE","ppdCategoryType":"Standard","recordStatus":"Addition","latitude":53.71526,"longitude":-0.5067,"postcodeStart":"HU14 3","postcode":["HU14","3DN"]}
{"price":78500,"dateOfTransfer":"1995-12-15T00:00:00","postcodeFull":"HU14 3QT","propertyType":"Semi-detached","oldOrNew":"Established","duration":"Freehold","paon":"3","saon":"","street":"DOWER RISE","locality":"SWANLAND","townOrCity":"NORTH FERRIBY","district":"EAST RIDING OF YORKSHIRE","county":"EAST RIDING OF YORKSHIRE","ppdCategoryType":"Standard","recordStatus":"Addition","latitude":53.741019,"longitude":-0.488486,"postcodeStart":"HU14 3","postcode":["HU14","3QT"]}
{"price":79000,"dateOfTransfer":"1995-07-31T00:00:00","postcodeFull":"HU14 3BG","propertyType":"Detached","oldOrNew":"Established","duration":"Freehold","paon":"27","saon":"","street":"HIGHFIELD WAY","locality":"NORTH FERRIBY","townOrCity":"NORTH FERRIBY","district":"THE EAST YORKSHIRE BOROUGH OF BEVERLEY","county":"HUMBERSIDE","ppdCategoryType":"Standard","recordStatus":"Addition","latitude":53.721463,"longitude":-0.510376,"postcodeStart":"HU14 3","postcode":["HU14","3BG"]}
{"price":84000,"dateOfTransfer":"1995-08-30T00:00:00","postcodeFull":"HU14 3PG","propertyType":"Detached","oldOrNew":"Established","duration":"Freehold","paon":"7","saon":"","street":"WESTFIELD LANE","locality":"SWANLAND","townOrCity":"NORTH FERRIBY","district":"THE EAST YORKSHIRE BOROUGH OF BEVERLEY","county":"HUMBERSIDE","ppdCategoryType":"Standard","recordStatus":"Addition","latitude":53.738672,"longitude":-0.49687,"postcodeStart":"HU14 3","postcode":["HU14","3PG"]}
{"price":60000,"dateOfTransfer":"1995-08-30T00:00:00","postcodeFull":"HU14 3EF","propertyType":"Detached","oldOrNew":"Established","duration":"Freehold","paon":"18","saon":"","street":"THE RIDINGS","locality":"NORTH FERRIBY","townOrCity":"NORTH FERRIBY","district":"THE EAST YORKSHIRE BOROUGH OF BEVERLEY","county":"HUMBERSIDE","ppdCategoryType":"Standard","recordStatus":"Addition","latitude":53.716689,"longitude":-0.504528,"postcodeStart":"HU14 3","postcode":["HU14","3EF"]}
{"price":84500,"dateOfTransfer":"1995-05-19T00:00:00","postcodeFull":"HU14 3BG","propertyType":"Detached","oldOrNew":"Established","duration":"Freehold","paon":"34","saon":"","street":"HIGHFIELD WAY","locality":"NORTH FERRIBY","townOrCity":"NORTH FERRIBY","district":"THE EAST YORKSHIRE BOROUGH OF BEVERLEY","county":"HUMBERSIDE","ppdCategoryType":"Standard","recordStatus":"Addition","latitude":53.721463,"longitude":-0.510376,"postcodeStart":"HU14 3","postcode":["HU14","3BG"]}
{"price":107000,"dateOfTransfer":"1995-12-15T00:00:00","postcodeFull":"HU14 3PB","propertyType":"Detached","oldOrNew":"Established","duration":"Freehold","paon":"30","saon":"","street":"MANOR ROAD","locality":"SWANLAND","townOrCity":"NORTH FERRIBY","district":"THE EAST YORKSHIRE BOROUGH OF BEVERLEY","county":"HUMBERSIDE","ppdCategoryType":"Standard","recordStatus":"Addition","latitude":53.737157,"longitude":-0.494492,"postcodeStart":"HU14 3","postcode":["HU14","3PB"]}
{"price":125000,"dateOfTransfer":"1995-11-24T00:00:00","postcodeFull":"HU14 3ND","propertyType":"Detached","oldOrNew":"Established","duration":"Freehold","paon":"THE COURT HOUSE","saon":"","street":"HUMBER VIEW","locality":"SWANLAND","townOrCity":"NORTH FERRIBY","district":"THE EAST YORKSHIRE BOROUGH OF BEVERLEY","county":"HUMBERSIDE","ppdCategoryType":"Standard","recordStatus":"Addition","latitude":53.735253,"longitude":-0.488047,"postcodeStart":"HU14 3","postcode":["HU14","3ND"]}
{"price":70000,"dateOfTransfer":"1995-08-25T00:00:00","postcodeFull":"HU14 3DU","propertyType":"Semi-detached","oldOrNew":"Established","duration":"Freehold","paon":"73","saon":"","street":"SOUTHFIELD DRIVE","locality":"NORTH FERRIBY","townOrCity":"NORTH FERRIBY","district":"THE EAST YORKSHIRE BOROUGH OF BEVERLEY","county":"HUMBERSIDE","ppdCategoryType":"Standard","recordStatus":"Addition","latitude":53.713515,"longitude":-0.510944,"postcodeStart":"HU14 3","postcode":["HU14","3DU"]}
{"price":39000,"dateOfTransfer":"1995-02-08T00:00:00","postcodeFull":"HU14 3NP","propertyType":"Terraced","oldOrNew":"New build","duration":"Freehold","paon":"2","saon":"","street":"EASENBY CLOSE","locality":"SWANLAND","townOrCity":"NORTH FERRIBY","district":"THE EAST YORKSHIRE BOROUGH OF BEVERLEY","county":"HUMBERSIDE","ppdCategoryType":"Standard","recordStatus":"Addition","latitude":53.741652,"longitude":-0.480261,"postcodeStart":"HU14 3","postcode":["HU14","3NP"]}
{"price":96000,"dateOfTransfer":"1995-08-24T00:00:00","postcodeFull":"HU14 3RB","propertyType":"Detached","oldOrNew":"Established","duration":"Freehold","paon":"98","saon":"","street":"NORTHFIELD","locality":"SWANLAND","townOrCity":"NORTH FERRIBY","district":"THE EAST YORKSHIRE BOROUGH OF BEVERLEY","county":"HUMBERSIDE","ppdCategoryType":"Standard","recordStatus":"Addition","latitude":53.741916,"longitude":-0.488962,"postcodeStart":"HU14 3","postcode":["HU14","3RB"]}
{"price":57000,"dateOfTransfer":"1995-05-19T00:00:00","postcodeFull":"HU14 3EF","propertyType":"Semi-detached","oldOrNew":"Established","duration":"Freehold","paon":"9","saon":"","street":"THE RIDINGS","locality":"NORTH FERRIBY","townOrCity":"NORTH FERRIBY","district":"THE EAST YORKSHIRE BOROUGH OF BEVERLEY","county":"HUMBERSIDE","ppdCategoryType":"Standard","recordStatus":"Addition","latitude":53.716689,"longitude":-0.504528,"postcodeStart":"HU14 3","postcode":["HU14","3EF"]}
{"price":42000,"dateOfTransfer":"1995-02-03T00:00:00","postcodeFull":"HU14 3AG","propertyType":"Terraced","oldOrNew":"Established","duration":"Freehold","paon":"10","saon":"","street":"WEST VIEW","locality":"NORTH FERRIBY","townOrCity":"NORTH FERRIBY","district":"THE EAST YORKSHIRE BOROUGH OF BEVERLEY","county":"HUMBERSIDE","ppdCategoryType":"Standard","recordStatus":"Addition","latitude":53.718048,"longitude":-0.503919,"postcodeStart":"HU14 3","postcode":["HU14","3AG"]}
{"price":76000,"dateOfTransfer":"1995-04-26T00:00:00","postcodeFull":"HU14 3RG","propertyType":"Detached","oldOrNew":"Established","duration":"Freehold","paon":"59","saon":"","street":"NORTHFIELD","locality":"SWANLAND","townOrCity":"NORTH FERRIBY","district":"EAST RIDING OF YORKSHIRE","county":"EAST RIDING OF YORKSHIRE","ppdCategoryType":"Standard","recordStatus":"Addition","latitude":53.742942,"longitude":-0.488433,"postcodeStart":"HU14 3","postcode":["HU14","3RG"]}
{"price":63500,"dateOfTransfer":"1995-01-30T00:00:00","postcodeFull":"HU14 3QR","propertyType":"Semi-detached","oldOrNew":"Established","duration":"Freehold","paon":"40","saon":"","street":"MAIN STREET","locality":"SWANLAND","townOrCity":"NORTH FERRIBY","district":"THE EAST YORKSHIRE BOROUGH OF BEVERLEY","county":"HUMBERSIDE","ppdCategoryType":"Standard","recordStatus":"Addition","latitude":53.740219,"longitude":-0.487757,"postcodeStart":"HU14 3","postcode":["HU14","3QR"]}
{"price":67500,"dateOfTransfer":"1995-12-15T00:00:00","postcodeFull":"HU14 3BW","propertyType":"Semi-detached","oldOrNew":"New build","duration":"Freehold","paon":"4","saon":"","street":"WILSON CLOSE","locality":"NORTH FERRIBY","townOrCity":"NORTH FERRIBY","district":"THE EAST YORKSHIRE BOROUGH OF BEVERLEY","county":"HUMBERSIDE","ppdCategoryType":"Standard","recordStatus":"Addition","latitude":53.719816,"longitude":-0.501422,"postcodeStart":"HU14 3","postcode":["HU14","3BW"]}
{"price":83500,"dateOfTransfer":"1995-08-03T00:00:00","postcodeFull":"HU14 3NP","propertyType":"Terraced","oldOrNew":"New build","duration":"Freehold","paon":"16","saon":"","street":"EASENBY CLOSE","locality":"SWANLAND","townOrCity":"NORTH FERRIBY","district":"THE EAST YORKSHIRE BOROUGH OF BEVERLEY","county":"HUMBERSIDE","ppdCategoryType":"Standard","recordStatus":"Addition","latitude":53.741652,"longitude":-0.480261,"postcodeStart":"HU14 3","postcode":["HU14","3NP"]}
{"price":80000,"dateOfTransfer":"1995-07-28T00:00:00","postcodeFull":"HU14 3DR","propertyType":"Semi-detached","oldOrNew":"Established","duration":"Freehold","paon":"26","saon":"","street":"MARINE AVENUE","locality":"NORTH FERRIBY","townOrCity":"NORTH FERRIBY","district":"THE EAST YORKSHIRE BOROUGH OF BEVERLEY","county":"HUMBERSIDE","ppdCategoryType":"Standard","recordStatus":"Addition","latitude":53.716581,"longitude":-0.508851,"postcodeStart":"HU14 3","postcode":["HU14","3DR"]}
{"price":220000,"dateOfTransfer":"1995-01-27T00:00:00","postcodeFull":"HU14 3EQ","propertyType":"Detached","oldOrNew":"Established","duration":"Freehold","paon":"4","saon":"","street":"SPINNEY CROFT CLOSE","locality":"NORTH FERRIBY","townOrCity":"NORTH FERRIBY","district":"THE EAST YORKSHIRE BOROUGH OF BEVERLEY","county":"HUMBERSIDE","ppdCategoryType":"Standard","recordStatus":"Addition","latitude":53.722881,"longitude":-0.514524,"postcodeStart":"HU14 3","postcode":["HU14","3EQ"]}
{"price":199000,"dateOfTransfer":"1995-01-27T00:00:00","postcodeFull":"HU14 3LS","propertyType":"Detached","oldOrNew":"Established","duration":"Freehold","paon":"19","saon":"","street":"WEST LEYS PARK","locality":"SWANLAND","townOrCity":"NORTH FERRIBY","district":"THE EAST YORKSHIRE BOROUGH OF BEVERLEY","county":"HUMBERSIDE","ppdCategoryType":"Standard","recordStatus":"Addition","latitude":53.733401,"longitude":-0.495976,"postcodeStart":"HU14 3","postcode":["HU14","3LS"]}
{"price":57000,"dateOfTransfer":"1995-09-22T00:00:00","postcodeFull":"HU14 3QT","propertyType":"Semi-detached","oldOrNew":"Established","duration":"Freehold","paon":"36","saon":"","street":"DOWER RISE","locality":"SWANLAND","townOrCity":"NORTH FERRIBY","district":"THE EAST YORKSHIRE BOROUGH OF BEVERLEY","county":"HUMBERSIDE","ppdCategoryType":"Standard","recordStatus":"Addition","latitude":53.741019,"longitude":-0.488486,"postcodeStart":"HU14 3","postcode":["HU14","3QT"]}
{"price":65000,"dateOfTransfer":"1995-03-24T00:00:00","postcodeFull":"HU14 3QT","propertyType":"Detached","oldOrNew":"Established","duration":"Freehold","paon":"9","saon":"","street":"DOWER RISE","locality":"SWANLAND","townOrCity":"NORTH FERRIBY","district":"THE EAST YORKSHIRE BOROUGH OF BEVERLEY","county":"HUMBERSIDE","ppdCategoryType":"Standard","recordStatus":"Addition","latitude":53.741019,"longitude":-0.488486,"postcodeStart":"HU14 3","postcode":["HU14","3QT"]}
{"price":101000,"dateOfTransfer":"1995-01-06T00:00:00","postcodeFull":"HU14 3NZ","propertyType":"Detached","oldOrNew":"Established","duration":"Freehold","paon":"3","saon":"","street":"MANOR ROAD","locality":"SWANLAND","townOrCity":"NORTH FERRIBY","district":"THE EAST YORKSHIRE BOROUGH OF BEVERLEY","county":"HUMBERSIDE","ppdCategoryType":"Standard","recordStatus":"Addition","latitude":53.736616,"longitude":-0.494315,"postcodeStart":"HU14 3","postcode":["HU14","3NZ"]}
{"price":89950,"dateOfTransfer":"1995-06-09T00:00:00","postcodeFull":"HU14 3NP","propertyType":"Terraced","oldOrNew":"New build","duration":"Freehold","paon":"14","saon":"","street":"EASENBY CLOSE","locality":"SWANLAND","townOrCity":"NORTH FERRIBY","district":"THE EAST YORKSHIRE BOROUGH OF BEVERLEY","county":"HUMBERSIDE","ppdCategoryType":"Standard","recordStatus":"Addition","latitude":53.741652,"longitude":-0.480261,"postcodeStart":"HU14 3","postcode":["HU14","3NP"]}
{"price":51500,"dateOfTransfer":"1995-05-26T00:00:00","postcodeFull":"HU14 3QH","propertyType":"Semi-detached","oldOrNew":"Established","duration":"Freehold","paon":"65","saon":"","street":"DALE ROAD","locality":"SWANLAND","townOrCity":"NORTH FERRIBY","district":"THE EAST YORKSHIRE BOROUGH OF BEVERLEY","county":"HUMBERSIDE","ppdCategoryType":"Standard","recordStatus":"Addition","latitude":53.740888,"longitude":-0.49307,"postcodeStart":"HU14 3","postcode":["HU14","3QH"]}
{"price":128000,"dateOfTransfer":"1995-12-07T00:00:00","postcodeFull":"HU14 3ES","propertyType":"Detached","oldOrNew":"Established","duration":"Freehold","paon":"7A","saon":"","street":"MELTON ROAD","locality":"NORTH FERRIBY","townOrCity":"NORTH FERRIBY","district":"EAST RIDING OF YORKSHIRE","county":"EAST RIDING OF YORKSHIRE","ppdCategoryType":"Standard","recordStatus":"Addition","latitude":53.723183,"longitude":-0.513452,"postcodeStart":"HU14 3","postcode":["HU14","3ES"]}
{"price":54500,"dateOfTransfer":"1995-02-28T00:00:00","postcodeFull":"HU14 3EF","propertyType":"Semi-detached","oldOrNew":"Established","duration":"Freehold","paon":"9","saon":"","street":"THE RIDINGS","locality":"NORTH FERRIBY","townOrCity":"NORTH FERRIBY","district":"THE EAST YORKSHIRE BOROUGH OF BEVERLEY","county":"HUMBERSIDE","ppdCategoryType":"Standard","recordStatus":"Addition","latitude":53.716689,"longitude":-0.504528,"postcodeStart":"HU14 3","postcode":["HU14","3EF"]}
{"price":165000,"dateOfTransfer":"1995-06-28T00:00:00","postcodeFull":"HU14 3RL","propertyType":"Detached","oldOrNew":"New build","duration":"Freehold","paon":"16","saon":"","street":"ST BARNABAS DRIVE","locality":"SWANLAND","townOrCity":"NORTH FERRIBY","district":"THE EAST YORKSHIRE BOROUGH OF BEVERLEY","county":"HUMBERSIDE","ppdCategoryType":"Standard","recordStatus":"Addition","latitude":53.742493,"longitude":-0.484218,"postcodeStart":"HU14 3","postcode":["HU14","3RL"]}
{"price":72000,"dateOfTransfer":"1995-05-12T00:00:00","postcodeFull":"HU14 3DU","propertyType":"Semi-detached","oldOrNew":"Established","duration":"Freehold","paon":"51","saon":"","street":"SOUTHFIELD DRIVE","locality":"NORTH FERRIBY","townOrCity":"NORTH FERRIBY","district":"THE EAST YORKSHIRE BOROUGH OF BEVERLEY","county":"HUMBERSIDE","ppdCategoryType":"Standard","recordStatus":"Addition","latitude":53.713515,"longitude":-0.510944,"postcodeStart":"HU14 3","postcode":["HU14","3DU"]}
{"price":90000,"dateOfTransfer":"1995-01-20T00:00:00","postcodeFull":"HU14 3RB","propertyType":"Detached","oldOrNew":"New build","duration":"Freehold","paon":"70A","saon":"","street":"NORTHFIELD","locality":"SWANLAND","townOrCity":"NORTH FERRIBY","district":"THE EAST YORKSHIRE BOROUGH OF BEVERLEY","county":"HUMBERSIDE","ppdCategoryType":"Standard","recordStatus":"Addition","latitude":53.741916,"longitude":-0.488962,"postcodeStart":"HU14 3","postcode":["HU14","3RB"]}
{"price":56000,"dateOfTransfer":"1995-11-24T00:00:00","postcodeFull":"HU14 3AJ","propertyType":"Semi-detached","oldOrNew":"Established","duration":"Freehold","paon":"30","saon":"","street":"NEW WALK","locality":"NORTH FERRIBY","townOrCity":"NORTH FERRIBY","district":"THE EAST YORKSHIRE BOROUGH OF BEVERLEY","county":"HUMBERSIDE","ppdCategoryType":"Standard","recordStatus":"Addition","latitude":53.718724,"longitude":-0.504789,"postcodeStart":"HU14 3","postcode":["HU14","3AJ"]}
{"price":110000,"dateOfTransfer":"1995-06-02T00:00:00","postcodeFull":"HU14 3ET","propertyType":"Detached","oldOrNew":"Established","duration":"Freehold","paon":"26","saon":"","street":"MELTON ROAD","locality":"NORTH FERRIBY","townOrCity":"NORTH FERRIBY","district":"THE EAST YORKSHIRE BOROUGH OF BEVERLEY","county":"HUMBERSIDE","ppdCategoryType":"Standard","recordStatus":"Addition","latitude":53.723664,"longitude":-0.512752,"postcodeStart":"HU14 3","postcode":["HU14","3ET"]}
{"price":38000,"dateOfTransfer":"1995-09-15T00:00:00","postcodeFull":"HU14 3QJ","propertyType":"Terraced","oldOrNew":"Established","duration":"Freehold","paon":"14","saon":"","street":"DALE ROAD","locality":"SWANLAND","townOrCity":"NORTH FERRIBY","district":"THE EAST YORKSHIRE BOROUGH OF BEVERLEY","county":"HUMBERSIDE","ppdCategoryType":"Standard","recordStatus":"Addition","latitude":53.740999,"longitude":-0.492596,"postcodeStart":"HU14 3","postcode":["HU14","3QJ"]}
{"price":170000,"dateOfTransfer":"1995-01-03T00:00:00","postcodeFull":"HU14 3DG","propertyType":"Detached","oldOrNew":"Established","duration":"Freehold","paon":"11","saon":"","street":"STATION ROAD","locality":"NORTH FERRIBY","townOrCity":"NORTH FERRIBY","district":"THE EAST YORKSHIRE BOROUGH OF BEVERLEY","county":"HUMBERSIDE","ppdCategoryType":"Standard","recordStatus":"Addition","latitude":53.719816,"longitude":-0.507312,"postcodeStart":"HU14 3","postcode":["HU14","3DG"]}
{"price":58000,"dateOfTransfer":"1995-04-21T00:00:00","postcodeFull":"HU14 3DT","propertyType":"Semi-detached","oldOrNew":"Established","duration":"Freehold","paon":"46","saon":"","street":"RIVERVIEW AVENUE","locality":"NORTH FERRIBY","townOrCity":"NORTH FERRIBY","district":"THE EAST YORKSHIRE BOROUGH OF BEVERLEY","county":"HUMBERSIDE","ppdCategoryType":"Standard","recordStatus":"Addition","latitude":53.715073,"longitude":-0.51192,"postcodeStart":"HU14 3","postcode":["HU14","3DT"]}
{"price":140000,"dateOfTransfer":"1995-12-08T00:00:00","postcodeFull":"HU14 3QH","propertyType":"Detached","oldOrNew":"New build","duration":"Freehold","paon":"93","saon":"","street":"DALE ROAD","locality":"SWANLAND","townOrCity":"NORTH FERRIBY","district":"EAST RIDING OF YORKSHIRE","county":"EAST RIDING OF YORKSHIRE","ppdCategoryType":"Standard","recordStatus":"Addition","latitude":53.740888,"longitude":-0.49307,"postcodeStart":"HU14 3","postcode":["HU14","3QH"]}
{"price":72000,"dateOfTransfer":"1995-12-08T00:00:00","postcodeFull":"HU14 3RB","propertyType":"Detached","oldOrNew":"Established","duration":"Freehold","paon":"42","saon":"","street":"NORTHFIELD","locality":"SWANLAND","townOrCity":"NORTH FERRIBY","district":"THE EAST YORKSHIRE BOROUGH OF BEVERLEY","county":"HUMBERSIDE","ppdCategoryType":"Standard","recordStatus":"Addition","latitude":53.741916,"longitude":-0.488962,"postcodeStart":"HU14 3","postcode":["HU14","3RB"]}
{"price":53950,"dateOfTransfer":"1995-10-10T00:00:00","postcodeFull":"HU14 3EL","propertyType":"Semi-detached","oldOrNew":"Established","duration":"Freehold","paon":"22","saon":"","street":"INGS LANE","locality":"NORTH FERRIBY","townOrCity":"NORTH FERRIBY","district":"THE EAST YORKSHIRE BOROUGH OF BEVERLEY","county":"HUMBERSIDE","ppdCategoryType":"Standard","recordStatus":"Addition","latitude":53.71631,"longitude":-0.50436,"postcodeStart":"HU14 3","postcode":["HU14","3EL"]}
{"price":54750,"dateOfTransfer":"1995-09-01T00:00:00","postcodeFull":"HU14 3DW","propertyType":"Terraced","oldOrNew":"Established","duration":"Freehold","paon":"8","saon":"","street":"HUMBER ROAD","locality":"NORTH FERRIBY","townOrCity":"NORTH FERRIBY","district":"THE EAST YORKSHIRE BOROUGH OF BEVERLEY","county":"HUMBERSIDE","ppdCategoryType":"Standard","recordStatus":"Addition","latitude":53.715401,"longitude":-0.507938,"postcodeStart":"HU14 3","postcode":["HU14","3DW"]}
{"price":146950,"dateOfTransfer":"1995-05-26T00:00:00","postcodeFull":"HU14 3QA","propertyType":"Detached","oldOrNew":"Established","duration":"Freehold","paon":"6","saon":"","street":"BEECH GROVE","locality":"SWANLAND","townOrCity":"NORTH FERRIBY","district":"THE EAST YORKSHIRE BOROUGH OF BEVERLEY","county":"HUMBERSIDE","ppdCategoryType":"Standard","recordStatus":"Addition","latitude":53.740562,"longitude":-0.484363,"postcodeStart":"HU14 3","postcode":["HU14","3QA"]}
{"price":63500,"dateOfTransfer":"1995-03-24T00:00:00","postcodeFull":"HU14 3DY","propertyType":"Semi-detached","oldOrNew":"Established","duration":"Freehold","paon":"20","saon":"","street":"RIVERVIEW AVENUE","locality":"NORTH FERRIBY","townOrCity":"NORTH FERRIBY","district":"THE EAST YORKSHIRE BOROUGH OF BEVERLEY","county":"HUMBERSIDE","ppdCategoryType":"Standard","recordStatus":"Addition","latitude":53.71534,"longitude":-0.509501,"postcodeStart":"HU14 3","postcode":["HU14","3DY"]}
{"price":97500,"dateOfTransfer":"1995-11-10T00:00:00","postcodeFull":"HU14 3JX","propertyType":"Detached","oldOrNew":"Established","duration":"Freehold","paon":"12","saon":"","street":"CROFT PARK","locality":"NORTH FERRIBY","townOrCity":"NORTH FERRIBY","district":"EAST RIDING OF YORKSHIRE","county":"EAST RIDING OF YORKSHIRE","ppdCategoryType":"Standard","recordStatus":"Addition","latitude":53.727896,"longitude":-0.510002,"postcodeStart":"HU14 3","postcode":["HU14","3JX"]}
{"price":152950,"dateOfTransfer":"1995-10-31T00:00:00","postcodeFull":"HU14 3NT","propertyType":"Detached","oldOrNew":"New build","duration":"Freehold","paon":"9","saon":"","street":"TODDS CLOSE","locality":"SWANLAND","townOrCity":"NORTH FERRIBY","district":"THE EAST YORKSHIRE BOROUGH OF BEVERLEY","county":"HUMBERSIDE","ppdCategoryType":"Standard","recordStatus":"Addition","latitude":53.737696,"longitude":-0.480919,"postcodeStart":"HU14 3","postcode":["HU14","3NT"]}
{"price":56000,"dateOfTransfer":"1995-05-05T00:00:00","postcodeFull":"HU14 3QB","propertyType":"Detached","oldOrNew":"Established","duration":"Freehold","paon":"2A","saon":"","street":"MERE WAY","locality":"SWANLAND","townOrCity":"NORTH FERRIBY","district":"THE EAST YORKSHIRE BOROUGH OF BEVERLEY","county":"HUMBERSIDE","ppdCategoryType":"Standard","recordStatus":"Addition","latitude":53.74009,"longitude":-0.491067,"postcodeStart":"HU14 3","postcode":["HU14","3QB"]}
{"price":93000,"dateOfTransfer":"1995-11-23T00:00:00","postcodeFull":"HU14 3HZ","propertyType":"Detached","oldOrNew":"Established","duration":"Freehold","paon":"34","saon":"","street":"ST JAMES ROAD","locality":"MELTON","townOrCity":"NORTH FERRIBY","district":"THE EAST YORKSHIRE BOROUGH OF BEVERLEY","county":"HUMBERSIDE","ppdCategoryType":"Standard","recordStatus":"Addition","latitude":53.727704,"longitude":-0.529512,"postcodeStart":"HU14 3","postcode":["HU14","3HZ"]}
{"price":159950,"dateOfTransfer":"1995-08-31T00:00:00","postcodeFull":"HU14 3NT","propertyType":"Detached","oldOrNew":"New build","duration":"Freehold","paon":"7","saon":"","street":"TODDS CLOSE","locality":"SWANLAND","townOrCity":"NORTH FERRIBY","district":"THE EAST YORKSHIRE BOROUGH OF BEVERLEY","county":"HUMBERSIDE","ppdCategoryType":"Standard","recordStatus":"Addition","latitude":53.737696,"longitude":-0.480919,"postcodeStart":"HU14 3","postcode":["HU14","3NT"]}
{"price":69250,"dateOfTransfer":"1995-04-21T00:00:00","postcodeFull":"HU14 3DD","propertyType":"Semi-detached","oldOrNew":"Established","duration":"Freehold","paon":"4","saon":"","street":"LOW STREET","locality":"NORTH FERRIBY","townOrCity":"NORTH FERRIBY","district":"THE EAST YORKSHIRE BOROUGH OF BEVERLEY","county":"HUMBERSIDE","ppdCategoryType":"Standard","recordStatus":"Addition","latitude":53.721228,"longitude":-0.505155,"postcodeStart":"HU14 3","postcode":["HU14","3DD"]}
{"price":56000,"dateOfTransfer":"1995-11-17T00:00:00","postcodeFull":"HU14 3HP","propertyType":"Semi-detached","oldOrNew":"Established","duration":"Freehold","paon":"18","saon":"","street":"MELTON OLD ROAD","locality":"MELTON","townOrCity":"NORTH FERRIBY","district":"THE EAST YORKSHIRE BOROUGH OF BEVERLEY","county":"HUMBERSIDE","ppdCategoryType":"Standard","recordStatus":"Addition","latitude":53.726583,"longitude":-0.530269,"postcodeStart":"HU14 3","postcode":["HU14","3HP"]}
{"price":125000,"dateOfTransfer":"1995-09-01T00:00:00","postcodeFull":"HU14 3EE","propertyType":"Detached","oldOrNew":"Established","duration":"Freehold","paon":"7","saon":"","street":"COLLIER CLOSE","locality":"NORTH FERRIBY","townOrCity":"NORTH FERRIBY","district":"THE EAST YORKSHIRE BOROUGH OF BEVERLEY","county":"HUMBERSIDE","ppdCategoryType":"Standard","recordStatus":"Addition","latitude":53.718847,"longitude":-0.508862,"postcodeStart":"HU14 3","postcode":["HU14","3EE"]}
{"price":40000,"dateOfTransfer":"1995-07-28T00:00:00","postcodeFull":"HU14 3QL","propertyType":"Terraced","oldOrNew":"Established","duration":"Freehold","paon":"27","saon":"","street":"DALE CLOSE","locality":"SWANLAND","townOrCity":"NORTH FERRIBY","district":"THE EAST YORKSHIRE BOROUGH OF BEVERLEY","county":"HUMBERSIDE","ppdCategoryType":"Standard","recordStatus":"Addition","latitude":53.741151,"longitude":-0.491833,"postcodeStart":"HU14 3","postcode":["HU14","3QL"]}
{"price":158950,"dateOfTransfer":"1995-06-23T00:00:00","postcodeFull":"HU14 3NU","propertyType":"Detached","oldOrNew":"New build","duration":"Freehold","paon":"10","saon":"","street":"STYLES CROFT","locality":"SWANLAND","townOrCity":"NORTH FERRIBY","district":"THE EAST YORKSHIRE BOROUGH OF BEVERLEY","county":"HUMBERSIDE","ppdCategoryType":"Standard","recordStatus":"Addition","latitude":53.738702,"longitude":-0.481565,"postcodeStart":"HU14 3","postcode":["HU14","3NU"]}
{"price":68000,"dateOfTransfer":"1995-11-27T00:00:00","postcodeFull":"HU14 3PQ","propertyType":"Flat/Maisonette/Townhouse","oldOrNew":"Established","duration":"Leasehold","paon":"33","saon":"","street":"HALDENBY COURT","locality":"SWANLAND","townOrCity":"NORTH FERRIBY","district":"THE EAST YORKSHIRE BOROUGH OF BEVERLEY","county":"HUMBERSIDE","ppdCategoryType":"Standard","recordStatus":"Addition","latitude":53.737767,"longitude":-0.493637,"postcodeStart":"HU14 3","postcode":["HU14","3PQ"]}
{"price":75000,"dateOfTransfer":"1995-02-17T00:00:00","postcodeFull":"HU14 3QT","propertyType":"Semi-detached","oldOrNew":"Established","duration":"Freehold","paon":"30","saon":"","street":"DOWER RISE","locality":"SWANLAND","townOrCity":"NORTH FERRIBY","district":"THE EAST YORKSHIRE BOROUGH OF BEVERLEY","county":"HUMBERSIDE","ppdCategoryType":"Standard","recordStatus":"Addition","latitude":53.741019,"longitude":-0.488486,"postcodeStart":"HU14 3","postcode":["HU14","3QT"]}
{"price":83000,"dateOfTransfer":"1995-04-13T00:00:00","postcodeFull":"HU14 3DZ","propertyType":"Semi-detached","oldOrNew":"Established","duration":"Freehold","paon":"19","saon":"","street":"DERWENT AVENUE","locality":"NORTH FERRIBY","townOrCity":"NORTH FERRIBY","district":"THE EAST YORKSHIRE BOROUGH OF BEVERLEY","county":"HUMBERSIDE","ppdCategoryType":"Standard","recordStatus":"Addition","latitude":53.715719,"longitude":-0.510973,"postcodeStart":"HU14 3","postcode":["HU14","3DZ"]}
{"price":62000,"dateOfTransfer":"1995-09-15T00:00:00","postcodeFull":"HU14 3DF","propertyType":"Semi-detached","oldOrNew":"Established","duration":"Freehold","paon":"10","saon":"","street":"TURNERS LANE","locality":"NORTH FERRIBY","townOrCity":"NORTH FERRIBY","district":"THE EAST YORKSHIRE BOROUGH OF BEVERLEY","county":"HUMBERSIDE","ppdCategoryType":"Standard","recordStatus":"Addition","latitude":53.722043,"longitude":-0.50566,"postcodeStart":"HU14 3","postcode":["HU14","3DF"]}
{"price":70000,"dateOfTransfer":"1995-02-27T00:00:00","postcodeFull":"HU14 3RG","propertyType":"Detached","oldOrNew":"Established","duration":"Freehold","paon":"43","saon":"","street":"NORTHFIELD","locality":"SWANLAND","townOrCity":"NORTH FERRIBY","district":"THE EAST YORKSHIRE BOROUGH OF BEVERLEY","county":"HUMBERSIDE","ppdCategoryType":"Standard","recordStatus":"Addition","latitude":53.742942,"longitude":-0.488433,"postcodeStart":"HU14 3","postcode":["HU14","3RG"]}
{"price":62995,"dateOfTransfer":"1995-05-26T00:00:00","postcodeFull":"HU14 3DX","propertyType":"Semi-detached","oldOrNew":"Established","duration":"Freehold","paon":"50","saon":"","street":"SOUTHFIELD DRIVE","locality":"","townOrCity":"NORTH FERRIBY","district":"EAST RIDING OF YORKSHIRE","county":"EAST RIDING OF YORKSHIRE","ppdCategoryType":"Standard","recordStatus":"Addition","latitude":53.713838,"longitude":-0.510903,"postcodeStart":"HU14 3","postcode":["HU14","3DX"]}
{"price":130000,"dateOfTransfer":"1995-01-06T00:00:00","postcodeFull":"HU14 3PE","propertyType":"Semi-detached","oldOrNew":"Established","duration":"Freehold","paon":"36","saon":"","street":"WEST END","locality":"SWANLAND","townOrCity":"NORTH FERRIBY","district":"THE EAST YORKSHIRE BOROUGH OF BEVERLEY","county":"HUMBERSIDE","ppdCategoryType":"Standard","recordStatus":"Addition","latitude":53.738141,"longitude":-0.494093,"postcodeStart":"HU14 3","postcode":["HU14","3PE"]}
{"price":152000,"dateOfTransfer":"1995-07-18T00:00:00","postcodeFull":"HU14 3LZ","propertyType":"Detached","oldOrNew":"Established","duration":"Freehold","paon":"MANDALAY","saon":"","street":"KEMP ROAD","locality":"SWANLAND","townOrCity":"NORTH FERRIBY","district":"THE EAST YORKSHIRE BOROUGH OF BEVERLEY","county":"HUMBERSIDE","ppdCategoryType":"Standard","recordStatus":"Addition","latitude":53.734133,"longitude":-0.491379,"postcodeStart":"HU14 3","postcode":["HU14","3LZ"]}
{"price":34750,"dateOfTransfer":"1995-05-02T00:00:00","postcodeFull":"HU14 3AB","propertyType":"Terraced","oldOrNew":"Established","duration":"Freehold","paon":"6","saon":"","street":"GRANGE LANE","locality":"NORTH FERRIBY","townOrCity":"NORTH FERRIBY","district":"THE EAST YORKSHIRE BOROUGH OF BEVERLEY","county":"HUMBERSIDE","ppdCategoryType":"Standard","recordStatus":"Addition","latitude":53.718009,"longitude":-0.502183,"postcodeStart":"HU14 3","postcode":["HU14","3AB"]}
{"price":65000,"dateOfTransfer":"1995-09-29T00:00:00","postcodeFull":"HU14 3QH","propertyType":"Semi-detached","oldOrNew":"Established","duration":"Freehold","paon":"75","saon":"","street":"DALE ROAD","locality":"SWANLAND","townOrCity":"NORTH FERRIBY","district":"THE EAST YORKSHIRE BOROUGH OF BEVERLEY","county":"HUMBERSIDE","ppdCategoryType":"Standard","recordStatus":"Addition","latitude":53.740888,"longitude":-0.49307,"postcodeStart":"HU14 3","postcode":["HU14","3QH"]}
{"price":90000,"dateOfTransfer":"1995-12-01T00:00:00","postcodeFull":"HU14 3EX","propertyType":"Detached","oldOrNew":"Established","duration":"Freehold","paon":"8","saon":"","street":"WEST PARKLANDS DRIVE","locality":"NORTH FERRIBY","townOrCity":"NORTH FERRIBY","district":"EAST RIDING OF YORKSHIRE","county":"EAST RIDING OF YORKSHIRE","ppdCategoryType":"Standard","recordStatus":"Addition","latitude":53.72424,"longitude":-0.512823,"postcodeStart":"HU14 3","postcode":["HU14","3EX"]}
{"price":84000,"dateOfTransfer":"1995-04-07T00:00:00","postcodeFull":"HU14 3RG","propertyType":"Detached","oldOrNew":"Established","duration":"Freehold","paon":"9","saon":"","street":"NORTHFIELD","locality":"SWANLAND","townOrCity":"NORTH FERRIBY","district":"THE EAST YORKSHIRE BOROUGH OF BEVERLEY","county":"HUMBERSIDE","ppdCategoryType":"Standard","recordStatus":"Addition","latitude":53.742942,"longitude":-0.488433,"postcodeStart":"HU14 3","postcode":["HU14","3RG"]}
{"price":155000,"dateOfTransfer":"1995-08-11T00:00:00","postcodeFull":"HU14 3JP","propertyType":"Detached","oldOrNew":"Established","duration":"Freehold","paon":"4","saon":"","street":"HIGH STREET","locality":"NORTH FERRIBY","townOrCity":"NORTH FERRIBY","district":"THE EAST YORKSHIRE BOROUGH OF BEVERLEY","county":"HUMBERSIDE","ppdCategoryType":"Standard","recordStatus":"Addition","latitude":53.723012,"longitude":-0.504987,"postcodeStart":"HU14 3","postcode":["HU14","3JP"]}
{"price":77000,"dateOfTransfer":"1995-10-31T00:00:00","postcodeFull":"HU14 3LD","propertyType":"Semi-detached","oldOrNew":"Established","duration":"Freehold","paon":"49","saon":"","street":"FERRIBY HIGH ROAD","locality":"NORTH FERRIBY","townOrCity":"NORTH FERRIBY","district":"EAST RIDING OF YORKSHIRE","county":"EAST RIDING OF YORKSHIRE","ppdCategoryType":"Standard","recordStatus":"Addition","latitude":53.720889,"longitude":-0.478266,"postcodeStart":"HU14 3","postcode":["HU14","3LD"]}
{"price":43500,"dateOfTransfer":"1995-06-23T00:00:00","postcodeFull":"HU14 3QL","propertyType":"Semi-detached","oldOrNew":"Established","duration":"Freehold","paon":"15","saon":"","street":"DALE CLOSE","locality":"SWANLAND","townOrCity":"NORTH FERRIBY","district":"THE EAST YORKSHIRE BOROUGH OF BEVERLEY","county":"HUMBERSIDE","ppdCategoryType":"Standard","recordStatus":"Addition","latitude":53.741151,"longitude":-0.491833,"postcodeStart":"HU14 3","postcode":["HU14","3QL"]}
{"price":25000,"dateOfTransfer":"1995-06-05T00:00:00","postcodeFull":"HU14 3QH","propertyType":"Terraced","oldOrNew":"Established","duration":"Freehold","paon":"33","saon":"","street":"DALE ROAD","locality":"SWANLAND","townOrCity":"NORTH FERRIBY","district":"THE EAST YORKSHIRE BOROUGH OF BEVERLEY","county":"HUMBERSIDE","ppdCategoryType":"Standard","recordStatus":"Addition","latitude":53.740888,"longitude":-0.49307,"postcodeStart":"HU14 3","postcode":["HU14","3QH"]}
{"price":64950,"dateOfTransfer":"1995-07-14T00:00:00","postcodeFull":"HU14 3JY","propertyType":"Terraced","oldOrNew":"Established","duration":"Freehold","paon":"63","saon":"","street":"WOODGATES LANE","locality":"NORTH FERRIBY","townOrCity":"NORTH FERRIBY","district":"EAST RIDING OF YORKSHIRE","county":"EAST RIDING OF YORKSHIRE","ppdCategoryType":"Standard","recordStatus":"Addition","latitude":53.727851,"longitude":-0.507836,"postcodeStart":"HU14 3","postcode":["HU14","3JY"]}
{"price":189950,"dateOfTransfer":"1995-05-12T00:00:00","postcodeFull":"HU14 3NQ","propertyType":"Detached","oldOrNew":"Established","duration":"Freehold","paon":"5","saon":"","street":"ON HILL","locality":"SWANLAND","townOrCity":"NORTH FERRIBY","district":"THE EAST YORKSHIRE BOROUGH OF BEVERLEY","county":"HUMBERSIDE","ppdCategoryType":"Standard","recordStatus":"Addition","latitude":53.739012,"longitude":-0.487558,"postcodeStart":"HU14 3","postcode":["HU14","3NQ"]}
{"price":113000,"dateOfTransfer":"1995-07-21T00:00:00","postcodeFull":"HU14 3EG","propertyType":"Detached","oldOrNew":"Established","duration":"Freehold","paon":"7","saon":"","street":"THE RISE","locality":"NORTH FERRIBY","townOrCity":"NORTH FERRIBY","district":"THE EAST YORKSHIRE BOROUGH OF BEVERLEY","county":"HUMBERSIDE","ppdCategoryType":"Standard","recordStatus":"Addition","latitude":53.724433,"longitude":-0.507823,"postcodeStart":"HU14 3","postcode":["HU14","3EG"]}
{"price":84000,"dateOfTransfer":"1995-08-25T00:00:00","postcodeFull":"HU14 3DS","propertyType":"Detached","oldOrNew":"Established","duration":"Freehold","paon":"27A","saon":"","street":"MARINE AVENUE","locality":"NORTH FERRIBY","townOrCity":"NORTH FERRIBY","district":"THE EAST YORKSHIRE BOROUGH OF BEVERLEY","county":"HUMBERSIDE","ppdCategoryType":"Standard","recordStatus":"Addition","latitude":53.716574,"longitude":-0.511836,"postcodeStart":"HU14 3","postcode":["HU14","3DS"]}
{"price":48000,"dateOfTransfer":"1995-06-12T00:00:00","postcodeFull":"HU14 3DS","propertyType":"Semi-detached","oldOrNew":"Established","duration":"Freehold","paon":"66","saon":"","street":"MARINE AVENUE","locality":"NORTH FERRIBY","townOrCity":"NORTH FERRIBY","district":"THE EAST YORKSHIRE BOROUGH OF BEVERLEY","county":"HUMBERSIDE","ppdCategoryType":"Standard","recordStatus":"Addition","latitude":53.716574,"longitude":-0.511836,"postcodeStart":"HU14 3","postcode":["HU14","3DS"]}
{"price":184950,"dateOfTransfer":"1995-03-31T00:00:00","postcodeFull":"HU14 3RL","propertyType":"Detached","oldOrNew":"New build","duration":"Freehold","paon":"14","saon":"","street":"ST BARNABAS DRIVE","locality":"SWANLAND","townOrCity":"NORTH FERRIBY","district":"THE EAST YORKSHIRE BOROUGH OF BEVERLEY","county":"HUMBERSIDE","ppdCategoryType":"Standard","recordStatus":"Addition","latitude":53.742493,"longitude":-0.484218,"postcodeStart":"HU14 3","postcode":["HU14","3RL"]}
{"price":73000,"dateOfTransfer":"1995-12-01T00:00:00","postcodeFull":"HU14 3DP","propertyType":"Semi-detached","oldOrNew":"Established","duration":"Freehold","paon":"17","saon":"","street":"REDCLIFF DRIVE","locality":"NORTH FERRIBY","townOrCity":"NORTH FERRIBY","district":"THE EAST YORKSHIRE BOROUGH OF BEVERLEY","county":"HUMBERSIDE","ppdCategoryType":"Standard","recordStatus":"Addition","latitude":53.713952,"longitude":-0.508489,"postcodeStart":"HU14 3","postcode":["HU14","3DP"]}
{"price":38750,"dateOfTransfer":"1995-01-30T00:00:00","postcodeFull":"HU14 3QP","propertyType":"Terraced","oldOrNew":"Established","duration":"Freehold","paon":"81A","saon":"","street":"MAIN STREET","locality":"SWANLAND","townOrCity":"NORTH FERRIBY","district":"THE EAST YORKSHIRE BOROUGH OF BEVERLEY","county":"HUMBERSIDE","ppdCategoryType":"Standard","recordStatus":"Addition","latitude":53.74043,"longitude":-0.488129,"postcodeStart":"HU14 3","postcode":["HU14","3QP"]}
{"price":47500,"dateOfTransfer":"1995-09-06T00:00:00","postcodeFull":"HU14 3HR","propertyType":"Semi-detached","oldOrNew":"Established","duration":"Freehold","paon":"18","saon":"","street":"REYNOLDS CLOSE","locality":"MELTON","townOrCity":"NORTH FERRIBY","district":"THE EAST YORKSHIRE BOROUGH OF BEVERLEY","county":"HUMBERSIDE","ppdCategoryType":"Standard","recordStatus":"Addition","latitude":53.726332,"longitude":-0.531924,"postcodeStart":"HU14 3","postcode":["HU14","3HR"]}
{"price":106000,"dateOfTransfer":"1995-03-01T00:00:00","postcodeFull":"HU14 3HP","propertyType":"Detached","oldOrNew":"Established","duration":"Freehold","paon":"19","saon":"","street":"MELTON OLD ROAD","locality":"MELTON","townOrCity":"NORTH FERRIBY","district":"THE EAST YORKSHIRE BOROUGH OF BEVERLEY","county":"HUMBERSIDE","ppdCategoryType":"Standard","recordStatus":"Addition","latitude":53.726583,"longitude":-0.530269,"postcodeStart":"HU14 3","postcode":["HU14","3HP"]}
{"price":52500,"dateOfTransfer":"1995-07-28T00:00:00","postcodeFull":"HU14 3PQ","propertyType":"Flat/Maisonette/Townhouse","oldOrNew":"New build","duration":"Leasehold","paon":"24","saon":"","street":"HALDENBY COURT","locality":"SWANLAND","townOrCity":"NORTH FERRIBY","district":"THE EAST YORKSHIRE BOROUGH OF BEVERLEY","county":"HUMBERSIDE","ppdCategoryType":"Standard","recordStatus":"Addition","latitude":53.737767,"longitude":-0.493637,"postcodeStart":"HU14 3","postcode":["HU14","3PQ"]}
{"price":220000,"dateOfTransfer":"1995-06-30T00:00:00","postcodeFull":"HU14 3NU","propertyType":"Detached","oldOrNew":"New build","duration":"Freehold","paon":"3","saon":"","street":"STYLES CROFT","locality":"SWANLAND","townOrCity":"NORTH FERRIBY","district":"THE EAST YORKSHIRE BOROUGH OF BEVERLEY","county":"HUMBERSIDE","ppdCategoryType":"Standard","recordStatus":"Addition","latitude":53.738702,"longitude":-0.481565,"postcodeStart":"HU14 3","postcode":["HU14","3NU"]}
{"price":50000,"dateOfTransfer":"1995-01-24T00:00:00","postcodeFull":"HU14 3JW","propertyType":"Semi-detached","oldOrNew":"Established","duration":"Freehold","paon":"11","saon":"","street":"SWANLAND HILL","locality":"NORTH FERRIBY","townOrCity":"NORTH FERRIBY","district":"THE EAST YORKSHIRE BOROUGH OF BEVERLEY","county":"HUMBERSIDE","ppdCategoryType":"Standard","recordStatus":"Addition","latitude":53.724072,"longitude":-0.503326,"postcodeStart":"HU14 3","postcode":["HU14","3JW"]}
{"price":54500,"dateOfTransfer":"1995-02-24T00:00:00","postcodeFull":"HU14 3PQ","propertyType":"Flat/Maisonette/Townhouse","oldOrNew":"New build","duration":"Leasehold","paon":"32","saon":"","street":"HALDENBY COURT","locality":"SWANLAND","townOrCity":"NORTH FERRIBY","district":"THE EAST YORKSHIRE BOROUGH OF BEVERLEY","county":"HUMBERSIDE","ppdCategoryType":"Standard","recordStatus":"Addition","latitude":53.737767,"longitude":-0.493637,"postcodeStart":"HU14 3","postcode":["HU14","3PQ"]}
{"price":52000,"dateOfTransfer":"1995-06-30T00:00:00","postcodeFull":"HU14 3DS","propertyType":"Semi-detached","oldOrNew":"Established","duration":"Freehold","paon":"39","saon":"","street":"MARINE AVENUE","locality":"NORTH FERRIBY","townOrCity":"NORTH FERRIBY","district":"THE EAST YORKSHIRE BOROUGH OF BEVERLEY","county":"HUMBERSIDE","ppdCategoryType":"Standard","recordStatus":"Addition","latitude":53.716574,"longitude":-0.511836,"postcodeStart":"HU14 3","postcode":["HU14","3DS"]}
{"price":63500,"dateOfTransfer":"1995-07-31T00:00:00","postcodeFull":"HU14 3DU","propertyType":"Detached","oldOrNew":"Established","duration":"Freehold","paon":"1","saon":"","street":"SOUTHFIELD DRIVE","locality":"NORTH FERRIBY","townOrCity":"NORTH FERRIBY","district":"THE EAST YORKSHIRE BOROUGH OF BEVERLEY","county":"HUMBERSIDE","ppdCategoryType":"Standard","recordStatus":"Addition","latitude":53.713515,"longitude":-0.510944,"postcodeStart":"HU14 3","postcode":["HU14","3DU"]}
{"price":58500,"dateOfTransfer":"1995-12-22T00:00:00","postcodeFull":"HU14 3HP","propertyType":"Semi-detached","oldOrNew":"Established","duration":"Freehold","paon":"3","saon":"","street":"MELTON OLD ROAD","locality":"MELTON","townOrCity":"NORTH FERRIBY","district":"THE EAST YORKSHIRE BOROUGH OF BEVERLEY","county":"HUMBERSIDE","ppdCategoryType":"Standard","recordStatus":"Addition","latitude":53.726583,"longitude":-0.530269,"postcodeStart":"HU14 3","postcode":["HU14","3HP"]}
{"price":215000,"dateOfTransfer":"1995-11-30T00:00:00","postcodeFull":"HU14 3NS","propertyType":"Detached","oldOrNew":"Established","duration":"Freehold","paon":"10","saon":"","street":"HUMBERDALE CLOSE","locality":"SWANLAND","townOrCity":"NORTH FERRIBY","district":"THE EAST YORKSHIRE BOROUGH OF BEVERLEY","county":"HUMBERSIDE","ppdCategoryType":"Standard","recordStatus":"Addition","latitude":53.735828,"longitude":-0.485989,"postcodeStart":"HU14 3","postcode":["HU14","3NS"]}
{"price":158950,"dateOfTransfer":"1995-06-30T00:00:00","postcodeFull":"HU14 3NU","propertyType":"Detached","oldOrNew":"New build","duration":"Freehold","paon":"9","saon":"","street":"STYLES CROFT","locality":"SWANLAND","townOrCity":"NORTH FERRIBY","district":"THE EAST YORKSHIRE BOROUGH OF BEVERLEY","county":"HUMBERSIDE","ppdCategoryType":"Standard","recordStatus":"Addition","latitude":53.738702,"longitude":-0.481565,"postcodeStart":"HU14 3","postcode":["HU14","3NU"]}
{"price":30000,"dateOfTransfer":"1995-11-03T00:00:00","postcodeFull":"HU14 3HE","propertyType":"Terraced","oldOrNew":"New build","duration":"Freehold","paon":"24","saon":"","street":"MELTON FIELDS","locality":"MELTON","townOrCity":"NORTH FERRIBY","district":"THE EAST YORKSHIRE BOROUGH OF BEVERLEY","county":"HUMBERSIDE","ppdCategoryType":"Standard","recordStatus":"Addition","latitude":53.723477,"longitude":-0.52346,"postcodeStart":"HU14 3","postcode":["HU14","3HE"]}
{"price":52000,"dateOfTransfer":"1995-05-19T00:00:00","postcodeFull":"HU14 3EL","propertyType":"Terraced","oldOrNew":"Established","duration":"Freehold","paon":"4","saon":"","street":"INGS LANE","locality":"NORTH FERRIBY","townOrCity":"NORTH FERRIBY","district":"THE EAST YORKSHIRE BOROUGH OF BEVERLEY","county":"HUMBERSIDE","ppdCategoryType":"Standard","recordStatus":"Addition","latitude":53.71631,"longitude":-0.50436,"postcodeStart":"HU14 3","postcode":["HU14","3EL"]}
{"price":135000,"dateOfTransfer":"1995-12-18T00:00:00","postcodeFull":"HU14 3LS","propertyType":"Detached","oldOrNew":"Established","duration":"Freehold","paon":"22","saon":"","street":"WEST LEYS PARK","locality":"SWANLAND","townOrCity":"NORTH FERRIBY","district":"THE EAST YORKSHIRE BOROUGH OF BEVERLEY","county":"HUMBERSIDE","ppdCategoryType":"Standard","recordStatus":"Addition","latitude":53.733401,"longitude":-0.495976,"postcodeStart":"HU14 3","postcode":["HU14","3LS"]}
{"price":57950,"dateOfTransfer":"1995-04-12T00:00:00","postcodeFull":"HU14 3QG","propertyType":"Semi-detached","oldOrNew":"Established","duration":"Freehold","paon":"74","saon":"","street":"CHANTRY WAY EAST","locality":"SWANLAND","townOrCity":"NORTH FERRIBY","district":"THE EAST YORKSHIRE BOROUGH OF BEVERLEY","county":"HUMBERSIDE","ppdCategoryType":"Standard","recordStatus":"Addition","latitude":53.73997,"longitude":-0.493589,"postcodeStart":"HU14 3","postcode":["HU14","3QG"]}
{"price":69000,"dateOfTransfer":"1995-05-31T00:00:00","postcodeFull":"HU14 3BX","propertyType":"Semi-detached","oldOrNew":"Established","duration":"Freehold","paon":"3","saon":"","street":"EAST MOUNT","locality":"NORTH FERRIBY","townOrCity":"NORTH FERRIBY","district":"THE EAST YORKSHIRE BOROUGH OF BEVERLEY","county":"HUMBERSIDE","ppdCategoryType":"Standard","recordStatus":"Addition","latitude":53.719785,"longitude":-0.504085,"postcodeStart":"HU14 3","postcode":["HU14","3BX"]}
{"price":33000,"dateOfTransfer":"1995-06-16T00:00:00","postcodeFull":"HU14 3HE","propertyType":"Semi-detached","oldOrNew":"New build","duration":"Freehold","paon":"7","saon":"","street":"MELTON FIELDS","locality":"MELTON","townOrCity":"NORTH FERRIBY","district":"THE EAST YORKSHIRE BOROUGH OF BEVERLEY","county":"HUMBERSIDE","ppdCategoryType":"Standard","recordStatus":"Addition","latitude":53.723477,"longitude":-0.52346,"postcodeStart":"HU14 3","postcode":["HU14","3HE"]}
{"price":97200,"dateOfTransfer":"1995-04-28T00:00:00","postcodeFull":"HU14 3NW","propertyType":"Flat/Maisonette/Townhouse","oldOrNew":"New build","duration":"Leasehold","paon":"SWANLAND HALL","saon":"FLAT 1","street":"HALL PARK","locality":"SWANLAND","townOrCity":"NORTH FERRIBY","district":"THE EAST YORKSHIRE BOROUGH OF BEVERLEY","county":"HUMBERSIDE","ppdCategoryType":"Standard","recordStatus":"Addition","latitude":53.738388,"longitude":-0.484472,"postcodeStart":"HU14 3","postcode":["HU14","3NW"]}
{"price":100000,"dateOfTransfer":"1995-12-15T00:00:00","postcodeFull":"HU14 3HP","propertyType":"Detached","oldOrNew":"Established","duration":"Freehold","paon":"19","saon":"","street":"MELTON OLD ROAD","locality":"MELTON","townOrCity":"NORTH FERRIBY","district":"THE EAST YORKSHIRE BOROUGH OF BEVERLEY","county":"HUMBERSIDE","ppdCategoryType":"Standard","recordStatus":"Addition","latitude":53.726583,"longitude":-0.530269,"postcodeStart":"HU14 3","postcode":["HU14","3HP"]}
{"price":130000,"dateOfTransfer":"1995-08-09T00:00:00","postcodeFull":"HU14 3AT","propertyType":"Semi-detached","oldOrNew":"Established","duration":"Freehold","paon":"23","saon":"","street":"THE TRIANGLE","locality":"NORTH FERRIBY","townOrCity":"NORTH FERRIBY","district":"THE EAST YORKSHIRE BOROUGH OF BEVERLEY","county":"HUMBERSIDE","ppdCategoryType":"Standard","recordStatus":"Addition","latitude":53.718483,"longitude":-0.512845,"postcodeStart":"HU14 3","postcode":["HU14","3AT"]}
{"price":84000,"dateOfTransfer":"1995-06-22T00:00:00","postcodeFull":"HU14 3NP","propertyType":"Terraced","oldOrNew":"New build","duration":"Freehold","paon":"15","saon":"","street":"EASENBY CLOSE","locality":"SWANLAND","townOrCity":"NORTH FERRIBY","district":"THE EAST YORKSHIRE BOROUGH OF BEVERLEY","county":"HUMBERSIDE","ppdCategoryType":"Standard","recordStatus":"Addition","latitude":53.741652,"longitude":-0.480261,"postcodeStart":"HU14 3","postcode":["HU14","3NP"]}
{"price":149950,"dateOfTransfer":"1995-05-31T00:00:00","postcodeFull":"HU14 3NU","propertyType":"Detached","oldOrNew":"New build","duration":"Freehold","paon":"11","saon":"","street":"STYLES CROFT","locality":"SWANLAND","townOrCity":"NORTH FERRIBY","district":"THE EAST YORKSHIRE BOROUGH OF BEVERLEY","county":"HUMBERSIDE","ppdCategoryType":"Standard","recordStatus":"Addition","latitude":53.738702,"longitude":-0.481565,"postcodeStart":"HU14 3","postcode":["HU14","3NU"]}
{"price":48500,"dateOfTransfer":"1995-02-16T00:00:00","postcodeFull":"HU14 3AB","propertyType":"Terraced","oldOrNew":"Established","duration":"Freehold","paon":"2","saon":"","street":"GRANGE LANE","locality":"NORTH FERRIBY","townOrCity":"NORTH FERRIBY","district":"THE EAST YORKSHIRE BOROUGH OF BEVERLEY","county":"HUMBERSIDE","ppdCategoryType":"Standard","recordStatus":"Addition","latitude":53.718009,"longitude":-0.502183,"postcodeStart":"HU14 3","postcode":["HU14","3AB"]}
{"price":54000,"dateOfTransfer":"1995-06-02T00:00:00","postcodeFull":"HU14 3QF","propertyType":"Semi-detached","oldOrNew":"Established","duration":"Freehold","paon":"43","saon":"","street":"CHANTRY WAY EAST","locality":"SWANLAND","townOrCity":"NORTH FERRIBY","district":"THE EAST YORKSHIRE BOROUGH OF BEVERLEY","county":"HUMBERSIDE","ppdCategoryType":"Standard","recordStatus":"Addition","latitude":53.740496,"longitude":-0.494085,"postcodeStart":"HU14 3","postcode":["HU14","3QF"]}
{"price":140000,"dateOfTransfer":"1995-12-11T00:00:00","postcodeFull":"HU14 3PZ","propertyType":"Detached","oldOrNew":"New build","duration":"Freehold","paon":"3","saon":"","street":"THE GREEN","locality":"SWANLAND","townOrCity":"NORTH FERRIBY","district":"EAST RIDING OF YORKSHIRE","county":"EAST RIDING OF YORKSHIRE","ppdCategoryType":"Standard","recordStatus":"Addition","latitude":53.743243,"longitude":-0.495842,"postcodeStart":"HU14 3","postcode":["HU14","3PZ"]}
{"price":55000,"dateOfTransfer":"1996-11-29T00:00:00","postcodeFull":"HU14 3QB","propertyType":"Semi-detached","oldOrNew":"Established","duration":"Freehold","paon":"20","saon":"","street":"MERE WAY","locality":"SWANLAND","townOrCity":"NORTH FERRIBY","district":"EAST RIDING OF YORKSHIRE","county":"EAST RIDING OF YORKSHIRE","ppdCategoryType":"Standard","recordStatus":"Addition","latitude":53.74009,"longitude":-0.491067,"postcodeStart":"HU14 3","postcode":["HU14","3QB"]}
{"price":47000,"dateOfTransfer":"1996-08-30T00:00:00","postcodeFull":"HU14 3ES","propertyType":"Semi-detached","oldOrNew":"Established","duration":"Freehold","paon":"17","saon":"","street":"MELTON ROAD","locality":"NORTH FERRIBY","townOrCity":"NORTH FERRIBY","district":"EAST RIDING OF YORKSHIRE","county":"EAST RIDING OF YORKSHIRE","ppdCategoryType":"Standard","recordStatus":"Addition","latitude":53.723183,"longitude":-0.513452,"postcodeStart":"HU14 3","postcode":["HU14","3ES"]}
{"price":73000,"dateOfTransfer":"1996-09-27T00:00:00","postcodeFull":"HU14 3JW","propertyType":"Semi-detached","oldOrNew":"Established","duration":"Freehold","paon":"25","saon":"","street":"SWANLAND HILL","locality":"NORTH FERRIBY","townOrCity":"NORTH FERRIBY","district":"EAST RIDING OF YORKSHIRE","county":"EAST RIDING OF YORKSHIRE","ppdCategoryType":"Standard","recordStatus":"Addition","latitude":53.724072,"longitude":-0.503326,"postcodeStart":"HU14 3","postcode":["HU14","3JW"]}
{"price":220000,"dateOfTransfer":"1996-07-05T00:00:00","postcodeFull":"HU14 3NN","propertyType":"Detached","oldOrNew":"Established","duration":"Freehold","paon":"19","saon":"","street":"STRATTON PARK","locality":"SWANLAND","townOrCity":"NORTH FERRIBY","district":"EAST RIDING OF YORKSHIRE","county":"EAST RIDING OF YORKSHIRE","ppdCategoryType":"Standard","recordStatus":"Addition","latitude":53.738036,"longitude":-0.485758,"postcodeStart":"HU14 3","postcode":["HU14","3NN"]}
{"price":44950,"dateOfTransfer":"1996-12-20T00:00:00","postcodeFull":"HU14 3DN","propertyType":"Terraced","oldOrNew":"Established","duration":"Freehold","paon":"HOLLY COTTAGE, 1","saon":"","street":"HUMBER ROAD","locality":"NORTH FERRIBY","townOrCity":"NORTH FERRIBY","district":"EAST RIDING OF YORKSHIRE","county":"EAST RIDING OF YORKSHIRE","ppdCategoryType":"Standard","recordStatus":"Addition","latitude":53.71526,"longitude":-0.5067,"postcodeStart":"HU14 3","postcode":["HU14","3DN"]}
{"price":98000,"dateOfTransfer":"1996-01-06T00:00:00","postcodeFull":"HU14 3HZ","propertyType":"Detached","oldOrNew":"Established","duration":"Freehold","paon":"32","saon":"","street":"ST JAMES ROAD","locality":"MELTON","townOrCity":"NORTH FERRIBY","district":"EAST RIDING OF YORKSHIRE","county":"EAST RIDING OF YORKSHIRE","ppdCategoryType":"Standard","recordStatus":"Addition","latitude":53.727704,"longitude":-0.529512,"postcodeStart":"HU14 3","postcode":["HU14","3HZ"]}
{"price":126000,"dateOfTransfer":"1996-05-02T00:00:00","postcodeFull":"HU14 3JG","propertyType":"Detached","oldOrNew":"Established","duration":"Freehold","paon":"11","saon":"","street":"MOUNT VIEW","locality":"NORTH FERRIBY","townOrCity":"NORTH FERRIBY","district":"EAST RIDING OF YORKSHIRE","county":"EAST RIDING OF YORKSHIRE","ppdCategoryType":"Standard","recordStatus":"Addition","latitude":53.727179,"longitude":-0.50452,"postcodeStart":"HU14 3","postcode":["HU14","3JG"]}
{"price":73000,"dateOfTransfer":"1996-04-26T00:00:00","postcodeFull":"HU14 3DT","propertyType":"Semi-detached","oldOrNew":"Established","duration":"Freehold","paon":"67","saon":"","street":"RIVERVIEW AVENUE","locality":"NORTH FERRIBY","townOrCity":"NORTH FERRIBY","district":"EAST RIDING OF YORKSHIRE","county":"EAST RIDING OF YORKSHIRE","ppdCategoryType":"Standard","recordStatus":"Addition","latitude":53.715073,"longitude":-0.51192,"postcodeStart":"HU14 3","postcode":["HU14","3DT"]}
{"price":80925,"dateOfTransfer":"1996-11-21T00:00:00","postcodeFull":"HU14 3PJ","propertyType":"Detached","oldOrNew":"Established","duration":"Freehold","paon":"43","saon":"","street":"MILL ROAD","locality":"SWANLAND","townOrCity":"NORTH FERRIBY","district":"EAST RIDING OF YORKSHIRE","county":"EAST RIDING OF YORKSHIRE","ppdCategoryType":"Standard","recordStatus":"Addition","latitude":53.736652,"longitude":-0.501369,"postcodeStart":"HU14 3","postcode":["HU14","3PJ"]}
{"price":106000,"dateOfTransfer":"1996-09-18T00:00:00","postcodeFull":"HU14 3HU","propertyType":"Detached","oldOrNew":"Established","duration":"Freehold","paon":"19","saon":"","street":"MELTON BOTTOM","locality":"MELTON","townOrCity":"NORTH FERRIBY","district":"EAST RIDING OF YORKSHIRE","county":"EAST RIDING OF YORKSHIRE","ppdCategoryType":"Standard","recordStatus":"Addition","latitude":53.728803,"longitude":-0.530252,"postcodeStart":"HU14 3","postcode":["HU14","3HU"]}
{"price":117000,"dateOfTransfer":"1996-07-12T00:00:00","postcodeFull":"HU14 3AT","propertyType":"Semi-detached","oldOrNew":"Established","duration":"Freehold","paon":"31","saon":"","street":"THE TRIANGLE","locality":"NORTH FERRIBY","townOrCity":"NORTH FERRIBY","district":"EAST RIDING OF YORKSHIRE","county":"EAST RIDING OF YORKSHIRE","ppdCategoryType":"Standard","recordStatus":"Addition","latitude":53.718483,"longitude":-0.512845,"postcodeStart":"HU14 3","postcode":["HU14","3AT"]}
{"price":117950,"dateOfTransfer":"1996-01-05T00:00:00","postcodeFull":"HU14 3PZ","propertyType":"Detached","oldOrNew":"Established","duration":"Freehold","paon":"2","saon":"","street":"THE GREEN","locality":"SWANLAND","townOrCity":"NORTH FERRIBY","district":"EAST RIDING OF YORKSHIRE","county":"EAST RIDING OF YORKSHIRE","ppdCategoryType":"Standard","recordStatus":"Addition","latitude":53.743243,"longitude":-0.495842,"postcodeStart":"HU14 3","postcode":["HU14","3PZ"]}
{"price":69000,"dateOfTransfer":"1996-05-31T00:00:00","postcodeFull":"HU14 3AX","propertyType":"Semi-detached","oldOrNew":"Established","duration":"Freehold","paon":"53","saon":"","street":"CORBY PARK","locality":"NORTH FERRIBY","townOrCity":"NORTH FERRIBY","district":"EAST RIDING OF YORKSHIRE","county":"EAST RIDING OF YORKSHIRE","ppdCategoryType":"Standard","recordStatus":"Addition","latitude":53.72122,"longitude":-0.513946,"postcodeStart":"HU14 3","postcode":["HU14","3AX"]}
{"price":29500,"dateOfTransfer":"1996-02-16T00:00:00","postcodeFull":"HU14 3AD","propertyType":"Terraced","oldOrNew":"Established","duration":"Freehold","paon":"4","saon":"","street":"BRICKYARD COTTAGES","locality":"NORTH FERRIBY","townOrCity":"NORTH FERRIBY","district":"EAST RIDING OF YORKSHIRE","county":"EAST RIDING OF YORKSHIRE","ppdCategoryType":"Standard","recordStatus":"Addition","latitude":53.716587,"longitude":-0.502774,"postcodeStart":"HU14 3","postcode":["HU14","3AD"]}
{"price":137000,"dateOfTransfer":"1996-10-11T00:00:00","postcodeFull":"HU14 3LZ","propertyType":"Detached","oldOrNew":"Established","duration":"Freehold","paon":"HILL TOP HOUSE","saon":"","street":"KEMP ROAD","locality":"SWANLAND","townOrCity":"NORTH FERRIBY","district":"EAST RIDING OF YORKSHIRE","county":"EAST RIDING OF YORKSHIRE","ppdCategoryType":"Standard","recordStatus":"Addition","latitude":53.734133,"longitude":-0.491379,"postcodeStart":"HU14 3","postcode":["HU14","3LZ"]}
{"price":99950,"dateOfTransfer":"1996-12-16T00:00:00","postcodeFull":"HU14 3HZ","propertyType":"Detached","oldOrNew":"Established","duration":"Freehold","paon":"36","saon":"","street":"ST JAMES ROAD","locality":"MELTON","townOrCity":"NORTH FERRIBY","district":"EAST RIDING OF YORKSHIRE","county":"EAST RIDING OF YORKSHIRE","ppdCategoryType":"Standard","recordStatus":"Addition","latitude":53.727704,"longitude":-0.529512,"postcodeStart":"HU14 3","postcode":["HU14","3HZ"]}
{"price":54800,"dateOfTransfer":"1996-10-04T00:00:00","postcodeFull":"HU14 3DY","propertyType":"Semi-detached","oldOrNew":"Established","duration":"Freehold","paon":"18","saon":"","street":"RIVERVIEW AVENUE","locality":"NORTH FERRIBY","townOrCity":"NORTH FERRIBY","district":"EAST RIDING OF YORKSHIRE","county":"EAST RIDING OF YORKSHIRE","ppdCategoryType":"Standard","recordStatus":"Addition","latitude":53.71534,"longitude":-0.509501,"postcodeStart":"HU14 3","postcode":["HU14","3DY"]}
{"price":75950,"dateOfTransfer":"1996-07-15T00:00:00","postcodeFull":"HU14 3EP","propertyType":"Terraced","oldOrNew":"Established","duration":"Freehold","paon":"29","saon":"","street":"HIGH STREET","locality":"NORTH FERRIBY","townOrCity":"NORTH FERRIBY","district":"EAST RIDING OF YORKSHIRE","county":"EAST RIDING OF YORKSHIRE","ppdCategoryType":"Standard","recordStatus":"Addition","latitude":53.722634,"longitude":-0.508364,"postcodeStart":"HU14 3","postcode":["HU14","3EP"]}
{"price":117000,"dateOfTransfer":"1996-06-10T00:00:00","postcodeFull":"HU14 3NU","propertyType":"Detached","oldOrNew":"Established","duration":"Freehold","paon":"11","saon":"","street":"STYLES CROFT","locality":"SWANLAND","townOrCity":"NORTH FERRIBY","district":"EAST RIDING OF YORKSHIRE","county":"EAST RIDING OF YORKSHIRE","ppdCategoryType":"Standard","recordStatus":"Addition","latitude":53.738702,"longitude":-0.481565,"postcodeStart":"HU14 3","postcode":["HU14","3NU"]}
{"price":51000,"dateOfTransfer":"1996-04-04T00:00:00","postcodeFull":"HU14 3BB","propertyType":"Semi-detached","oldOrNew":"Established","duration":"Freehold","paon":"85","saon":"","street":"PLANTATION DRIVE","locality":"NORTH FERRIBY","townOrCity":"NORTH FERRIBY","district":"EAST RIDING OF YORKSHIRE","county":"EAST RIDING OF YORKSHIRE","ppdCategoryType":"Standard","recordStatus":"Addition","latitude":53.722815,"longitude":-0.516405,"postcodeStart":"HU14 3","postcode":["HU14","3BB"]}
{"price":56950,"dateOfTransfer":"1996-02-23T00:00:00","postcodeFull":"HU14 3HP","propertyType":"Semi-detached","oldOrNew":"Established","duration":"Freehold","paon":"18","saon":"","street":"MELTON OLD ROAD","locality":"MELTON","townOrCity":"NORTH FERRIBY","district":"EAST RIDING OF YORKSHIRE","county":"EAST RIDING OF YORKSHIRE","ppdCategoryType":"Standard","recordStatus":"Addition","latitude":53.726583,"longitude":-0.530269,"postcodeStart":"HU14 3","postcode":["HU14","3HP"]}
{"price":85000,"dateOfTransfer":"1996-05-24T00:00:00","postcodeFull":"HU14 3PA","propertyType":"Semi-detached","oldOrNew":"Established","duration":"Freehold","paon":"43","saon":"","street":"WEST LEYS ROAD","locality":"SWANLAND","townOrCity":"NORTH FERRIBY","district":"EAST RIDING OF YORKSHIRE","county":"EAST RIDING OF YORKSHIRE","ppdCategoryType":"Standard","recordStatus":"Addition","latitude":53.73595,"longitude":-0.49771,"postcodeStart":"HU14 3","postcode":["HU14","3PA"]}
{"price":38000,"dateOfTransfer":"1996-04-16T00:00:00","postcodeFull":"HU14 3PQ","propertyType":"Flat/Maisonette/Townhouse","oldOrNew":"Established","duration":"Leasehold","paon":"31","saon":"","street":"HALDENBY COURT","locality":"SWANLAND","townOrCity":"NORTH FERRIBY","district":"EAST RIDING OF YORKSHIRE","county":"EAST RIDING OF YORKSHIRE","ppdCategoryType":"Standard","recordStatus":"Addition","latitude":53.737767,"longitude":-0.493637,"postcodeStart":"HU14 3","postcode":["HU14","3PQ"]}
{"price":200000,"dateOfTransfer":"1996-03-13T00:00:00","postcodeFull":"HU14 3QY","propertyType":"Detached","oldOrNew":"New build","duration":"Freehold","paon":"7","saon":"","street":"BEECH HILL ROAD","locality":"SWANLAND","townOrCity":"NORTH FERRIBY","district":"EAST RIDING OF YORKSHIRE","county":"EAST RIDING OF YORKSHIRE","ppdCategoryType":"Standard","recordStatus":"Addition","latitude":53.743574,"longitude":-0.482122,"postcodeStart":"HU14 3","postcode":["HU14","3QY"]}
{"price":90000,"dateOfTransfer":"1996-01-29T00:00:00","postcodeFull":"HU14 3PE","propertyType":"Detached","oldOrNew":"Established","duration":"Freehold","paon":"4","saon":"","street":"WEST END","locality":"SWANLAND","townOrCity":"NORTH FERRIBY","district":"THE EAST YORKSHIRE BOROUGH OF BEVERLEY","county":"HUMBERSIDE","ppdCategoryType":"Standard","recordStatus":"Addition","latitude":53.738141,"longitude":-0.494093,"postcodeStart":"HU14 3","postcode":["HU14","3PE"]}
{"price":31000,"dateOfTransfer":"1996-12-09T00:00:00","postcodeFull":"HU14 3HG","propertyType":"Semi-detached","oldOrNew":"Established","duration":"Freehold","paon":"3","saon":"","street":"MAIN ROAD","locality":"MELTON","townOrCity":"NORTH FERRIBY","district":"EAST RIDING OF YORKSHIRE","county":"EAST RIDING OF YORKSHIRE","ppdCategoryType":"Standard","recordStatus":"Addition","latitude":53.724732,"longitude":-0.526796,"postcodeStart":"HU14 3","postcode":["HU14","3HG"]}
{"price":138300,"dateOfTransfer":"1996-12-13T00:00:00","postcodeFull":"HU14 3NL","propertyType":"Detached","oldOrNew":"Established","duration":"Freehold","paon":"35","saon":"","street":"HALL PARK","locality":"SWANLAND","townOrCity":"NORTH FERRIBY","district":"EAST RIDING OF YORKSHIRE","county":"EAST RIDING OF YORKSHIRE","ppdCategoryType":"Standard","recordStatus":"Addition","latitude":53.738887,"longitude":-0.483591,"postcodeStart":"HU14 3","postcode":["HU14","3NL"]}
{"price":110000,"dateOfTransfer":"1996-07-05T00:00:00","postcodeFull":"HU14 3JE","propertyType":"Detached","oldOrNew":"New build","duration":"Freehold","paon":"4","saon":"","street":"OLD POND PLACE","locality":"NORTH FERRIBY","townOrCity":"NORTH FERRIBY","district":"EAST RIDING OF YORKSHIRE","county":"EAST RIDING OF YORKSHIRE","ppdCategoryType":"Standard","recordStatus":"Addition","latitude":53.71572,"longitude":-0.503911,"postcodeStart":"HU14 3","postcode":["HU14","3JE"]}
{"price":70000,"dateOfTransfer":"1996-10-25T00:00:00","postcodeFull":"HU14 3EU","propertyType":"Semi-detached","oldOrNew":"Established","duration":"Freehold","paon":"8","saon":"","street":"PARKLANDS DRIVE","locality":"NORTH FERRIBY","townOrCity":"NORTH FERRIBY","district":"EAST RIDING OF YORKSHIRE","county":"EAST RIDING OF YORKSHIRE","ppdCategoryType":"Standard","recordStatus":"Addition","latitude":53.724094,"longitude":-0.510859,"postcodeStart":"HU14 3","postcode":["HU14","3EU"]}
{"price":52500,"dateOfTransfer":"1996-07-26T00:00:00","postcodeFull":"HU14 3QS","propertyType":"Semi-detached","oldOrNew":"Established","duration":"Freehold","paon":"17","saon":"","street":"PRIORY CLOSE","locality":"SWANLAND","townOrCity":"NORTH FERRIBY","district":"EAST RIDING OF YORKSHIRE","county":"EAST RIDING OF YORKSHIRE","ppdCategoryType":"Standard","recordStatus":"Addition","latitude":53.740435,"longitude":-0.489933,"postcodeStart":"HU14 3","postcode":["HU14","3QS"]}
{"price":50000,"dateOfTransfer":"1996-04-26T00:00:00","postcodeFull":"HU14 3EL","propertyType":"Terraced","oldOrNew":"Established","duration":"Freehold","paon":"6","saon":"","street":"INGS LANE","locality":"NORTH FERRIBY","townOrCity":"NORTH FERRIBY","district":"EAST RIDING OF YORKSHIRE","county":"EAST RIDING OF YORKSHIRE","ppdCategoryType":"Standard","recordStatus":"Addition","latitude":53.71631,"longitude":-0.50436,"postcodeStart":"HU14 3","postcode":["HU14","3EL"]}
{"price":160000,"dateOfTransfer":"1996-03-28T00:00:00","postcodeFull":"HU14 3EJ","propertyType":"Detached","oldOrNew":"New build","duration":"Freehold","paon":"14","saon":"","street":"THE PICKERINGS","locality":"NORTH FERRIBY","townOrCity":"NORTH FERRIBY","district":"EAST RIDING OF YORKSHIRE","county":"EAST RIDING OF YORKSHIRE","ppdCategoryType":"Standard","recordStatus":"Addition","latitude":53.715743,"longitude":-0.505744,"postcodeStart":"HU14 3","postcode":["HU14","3EJ"]}
{"price":47950,"dateOfTransfer":"1996-03-26T00:00:00","postcodeFull":"HU14 3DL","propertyType":"Semi-detached","oldOrNew":"Established","duration":"Freehold","paon":"2","saon":"","street":"RAILWAY COTTAGES","locality":"NORTH FERRIBY","townOrCity":"NORTH FERRIBY","district":"EAST RIDING OF YORKSHIRE","county":"EAST RIDING OF YORKSHIRE","ppdCategoryType":"Standard","recordStatus":"Addition","latitude":53.71724,"longitude":-0.508212,"postcodeStart":"HU14 3","postcode":["HU14","3DL"]}
{"price":150000,"dateOfTransfer":"1996-10-18T00:00:00","postcodeFull":"HU14 3PZ","propertyType":"Detached","oldOrNew":"New build","duration":"Freehold","paon":"12","saon":"","street":"THE GREEN","locality":"SWANLAND","townOrCity":"NORTH FERRIBY","district":"EAST RIDING OF YORKSHIRE","county":"EAST RIDING OF YORKSHIRE","ppdCategoryType":"Standard","recordStatus":"Addition","latitude":53.743243,"longitude":-0.495842,"postcodeStart":"HU14 3","postcode":["HU14","3PZ"]}
{"price":64200,"dateOfTransfer":"1996-04-12T00:00:00","postcodeFull":"HU14 3DE","propertyType":"Semi-detached","oldOrNew":"Established","duration":"Freehold","paon":"CARTREF","saon":"","street":"READING ROOM YARD","locality":"","townOrCity":"NORTH FERRIBY","district":"EAST RIDING OF YORKSHIRE","county":"EAST RIDING OF YORKSHIRE","ppdCategoryType":"Standard","recordStatus":"Addition","latitude":53.720675,"longitude":-0.504796,"postcodeStart":"HU14 3","postcode":["HU14","3DE"]}
{"price":118000,"dateOfTransfer":"1996-08-16T00:00:00","postcodeFull":"HU14 3NB","propertyType":"Detached","oldOrNew":"Established","duration":"Freehold","paon":"4","saon":"","street":"TRANBY LANE","locality":"SWANLAND","townOrCity":"NORTH FERRIBY","district":"EAST RIDING OF YORKSHIRE","county":"EAST RIDING OF YORKSHIRE","ppdCategoryType":"Standard","recordStatus":"Addition","latitude":53.736757,"longitude":-0.485199,"postcodeStart":"HU14 3","postcode":["HU14","3NB"]}
{"price":60000,"dateOfTransfer":"1996-10-25T00:00:00","postcodeFull":"HU14 3HP","propertyType":"Semi-detached","oldOrNew":"Established","duration":"Freehold","paon":"5","saon":"","street":"MELTON OLD ROAD","locality":"MELTON","townOrCity":"NORTH FERRIBY","district":"EAST RIDING OF YORKSHIRE","county":"EAST RIDING OF YORKSHIRE","ppdCategoryType":"Standard","recordStatus":"Addition","latitude":53.726583,"longitude":-0.530269,"postcodeStart":"HU14 3","postcode":["HU14","3HP"]}
{"price":375000,"dateOfTransfer":"1996-01-12T00:00:00","postcodeFull":"HU14 3LU","propertyType":"Detached","oldOrNew":"Established","duration":"Freehold","paon":"MANOR HOUSE","saon":"","street":"THE PARK","locality":"SWANLAND","townOrCity":"NORTH FERRIBY","district":"EAST RIDING OF YORKSHIRE","county":"EAST RIDING OF YORKSHIRE","ppdCategoryType":"Standard","recordStatus":"Addition","latitude":53.735832,"longitude":-0.494904,"postcodeStart":"HU14 3","postcode":["HU14","3LU"]}
{"price":92000,"dateOfTransfer":"1996-08-23T00:00:00","postcodeFull":"HU14 3RB","propertyType":"Detached","oldOrNew":"Established","duration":"Freehold","paon":"120","saon":"","street":"NORTHFIELD","locality":"SWANLAND","townOrCity":"NORTH FERRIBY","district":"EAST RIDING OF YORKSHIRE","county":"EAST RIDING OF YORKSHIRE","ppdCategoryType":"Standard","recordStatus":"Addition","latitude":53.741916,"longitude":-0.488962,"postcodeStart":"HU14 3","postcode":["HU14","3RB"]}
{"price":195000,"dateOfTransfer":"1996-02-14T00:00:00","postcodeFull":"HU14 3LX","propertyType":"Detached","oldOrNew":"Established","duration":"Freehold","paon":"30","saon":"","street":"WEST LEYS ROAD","locality":"SWANLAND","townOrCity":"NORTH FERRIBY","district":"THE EAST YORKSHIRE BOROUGH OF BEVERLEY","county":"HUMBERSIDE","ppdCategoryType":"Standard","recordStatus":"Addition","latitude":53.734895,"longitude":-0.496747,"postcodeStart":"HU14 3","postcode":["HU14","3LX"]}
{"price":47450,"dateOfTransfer":"1996-09-12T00:00:00","postcodeFull":"HU14 3RJ","propertyType":"Flat/Maisonette/Townhouse","oldOrNew":"New build","duration":"Leasehold","paon":"2","saon":"","street":"CROWTHER COURT","locality":"SWANLAND","townOrCity":"NORTH FERRIBY","district":"EAST RIDING OF YORKSHIRE","county":"EAST RIDING OF YORKSHIRE","ppdCategoryType":"Standard","recordStatus":"Addition","latitude":53.742133,"longitude":-0.495058,"postcodeStart":"HU14 3","postcode":["HU14","3RJ"]}
{"price":74000,"dateOfTransfer":"1996-08-23T00:00:00","postcodeFull":"HU14 3QD","propertyType":"Terraced","oldOrNew":"Established","duration":"Freehold","paon":"11","saon":"","street":"CROWTHER WAY","locality":"SWANLAND","townOrCity":"NORTH FERRIBY","district":"EAST RIDING OF YORKSHIRE","county":"EAST RIDING OF YORKSHIRE","ppdCategoryType":"Standard","recordStatus":"Addition","latitude":53.741822,"longitude":-0.494301,"postcodeStart":"HU14 3","postcode":["HU14","3QD"]}
{"price":30500,"dateOfTransfer":"1996-02-26T00:00:00","postcodeFull":"HU14 3HH","propertyType":"Semi-detached","oldOrNew":"Established","duration":"Freehold","paon":"36","saon":"","street":"GIBSON LANE","locality":"MELTON","townOrCity":"NORTH FERRIBY","district":"THE EAST YORKSHIRE BOROUGH OF BEVERLEY","county":"HUMBERSIDE","ppdCategoryType":"Standard","recordStatus":"Addition","latitude":53.723662,"longitude":-0.531229,"postcodeStart":"HU14 3","postcode":["HU14","3HH"]}
{"price":55000,"dateOfTransfer":"1996-12-16T00:00:00","postcodeFull":"HU14 3QR","propertyType":"Terraced","oldOrNew":"Established","duration":"Freehold","paon":"26","saon":"","street":"MAIN STREET","locality":"SWANLAND","townOrCity":"NORTH FERRIBY","district":"EAST RIDING OF YORKSHIRE","county":"EAST RIDING OF YORKSHIRE","ppdCategoryType":"Standard","recordStatus":"Addition","latitude":53.740219,"longitude":-0.487757,"postcodeStart":"HU14 3","postcode":["HU14","3QR"]}
{"price":56000,"dateOfTransfer":"1996-11-15T00:00:00","postcodeFull":"HU14 3QE","propertyType":"Semi-detached","oldOrNew":"Established","duration":"Freehold","paon":"20","saon":"","street":"QUEENSBURY WAY","locality":"SWANLAND","townOrCity":"NORTH FERRIBY","district":"EAST RIDING OF YORKSHIRE","county":"EAST RIDING OF YORKSHIRE","ppdCategoryType":"Standard","recordStatus":"Addition","latitude":53.738713,"longitude":-0.49521,"postcodeStart":"HU14 3","postcode":["HU14","3QE"]}
{"price":57000,"dateOfTransfer":"1996-08-23T00:00:00","postcodeFull":"HU14 3JS","propertyType":"Semi-detached","oldOrNew":"Established","duration":"Freehold","paon":"19","saon":"","street":"WOODGATES CLOSE","locality":"NORTH FERRIBY","townOrCity":"NORTH FERRIBY","district":"EAST RIDING OF YORKSHIRE","county":"EAST RIDING OF YORKSHIRE","ppdCategoryType":"Standard","recordStatus":"Addition","latitude":53.724013,"longitude":-0.505087,"postcodeStart":"HU14 3","postcode":["HU14","3JS"]}
{"price":68000,"dateOfTransfer":"1996-07-05T00:00:00","postcodeFull":"HU14 3EL","propertyType":"Semi-detached","oldOrNew":"Established","duration":"Freehold","paon":"36","saon":"","street":"INGS LANE","locality":"NORTH FERRIBY","townOrCity":"NORTH FERRIBY","district":"EAST RIDING OF YORKSHIRE","county":"EAST RIDING OF YORKSHIRE","ppdCategoryType":"Standard","recordStatus":"Addition","latitude":53.71631,"longitude":-0.50436,"postcodeStart":"HU14 3","postcode":["HU14","3EL"]}
{"price":40000,"dateOfTransfer":"1996-06-14T00:00:00","postcodeFull":"HU14 3BE","propertyType":"Semi-detached","oldOrNew":"Established","duration":"Freehold","paon":"38","saon":"","street":"PLANTATION DRIVE","locality":"NORTH FERRIBY","townOrCity":"NORTH FERRIBY","district":"EAST RIDING OF YORKSHIRE","county":"EAST RIDING OF YORKSHIRE","ppdCategoryType":"Standard","recordStatus":"Addition","latitude":53.720435,"longitude":-0.515171,"postcodeStart":"HU14 3","postcode":["HU14","3BE"]}
{"price":67500,"dateOfTransfer":"1996-03-29T00:00:00","postcodeFull":"HU14 3EP","propertyType":"Terraced","oldOrNew":"Established","duration":"Freehold","paon":"35","saon":"","street":"HIGH STREET","locality":"NORTH FERRIBY","townOrCity":"NORTH FERRIBY","district":"EAST RIDING OF YORKSHIRE","county":"EAST RIDING OF YORKSHIRE","ppdCategoryType":"Standard","recordStatus":"Addition","latitude":53.722634,"longitude":-0.508364,"postcodeStart":"HU14 3","postcode":["HU14","3EP"]}
{"price":56500,"dateOfTransfer":"1996-03-29T00:00:00","postcodeFull":"HU14 3QH","propertyType":"Semi-detached","oldOrNew":"Established","duration":"Freehold","paon":"47","saon":"","street":"DALE ROAD","locality":"SWANLAND","townOrCity":"NORTH FERRIBY","district":"EAST RIDING OF YORKSHIRE","county":"EAST RIDING OF YORKSHIRE","ppdCategoryType":"Standard","recordStatus":"Addition","latitude":53.740888,"longitude":-0.49307,"postcodeStart":"HU14 3","postcode":["HU14","3QH"]}
{"price":115500,"dateOfTransfer":"1996-06-21T00:00:00","postcodeFull":"HU14 3QH","propertyType":"Detached","oldOrNew":"New build","duration":"Freehold","paon":"95","saon":"","street":"DALE ROAD","locality":"SWANLAND","townOrCity":"NORTH FERRIBY","district":"EAST RIDING OF YORKSHIRE","county":"EAST RIDING OF YORKSHIRE","ppdCategoryType":"Standard","recordStatus":"Addition","latitude":53.740888,"longitude":-0.49307,"postcodeStart":"HU14 3","postcode":["HU14","3QH"]}
{"price":169500,"dateOfTransfer":"1996-03-15T00:00:00","postcodeFull":"HU14 3LY","propertyType":"Detached","oldOrNew":"Established","duration":"Freehold","paon":"WETHERHILL","saon":"","street":"KEMP ROAD","locality":"SWANLAND","townOrCity":"NORTH FERRIBY","district":"EAST RIDING OF YORKSHIRE","county":"EAST RIDING OF YORKSHIRE","ppdCategoryType":"Standard","recordStatus":"Addition","latitude":53.733662,"longitude":-0.493132,"postcodeStart":"HU14 3","postcode":["HU14","3LY"]}
{"price":42500,"dateOfTransfer":"1996-10-16T00:00:00","postcodeFull":"HU14 3AH","propertyType":"Semi-detached","oldOrNew":"Established","duration":"Freehold","paon":"1","saon":"","street":"NEW WALK","locality":"NORTH FERRIBY","townOrCity":"NORTH FERRIBY","district":"EAST RIDING OF YORKSHIRE","county":"EAST RIDING OF YORKSHIRE","ppdCategoryType":"Standard","recordStatus":"Addition","latitude":53.718242,"longitude":-0.505079,"postcodeStart":"HU14 3","postcode":["HU14","3AH"]}
{"price":139500,"dateOfTransfer":"1996-06-19T00:00:00","postcodeFull":"HU14 3LS","propertyType":"Detached","oldOrNew":"Established","duration":"Freehold","paon":"22","saon":"","street":"WEST LEYS PARK","locality":"SWANLAND","townOrCity":"NORTH FERRIBY","district":"EAST RIDING OF YORKSHIRE","county":"EAST RIDING OF YORKSHIRE","ppdCategoryType":"Standard","recordStatus":"Addition","latitude":53.733401,"longitude":-0.495976,"postcodeStart":"HU14 3","postcode":["HU14","3LS"]}
