{"price":57500,"dateOfTransfer":"1995-02-24T00:00:00","postcodeFull":"IP14 2AX","propertyType":"Semi-detached","oldOrNew":"Established","duration":"Freehold","paon":"88","saon":"","street":"POPLAR HILL","locality":"STOWMARKET","townOrCity":"STOWMARKET","district":"MID SUFFOLK","county":"SUFFOLK","ppdCategoryType":"Standard","recordStatus":"Addition","latitude":52.175582,"longitude":0.992575,"postcodeStart":"IP14 2","postcode":["IP14","2AX"]}
{"price":34000,"dateOfTransfer":"1995-11-10T00:00:00","postcodeFull":"IP14 2NW","propertyType":"Terraced","oldOrNew":"Established","duration":"Freehold","paon":"9","saon":"","street":"WEAVERS CLOSE","locality":"STOWMARKET","townOrCity":"STOWMARKET","district":"MID SUFFOLK","county":"SUFFOLK","ppdCategoryType":"Standard","recordStatus":"Addition","latitude":52.176262,"longitude":0.988465,"postcodeStart":"IP14 2","postcode":["IP14","2NW"]}
{"price":95000,"dateOfTransfer":"1995-11-24T00:00:00","postcodeFull":"IP14 2JG","propertyType":"Terraced","oldOrNew":"New build","duration":"Freehold","paon":"7","saon":"","street":"MODEL FARM","locality":"COMBS","townOrCity":"STOWMARKET","district":"MID SUFFOLK","county":"SUFFOLK","ppdCategoryType":"Standard","recordStatus":"Addition","latitude":52.169834,"longitude":0.984086,"postcodeStart":"IP14 2","postcode":["IP14","2JG"]}
{"price":69000,"dateOfTransfer":"1995-10-27T00:00:00","postcodeFull":"IP14 2PF","propertyType":"Detached","oldOrNew":"Established","duration":"Freehold","paon":"11","saon":"","street":"HINTLESHAM CLOSE","locality":"STOWMARKET","townOrCity":"STOWMARKET","district":"MID SUFFOLK","county":"SUFFOLK","ppdCategoryType":"Standard","recordStatus":"Addition","latitude":52.176378,"longitude":1.003351,"postcodeStart":"IP14 2","postcode":["IP14","2PF"]}
{"price":39500,"dateOfTransfer":"1995-11-17T00:00:00","postcodeFull":"IP14 2DJ","propertyType":"Semi-detached","oldOrNew":"Established","duration":"Freehold","paon":"32","saon":"","street":"ALDIS AVENUE","locality":"STOWMARKET","townOrCity":"STOWMARKET","district":"MID SUFFOLK","county":"SUFFOLK","ppdCategoryType":"Standard","recordStatus":"Addition","latitude":52.179142,"longitude":0.990824,"postcodeStart":"IP14 2","postcode":["IP14","2DJ"]}
{"price":48500,"dateOfTransfer":"1995-11-03T00:00:00","postcodeFull":"IP14 2JG","propertyType":"Terraced","oldOrNew":"Established","duration":"Freehold","paon":"9","saon":"","street":"MODEL FARM","locality":"COMBS","townOrCity":"STOWMARKET","district":"MID SUFFOLK","county":"SUFFOLK","ppdCategoryType":"Standard","recordStatus":"Addition","latitude":52.169834,"longitude":0.984086,"postcodeStart":"IP14 2","postcode":["IP14","2JG"]}
{"price":28750,"dateOfTransfer":"1995-02-27T00:00:00","postcodeFull":"IP14 2PJ","propertyType":"Terraced","oldOrNew":"Established","duration":"Freehold","paon":"27","saon":"","street":"POLSTEAD CLOSE","locality":"STOWMARKET","townOrCity":"STOWMARKET","district":"MID SUFFOLK","county":"SUFFOLK","ppdCategoryType":"Standard","recordStatus":"Addition","latitude":52.178403,"longitude":1.005404,"postcodeStart":"IP14 2","postcode":["IP14","2PJ"]}
{"price":59950,"dateOfTransfer":"1995-04-13T00:00:00","postcodeFull":"IP14 2RD","propertyType":"Detached","oldOrNew":"Established","duration":"Freehold","paon":"35","saon":"","street":"LINDSEY WAY","locality":"STOWMARKET","townOrCity":"STOWMARKET","district":"MID SUFFOLK","county":"SUFFOLK","ppdCategoryType":"Standard","recordStatus":"Addition","latitude":52.174791,"longitude":0.999602,"postcodeStart":"IP14 2","postcode":["IP14","2RD"]}
{"price":59000,"dateOfTransfer":"1995-11-24T00:00:00","postcodeFull":"IP14 2NY","propertyType":"Detached","oldOrNew":"Established","duration":"Freehold","paon":"16","saon":"","street":"SHELLEY CLOSE","locality":"STOWMARKET","townOrCity":"STOWMARKET","district":"MID SUFFOLK","county":"SUFFOLK","ppdCategoryType":"Standard","recordStatus":"Addition","latitude":52.175508,"longitude":1.007461,"postcodeStart":"IP14 2","postcode":["IP14","2NY"]}
{"price":46000,"dateOfTransfer":"1995-03-01T00:00:00","postcodeFull":"IP14 2PP","propertyType":"Terraced","oldOrNew":"Established","duration":"Freehold","paon":"40","saon":"","street":"MELFORD ROAD","locality":"STOWMARKET","townOrCity":"STOWMARKET","district":"MID SUFFOLK","county":"SUFFOLK","ppdCategoryType":"Standard","recordStatus":"Addition","latitude":52.17713,"longitude":1.006284,"postcodeStart":"IP14 2","postcode":["IP14","2PP"]}
{"price":45000,"dateOfTransfer":"1995-11-24T00:00:00","postcodeFull":"IP14 2AN","propertyType":"Semi-detached","oldOrNew":"Established","duration":"Freehold","paon":"16","saon":"","street":"NEEDHAM ROAD","locality":"STOWMARKET","townOrCity":"STOWMARKET","district":"MID SUFFOLK","county":"SUFFOLK","ppdCategoryType":"Standard","recordStatus":"Addition","latitude":52.179521,"longitude":1.00033,"postcodeStart":"IP14 2","postcode":["IP14","2AN"]}
{"price":42500,"dateOfTransfer":"1995-11-10T00:00:00","postcodeFull":"IP14 2DY","propertyType":"Terraced","oldOrNew":"Established","duration":"Freehold","paon":"23","saon":"","street":"WAYSIDE CLOSE","locality":"STOWMARKET","townOrCity":"STOWMARKET","district":"MID SUFFOLK","county":"SUFFOLK","ppdCategoryType":"Standard","recordStatus":"Addition","latitude":52.177456,"longitude":0.991763,"postcodeStart":"IP14 2","postcode":["IP14","2DY"]}
{"price":86000,"dateOfTransfer":"1995-12-20T00:00:00","postcodeFull":"IP14 2NB","propertyType":"Detached","oldOrNew":"Established","duration":"Freehold","paon":"HUCKLEBERRY","saon":"","street":"STRAIGHT ROAD","locality":"BATTISFORD","townOrCity":"STOWMARKET","district":"MID SUFFOLK","county":"SUFFOLK","ppdCategoryType":"Standard","recordStatus":"Addition","latitude":52.147686,"longitude":0.96221,"postcodeStart":"IP14 2","postcode":["IP14","2NB"]}
{"price":54000,"dateOfTransfer":"1995-10-26T00:00:00","postcodeFull":"IP14 2NS","propertyType":"Detached","oldOrNew":"Established","duration":"Freehold","paon":"11","saon":"","street":"FARRIERS ROAD","locality":"STOWMARKET","townOrCity":"STOWMARKET","district":"MID SUFFOLK","county":"SUFFOLK","ppdCategoryType":"Standard","recordStatus":"Addition","latitude":52.176884,"longitude":0.98801,"postcodeStart":"IP14 2","postcode":["IP14","2NS"]}
{"price":43850,"dateOfTransfer":"1995-11-22T00:00:00","postcodeFull":"IP14 2NY","propertyType":"Terraced","oldOrNew":"Established","duration":"Freehold","paon":"21","saon":"","street":"SHELLEY CLOSE","locality":"STOWMARKET","townOrCity":"STOWMARKET","district":"MID SUFFOLK","county":"SUFFOLK","ppdCategoryType":"Standard","recordStatus":"Addition","latitude":52.175508,"longitude":1.007461,"postcodeStart":"IP14 2","postcode":["IP14","2NY"]}
{"price":34250,"dateOfTransfer":"1995-03-14T00:00:00","postcodeFull":"IP14 2NW","propertyType":"Terraced","oldOrNew":"Established","duration":"Freehold","paon":"11","saon":"","street":"WEAVERS CLOSE","locality":"STOWMARKET","townOrCity":"STOWMARKET","district":"MID SUFFOLK","county":"SUFFOLK","ppdCategoryType":"Standard","recordStatus":"Addition","latitude":52.176262,"longitude":0.988465,"postcodeStart":"IP14 2","postcode":["IP14","2NW"]}
{"price":39750,"dateOfTransfer":"1995-09-15T00:00:00","postcodeFull":"IP14 2DS","propertyType":"Semi-detached","oldOrNew":"Established","duration":"Freehold","paon":"6","saon":"","street":"TYLERS WAY","locality":"STOWMARKET","townOrCity":"STOWMARKET","district":"MID SUFFOLK","county":"SUFFOLK","ppdCategoryType":"Standard","recordStatus":"Addition","latitude":52.177461,"longitude":0.990814,"postcodeStart":"IP14 2","postcode":["IP14","2DS"]}
{"price":43250,"dateOfTransfer":"1995-12-18T00:00:00","postcodeFull":"IP14 2PW","propertyType":"Semi-detached","oldOrNew":"Established","duration":"Freehold","paon":"26","saon":"","street":"GLEMSFORD ROAD","locality":"STOWMARKET","townOrCity":"STOWMARKET","district":"MID SUFFOLK","county":"SUFFOLK","ppdCategoryType":"Standard","recordStatus":"Addition","latitude":52.178854,"longitude":1.001484,"postcodeStart":"IP14 2","postcode":["IP14","2PW"]}
{"price":44000,"dateOfTransfer":"1995-05-31T00:00:00","postcodeFull":"IP14 2DA","propertyType":"Terraced","oldOrNew":"Established","duration":"Freehold","paon":"8","saon":"","street":"COMBS LANE","locality":"STOWMARKET","townOrCity":"STOWMARKET","district":"MID SUFFOLK","county":"SUFFOLK","ppdCategoryType":"Standard","recordStatus":"Addition","latitude":52.179614,"longitude":0.996342,"postcodeStart":"IP14 2","postcode":["IP14","2DA"]}
{"price":24000,"dateOfTransfer":"1995-10-27T00:00:00","postcodeFull":"IP14 2AS","propertyType":"Terraced","oldOrNew":"Established","duration":"Freehold","paon":"26","saon":"","street":"POPLAR HILL","locality":"STOWMARKET","townOrCity":"STOWMARKET","district":"MID SUFFOLK","county":"SUFFOLK","ppdCategoryType":"Standard","recordStatus":"Addition","latitude":52.179362,"longitude":0.997042,"postcodeStart":"IP14 2","postcode":["IP14","2AS"]}
{"price":49950,"dateOfTransfer":"1995-03-17T00:00:00","postcodeFull":"IP14 2AN","propertyType":"Semi-detached","oldOrNew":"Established","duration":"Freehold","paon":"16","saon":"","street":"NEEDHAM ROAD","locality":"STOWMARKET","townOrCity":"STOWMARKET","district":"MID SUFFOLK","county":"SUFFOLK","ppdCategoryType":"Standard","recordStatus":"Addition","latitude":52.179521,"longitude":1.00033,"postcodeStart":"IP14 2","postcode":["IP14","2AN"]}
{"price":26500,"dateOfTransfer":"1995-03-31T00:00:00","postcodeFull":"IP14 2PR","propertyType":"Terraced","oldOrNew":"Established","duration":"Freehold","paon":"51","saon":"","street":"MELFORD ROAD","locality":"STOWMARKET","townOrCity":"STOWMARKET","district":"MID SUFFOLK","county":"SUFFOLK","ppdCategoryType":"Standard","recordStatus":"Addition","latitude":52.177617,"longitude":1.00696,"postcodeStart":"IP14 2","postcode":["IP14","2PR"]}
{"price":45750,"dateOfTransfer":"1995-04-28T00:00:00","postcodeFull":"IP14 2NS","propertyType":"Detached","oldOrNew":"Established","duration":"Freehold","paon":"10","saon":"","street":"FARRIERS ROAD","locality":"STOWMARKET","townOrCity":"STOWMARKET","district":"MID SUFFOLK","county":"SUFFOLK","ppdCategoryType":"Standard","recordStatus":"Addition","latitude":52.176884,"longitude":0.98801,"postcodeStart":"IP14 2","postcode":["IP14","2NS"]}
{"price":32000,"dateOfTransfer":"1995-12-08T00:00:00","postcodeFull":"IP14 2NY","propertyType":"Semi-detached","oldOrNew":"Established","duration":"Freehold","paon":"6","saon":"","street":"SHELLEY CLOSE","locality":"STOWMARKET","townOrCity":"STOWMARKET","district":"MID SUFFOLK","county":"SUFFOLK","ppdCategoryType":"Standard","recordStatus":"Addition","latitude":52.175508,"longitude":1.007461,"postcodeStart":"IP14 2","postcode":["IP14","2NY"]}
{"price":59950,"dateOfTransfer":"1995-11-16T00:00:00","postcodeFull":"IP14 2PP","propertyType":"Detached","oldOrNew":"Established","duration":"Freehold","paon":"26","saon":"","street":"MELFORD ROAD","locality":"STOWMARKET","townOrCity":"STOWMARKET","district":"MID SUFFOLK","county":"SUFFOLK","ppdCategoryType":"Standard","recordStatus":"Addition","latitude":52.17713,"longitude":1.006284,"postcodeStart":"IP14 2","postcode":["IP14","2PP"]}
{"price":22000,"dateOfTransfer":"1995-01-27T00:00:00","postcodeFull":"IP14 2PE","propertyType":"Semi-detached","oldOrNew":"Established","duration":"Freehold","paon":"40","saon":"","street":"LAVENHAM WAY","locality":"STOWMARKET","townOrCity":"STOWMARKET","district":"MID SUFFOLK","county":"SUFFOLK","ppdCategoryType":"Standard","recordStatus":"Addition","latitude":52.175491,"longitude":1.00531,"postcodeStart":"IP14 2","postcode":["IP14","2PE"]}
{"price":46000,"dateOfTransfer":"1995-05-22T00:00:00","postcodeFull":"IP14 2DY","propertyType":"Semi-detached","oldOrNew":"Established","duration":"Freehold","paon":"27","saon":"","street":"WAYSIDE CLOSE","locality":"STOWMARKET","townOrCity":"STOWMARKET","district":"MID SUFFOLK","county":"SUFFOLK","ppdCategoryType":"Standard","recordStatus":"Addition","latitude":52.177456,"longitude":0.991763,"postcodeStart":"IP14 2","postcode":["IP14","2DY"]}
{"price":60000,"dateOfTransfer":"1995-09-25T00:00:00","postcodeFull":"IP14 2RA","propertyType":"Detached","oldOrNew":"Established","duration":"Freehold","paon":"8","saon":"","street":"NAUGHTON GARDENS","locality":"STOWMARKET","townOrCity":"STOWMARKET","district":"MID SUFFOLK","county":"SUFFOLK","ppdCategoryType":"Standard","recordStatus":"Addition","latitude":52.174719,"longitude":0.998222,"postcodeStart":"IP14 2","postcode":["IP14","2RA"]}
{"price":64000,"dateOfTransfer":"1995-12-21T00:00:00","postcodeFull":"IP14 2DQ","propertyType":"Detached","oldOrNew":"Established","duration":"Freehold","paon":"45","saon":"","street":"CAMPION CRESCENT","locality":"STOWMARKET","townOrCity":"STOWMARKET","district":"MID SUFFOLK","county":"SUFFOLK","ppdCategoryType":"Standard","recordStatus":"Addition","latitude":52.178671,"longitude":0.987779,"postcodeStart":"IP14 2","postcode":["IP14","2DQ"]}
{"price":76500,"dateOfTransfer":"1995-07-14T00:00:00","postcodeFull":"IP14 2PS","propertyType":"Detached","oldOrNew":"Established","duration":"Freehold","paon":"15","saon":"","street":"ALDHAM GARDENS","locality":"STOWMARKET","townOrCity":"STOWMARKET","district":"MID SUFFOLK","county":"SUFFOLK","ppdCategoryType":"Standard","recordStatus":"Addition","latitude":52.177747,"longitude":1.003955,"postcodeStart":"IP14 2","postcode":["IP14","2PS"]}
{"price":43000,"dateOfTransfer":"1995-02-10T00:00:00","postcodeFull":"IP14 2PR","propertyType":"Semi-detached","oldOrNew":"Established","duration":"Freehold","paon":"25","saon":"","street":"MELFORD ROAD","locality":"STOWMARKET","townOrCity":"STOWMARKET","district":"MID SUFFOLK","county":"SUFFOLK","ppdCategoryType":"Standard","recordStatus":"Addition","latitude":52.177617,"longitude":1.00696,"postcodeStart":"IP14 2","postcode":["IP14","2PR"]}
{"price":70000,"dateOfTransfer":"1995-12-15T00:00:00","postcodeFull":"IP14 2DQ","propertyType":"Detached","oldOrNew":"Established","duration":"Freehold","paon":"2","saon":"","street":"CAMPION CRESCENT","locality":"STOWMARKET","townOrCity":"STOWMARKET","district":"MID SUFFOLK","county":"SUFFOLK","ppdCategoryType":"Standard","recordStatus":"Addition","latitude":52.178671,"longitude":0.987779,"postcodeStart":"IP14 2","postcode":["IP14","2DQ"]}
{"price":99000,"dateOfTransfer":"1995-12-13T00:00:00","postcodeFull":"IP14 2LB","propertyType":"Detached","oldOrNew":"New build","duration":"Freehold","paon":"STABLE COTTAGE","saon":"","street":"BILDESTON ROAD","locality":"COMBS","townOrCity":"STOWMARKET","district":"MID SUFFOLK","county":"SUFFOLK","ppdCategoryType":"Standard","recordStatus":"Addition","latitude":52.159136,"longitude":0.958584,"postcodeStart":"IP14 2","postcode":["IP14","2LB"]}
{"price":44000,"dateOfTransfer":"1995-12-08T00:00:00","postcodeFull":"IP14 2EP","propertyType":"Terraced","oldOrNew":"Established","duration":"Freehold","paon":"2","saon":"","street":"TILE ROW","locality":"COMBS","townOrCity":"STOWMARKET","district":"MID SUFFOLK","county":"SUFFOLK","ppdCategoryType":"Standard","recordStatus":"Addition","latitude":52.158912,"longitude":0.987054,"postcodeStart":"IP14 2","postcode":["IP14","2EP"]}
{"price":45000,"dateOfTransfer":"1995-08-11T00:00:00","postcodeFull":"IP14 2SA","propertyType":"Semi-detached","oldOrNew":"Established","duration":"Freehold","paon":"16","saon":"","street":"SCHOOL MEADOW","locality":"STOWMARKET","townOrCity":"STOWMARKET","district":"MID SUFFOLK","county":"SUFFOLK","ppdCategoryType":"Standard","recordStatus":"Addition","latitude":52.177659,"longitude":0.997542,"postcodeStart":"IP14 2","postcode":["IP14","2SA"]}
{"price":30000,"dateOfTransfer":"1995-03-29T00:00:00","postcodeFull":"IP14 2NX","propertyType":"Terraced","oldOrNew":"Established","duration":"Freehold","paon":"13","saon":"","street":"RAYDON CROFT","locality":"STOWMARKET","townOrCity":"STOWMARKET","district":"MID SUFFOLK","county":"SUFFOLK","ppdCategoryType":"Standard","recordStatus":"Addition","latitude":52.175407,"longitude":1.006489,"postcodeStart":"IP14 2","postcode":["IP14","2NX"]}
{"price":42500,"dateOfTransfer":"1995-11-24T00:00:00","postcodeFull":"IP14 2DD","propertyType":"Semi-detached","oldOrNew":"Established","duration":"Freehold","paon":"62","saon":"","street":"COMBS LANE","locality":"STOWMARKET","townOrCity":"STOWMARKET","district":"MID SUFFOLK","county":"SUFFOLK","ppdCategoryType":"Standard","recordStatus":"Addition","latitude":52.180517,"longitude":0.992307,"postcodeStart":"IP14 2","postcode":["IP14","2DD"]}
{"price":47000,"dateOfTransfer":"1995-02-13T00:00:00","postcodeFull":"IP14 2SA","propertyType":"Semi-detached","oldOrNew":"Established","duration":"Freehold","paon":"15","saon":"","street":"SCHOOL MEADOW","locality":"STOWMARKET","townOrCity":"STOWMARKET","district":"MID SUFFOLK","county":"SUFFOLK","ppdCategoryType":"Standard","recordStatus":"Addition","latitude":52.177659,"longitude":0.997542,"postcodeStart":"IP14 2","postcode":["IP14","2SA"]}
{"price":29500,"dateOfTransfer":"1995-01-20T00:00:00","postcodeFull":"IP14 2PB","propertyType":"Flat/Maisonette/Townhouse","oldOrNew":"Established","duration":"Leasehold","paon":"27","saon":"","street":"SEMER CLOSE","locality":"STOWMARKET","townOrCity":"STOWMARKET","district":"MID SUFFOLK","county":"SUFFOLK","ppdCategoryType":"Standard","recordStatus":"Addition","latitude":52.177172,"longitude":1.001825,"postcodeStart":"IP14 2","postcode":["IP14","2PB"]}
{"price":50250,"dateOfTransfer":"1995-04-07T00:00:00","postcodeFull":"IP14 2DN","propertyType":"Semi-detached","oldOrNew":"Established","duration":"Freehold","paon":"23","saon":"","street":"EDGECOMB ROAD","locality":"STOWMARKET","townOrCity":"STOWMARKET","district":"MID SUFFOLK","county":"SUFFOLK","ppdCategoryType":"Standard","recordStatus":"Addition","latitude":52.179142,"longitude":0.992258,"postcodeStart":"IP14 2","postcode":["IP14","2DN"]}
{"price":125000,"dateOfTransfer":"1995-06-01T00:00:00","postcodeFull":"IP14 2JE","propertyType":"Detached","oldOrNew":"Established","duration":"Freehold","paon":"HIGHFIELD HOUSE","saon":"","street":"LOWER FARM ROAD","locality":"RINGSHALL","townOrCity":"STOWMARKET","district":"MID SUFFOLK","county":"SUFFOLK","ppdCategoryType":"Standard","recordStatus":"Addition","latitude":52.123118,"longitude":0.988837,"postcodeStart":"IP14 2","postcode":["IP14","2JE"]}
{"price":106500,"dateOfTransfer":"1995-03-09T00:00:00","postcodeFull":"IP14 2QG","propertyType":"Detached","oldOrNew":"Established","duration":"Freehold","paon":"8","saon":"","street":"BARN MEADOW","locality":"COMBS","townOrCity":"STOWMARKET","district":"MID SUFFOLK","county":"SUFFOLK","ppdCategoryType":"Standard","recordStatus":"Addition","latitude":52.162676,"longitude":0.96657,"postcodeStart":"IP14 2","postcode":["IP14","2QG"]}
{"price":59000,"dateOfTransfer":"1995-02-28T00:00:00","postcodeFull":"IP14 2NR","propertyType":"Detached","oldOrNew":"Established","duration":"Freehold","paon":"14","saon":"","street":"MILLERS CLOSE","locality":"STOWMARKET","townOrCity":"STOWMARKET","district":"MID SUFFOLK","county":"SUFFOLK","ppdCategoryType":"Standard","recordStatus":"Addition","latitude":52.175931,"longitude":0.987654,"postcodeStart":"IP14 2","postcode":["IP14","2NR"]}
{"price":49400,"dateOfTransfer":"1995-06-09T00:00:00","postcodeFull":"IP14 2AT","propertyType":"Semi-detached","oldOrNew":"Established","duration":"Freehold","paon":"16","saon":"","street":"THE CRESCENT","locality":"STOWMARKET","townOrCity":"STOWMARKET","district":"MID SUFFOLK","county":"SUFFOLK","ppdCategoryType":"Standard","recordStatus":"Addition","latitude":52.178375,"longitude":0.997298,"postcodeStart":"IP14 2","postcode":["IP14","2AT"]}
{"price":72500,"dateOfTransfer":"1995-11-17T00:00:00","postcodeFull":"IP14 2JN","propertyType":"Detached","oldOrNew":"Established","duration":"Freehold","paon":"REED COTTAGE","saon":"","street":"PARK ROAD","locality":"COMBS","townOrCity":"STOWMARKET","district":"MID SUFFOLK","county":"SUFFOLK","ppdCategoryType":"Standard","recordStatus":"Addition","latitude":52.169813,"longitude":0.984624,"postcodeStart":"IP14 2","postcode":["IP14","2JN"]}
{"price":33700,"dateOfTransfer":"1995-08-11T00:00:00","postcodeFull":"IP14 2NS","propertyType":"Terraced","oldOrNew":"Established","duration":"Freehold","paon":"44","saon":"","street":"FARRIERS ROAD","locality":"STOWMARKET","townOrCity":"STOWMARKET","district":"MID SUFFOLK","county":"SUFFOLK","ppdCategoryType":"Standard","recordStatus":"Addition","latitude":52.176884,"longitude":0.98801,"postcodeStart":"IP14 2","postcode":["IP14","2NS"]}
{"price":56000,"dateOfTransfer":"1995-05-10T00:00:00","postcodeFull":"IP14 2SA","propertyType":"Detached","oldOrNew":"Established","duration":"Freehold","paon":"11","saon":"","street":"SCHOOL MEADOW","locality":"STOWMARKET","townOrCity":"STOWMARKET","district":"MID SUFFOLK","county":"SUFFOLK","ppdCategoryType":"Standard","recordStatus":"Addition","latitude":52.177659,"longitude":0.997542,"postcodeStart":"IP14 2","postcode":["IP14","2SA"]}
{"price":48000,"dateOfTransfer":"1995-07-21T00:00:00","postcodeFull":"IP14 2NT","propertyType":"Semi-detached","oldOrNew":"Established","duration":"Freehold","paon":"26","saon":"","street":"HESSETT CLOSE","locality":"STOWMARKET","townOrCity":"STOWMARKET","district":"MID SUFFOLK","county":"SUFFOLK","ppdCategoryType":"Standard","recordStatus":"Addition","latitude":52.176249,"longitude":1.005229,"postcodeStart":"IP14 2","postcode":["IP14","2NT"]}
{"price":175000,"dateOfTransfer":"1995-05-04T00:00:00","postcodeFull":"IP14 2NF","propertyType":"Detached","oldOrNew":"Established","duration":"Freehold","paon":"YEW TREE COTTAGE","saon":"","street":"MILL LANE","locality":"COMBS","townOrCity":"STOWMARKET","district":"MID SUFFOLK","county":"SUFFOLK","ppdCategoryType":"Standard","recordStatus":"Addition","latitude":52.161822,"longitude":0.972275,"postcodeStart":"IP14 2","postcode":["IP14","2NF"]}
{"price":53750,"dateOfTransfer":"1995-02-24T00:00:00","postcodeFull":"IP14 2EZ","propertyType":"Semi-detached","oldOrNew":"Established","duration":"Freehold","paon":"ANNAIRE","saon":"","street":"MOATS TYE","locality":"COMBS","townOrCity":"STOWMARKET","district":"MID SUFFOLK","county":"SUFFOLK","ppdCategoryType":"Standard","recordStatus":"Addition","latitude":52.156974,"longitude":0.983678,"postcodeStart":"IP14 2","postcode":["IP14","2EZ"]}
{"price":41000,"dateOfTransfer":"1995-08-25T00:00:00","postcodeFull":"IP14 2PR","propertyType":"Semi-detached","oldOrNew":"Established","duration":"Freehold","paon":"61","saon":"","street":"MELFORD ROAD","locality":"STOWMARKET","townOrCity":"STOWMARKET","district":"MID SUFFOLK","county":"SUFFOLK","ppdCategoryType":"Standard","recordStatus":"Addition","latitude":52.177617,"longitude":1.00696,"postcodeStart":"IP14 2","postcode":["IP14","2PR"]}
{"price":38500,"dateOfTransfer":"1995-08-29T00:00:00","postcodeFull":"IP14 2PB","propertyType":"Terraced","oldOrNew":"Established","duration":"Freehold","paon":"16","saon":"","street":"SEMER CLOSE","locality":"STOWMARKET","townOrCity":"STOWMARKET","district":"MID SUFFOLK","county":"SUFFOLK","ppdCategoryType":"Standard","recordStatus":"Addition","latitude":52.177172,"longitude":1.001825,"postcodeStart":"IP14 2","postcode":["IP14","2PB"]}
{"price":48000,"dateOfTransfer":"1995-02-24T00:00:00","postcodeFull":"IP14 2PJ","propertyType":"Terraced","oldOrNew":"Established","duration":"Freehold","paon":"11","saon":"","street":"POLSTEAD CLOSE","locality":"STOWMARKET","townOrCity":"STOWMARKET","district":"MID SUFFOLK","county":"SUFFOLK","ppdCategoryType":"Standard","recordStatus":"Addition","latitude":52.178403,"longitude":1.005404,"postcodeStart":"IP14 2","postcode":["IP14","2PJ"]}
{"price":26000,"dateOfTransfer":"1995-03-10T00:00:00","postcodeFull":"IP14 2ES","propertyType":"Detached","oldOrNew":"Established","duration":"Freehold","paon":"2","saon":"","street":"LITTLE LONDON","locality":"COMBS","townOrCity":"STOWMARKET","district":"MID SUFFOLK","county":"SUFFOLK","ppdCategoryType":"Standard","recordStatus":"Addition","latitude":52.161398,"longitude":0.995059,"postcodeStart":"IP14 2","postcode":["IP14","2ES"]}
{"price":93000,"dateOfTransfer":"1995-10-19T00:00:00","postcodeFull":"IP14 2LZ","propertyType":"Detached","oldOrNew":"New build","duration":"Freehold","paon":"PIPPINS","saon":"","street":"STRAIGHT ROAD","locality":"BATTISFORD","townOrCity":"STOWMARKET","district":"MID SUFFOLK","county":"SUFFOLK","ppdCategoryType":"Standard","recordStatus":"Addition","latitude":52.148417,"longitude":0.96068,"postcodeStart":"IP14 2","postcode":["IP14","2LZ"]}
{"price":42000,"dateOfTransfer":"1995-12-14T00:00:00","postcodeFull":"IP14 2PD","propertyType":"Terraced","oldOrNew":"Established","duration":"Freehold","paon":"60","saon":"","street":"LINDSEY WAY","locality":"STOWMARKET","townOrCity":"STOWMARKET","district":"MID SUFFOLK","county":"SUFFOLK","ppdCategoryType":"Standard","recordStatus":"Addition","latitude":52.175588,"longitude":0.997973,"postcodeStart":"IP14 2","postcode":["IP14","2PD"]}
{"price":46075,"dateOfTransfer":"1995-10-31T00:00:00","postcodeFull":"IP14 2JG","propertyType":"Terraced","oldOrNew":"New build","duration":"Freehold","paon":"10","saon":"","street":"MODEL FARM","locality":"COMBS","townOrCity":"STOWMARKET","district":"MID SUFFOLK","county":"SUFFOLK","ppdCategoryType":"Standard","recordStatus":"Addition","latitude":52.169834,"longitude":0.984086,"postcodeStart":"IP14 2","postcode":["IP14","2JG"]}
{"price":36500,"dateOfTransfer":"1995-04-28T00:00:00","postcodeFull":"IP14 2RD","propertyType":"Terraced","oldOrNew":"Established","duration":"Freehold","paon":"104","saon":"","street":"LINDSEY WAY","locality":"STOWMARKET","townOrCity":"STOWMARKET","district":"MID SUFFOLK","county":"SUFFOLK","ppdCategoryType":"Standard","recordStatus":"Addition","latitude":52.174791,"longitude":0.999602,"postcodeStart":"IP14 2","postcode":["IP14","2RD"]}
{"price":62500,"dateOfTransfer":"1995-05-26T00:00:00","postcodeFull":"IP14 2HP","propertyType":"Detached","oldOrNew":"Established","duration":"Freehold","paon":"PIPPIN COTTAGE","saon":"","street":"STRAIGHT ROAD","locality":"BATTISFORD","townOrCity":"STOWMARKET","district":"MID SUFFOLK","county":"SUFFOLK","ppdCategoryType":"Standard","recordStatus":"Addition","latitude":52.146668,"longitude":0.980811,"postcodeStart":"IP14 2","postcode":["IP14","2HP"]}
{"price":32000,"dateOfTransfer":"1995-07-31T00:00:00","postcodeFull":"IP14 2NS","propertyType":"Terraced","oldOrNew":"Established","duration":"Freehold","paon":"42","saon":"","street":"FARRIERS ROAD","locality":"STOWMARKET","townOrCity":"STOWMARKET","district":"MID SUFFOLK","county":"SUFFOLK","ppdCategoryType":"Standard","recordStatus":"Addition","latitude":52.176884,"longitude":0.98801,"postcodeStart":"IP14 2","postcode":["IP14","2NS"]}
{"price":45000,"dateOfTransfer":"1995-03-31T00:00:00","postcodeFull":"IP14 2RB","propertyType":"Semi-detached","oldOrNew":"Established","duration":"Freehold","paon":"14","saon":"","street":"WHATFIELD WAY","locality":"STOWMARKET","townOrCity":"STOWMARKET","district":"MID SUFFOLK","county":"SUFFOLK","ppdCategoryType":"Standard","recordStatus":"Addition","latitude":52.175147,"longitude":1.001176,"postcodeStart":"IP14 2","postcode":["IP14","2RB"]}
{"price":31000,"dateOfTransfer":"1995-02-17T00:00:00","postcodeFull":"IP14 2NX","propertyType":"Semi-detached","oldOrNew":"Established","duration":"Freehold","paon":"3","saon":"","street":"RAYDON CROFT","locality":"STOWMARKET","townOrCity":"STOWMARKET","district":"MID SUFFOLK","county":"SUFFOLK","ppdCategoryType":"Standard","recordStatus":"Addition","latitude":52.175407,"longitude":1.006489,"postcodeStart":"IP14 2","postcode":["IP14","2NX"]}
{"price":27000,"dateOfTransfer":"1995-06-30T00:00:00","postcodeFull":"IP14 2PR","propertyType":"Terraced","oldOrNew":"Established","duration":"Freehold","paon":"53","saon":"","street":"MELFORD ROAD","locality":"STOWMARKET","townOrCity":"STOWMARKET","district":"MID SUFFOLK","county":"SUFFOLK","ppdCategoryType":"Standard","recordStatus":"Addition","latitude":52.177617,"longitude":1.00696,"postcodeStart":"IP14 2","postcode":["IP14","2PR"]}
{"price":58000,"dateOfTransfer":"1995-06-02T00:00:00","postcodeFull":"IP14 2PF","propertyType":"Detached","oldOrNew":"Established","duration":"Freehold","paon":"20","saon":"","street":"HINTLESHAM CLOSE","locality":"STOWMARKET","townOrCity":"STOWMARKET","district":"MID SUFFOLK","county":"SUFFOLK","ppdCategoryType":"Standard","recordStatus":"Addition","latitude":52.176378,"longitude":1.003351,"postcodeStart":"IP14 2","postcode":["IP14","2PF"]}
{"price":42500,"dateOfTransfer":"1995-02-24T00:00:00","postcodeFull":"IP14 2DU","propertyType":"Semi-detached","oldOrNew":"Established","duration":"Freehold","paon":"15","saon":"","street":"WOOLMERS CLOSE","locality":"STOWMARKET","townOrCity":"STOWMARKET","district":"MID SUFFOLK","county":"SUFFOLK","ppdCategoryType":"Standard","recordStatus":"Addition","latitude":52.178462,"longitude":0.993178,"postcodeStart":"IP14 2","postcode":["IP14","2DU"]}
{"price":46250,"dateOfTransfer":"1995-04-07T00:00:00","postcodeFull":"IP14 2PE","propertyType":"Semi-detached","oldOrNew":"Established","duration":"Freehold","paon":"20","saon":"","street":"LAVENHAM WAY","locality":"STOWMARKET","townOrCity":"STOWMARKET","district":"MID SUFFOLK","county":"SUFFOLK","ppdCategoryType":"Standard","recordStatus":"Addition","latitude":52.175491,"longitude":1.00531,"postcodeStart":"IP14 2","postcode":["IP14","2PE"]}
{"price":41000,"dateOfTransfer":"1995-11-24T00:00:00","postcodeFull":"IP14 2NT","propertyType":"Semi-detached","oldOrNew":"Established","duration":"Freehold","paon":"19","saon":"","street":"HESSETT CLOSE","locality":"STOWMARKET","townOrCity":"STOWMARKET","district":"MID SUFFOLK","county":"SUFFOLK","ppdCategoryType":"Standard","recordStatus":"Addition","latitude":52.176249,"longitude":1.005229,"postcodeStart":"IP14 2","postcode":["IP14","2NT"]}
{"price":76500,"dateOfTransfer":"1995-06-14T00:00:00","postcodeFull":"IP14 2PD","propertyType":"Detached","oldOrNew":"Established","duration":"Freehold","paon":"27","saon":"","street":"LINDSEY WAY","locality":"STOWMARKET","townOrCity":"STOWMARKET","district":"MID SUFFOLK","county":"SUFFOLK","ppdCategoryType":"Standard","recordStatus":"Addition","latitude":52.175588,"longitude":0.997973,"postcodeStart":"IP14 2","postcode":["IP14","2PD"]}
{"price":43000,"dateOfTransfer":"1995-12-01T00:00:00","postcodeFull":"IP14 2NU","propertyType":"Semi-detached","oldOrNew":"Established","duration":"Freehold","paon":"9","saon":"","street":"ELMSETT CLOSE","locality":"STOWMARKET","townOrCity":"STOWMARKET","district":"MID SUFFOLK","county":"SUFFOLK","ppdCategoryType":"Standard","recordStatus":"Addition","latitude":52.176052,"longitude":1.00662,"postcodeStart":"IP14 2","postcode":["IP14","2NU"]}
{"price":39000,"dateOfTransfer":"1995-02-24T00:00:00","postcodeFull":"IP14 2PR","propertyType":"Semi-detached","oldOrNew":"Established","duration":"Freehold","paon":"27","saon":"","street":"MELFORD ROAD","locality":"STOWMARKET","townOrCity":"STOWMARKET","district":"MID SUFFOLK","county":"SUFFOLK","ppdCategoryType":"Standard","recordStatus":"Addition","latitude":52.177617,"longitude":1.00696,"postcodeStart":"IP14 2","postcode":["IP14","2PR"]}
{"price":44000,"dateOfTransfer":"1995-01-06T00:00:00","postcodeFull":"IP14 2BG","propertyType":"Semi-detached","oldOrNew":"Established","duration":"Freehold","paon":"12","saon":"","street":"KERSEY CLOSE","locality":"STOWMARKET","townOrCity":"STOWMARKET","district":"MID SUFFOLK","county":"SUFFOLK","ppdCategoryType":"Standard","recordStatus":"Addition","latitude":52.175808,"longitude":0.999231,"postcodeStart":"IP14 2","postcode":["IP14","2BG"]}
{"price":116350,"dateOfTransfer":"1995-10-14T00:00:00","postcodeFull":"IP14 2NZ","propertyType":"Detached","oldOrNew":"Established","duration":"Freehold","paon":"11","saon":"","street":"WEBBS CLOSE","locality":"COMBS","townOrCity":"STOWMARKET","district":"MID SUFFOLK","county":"SUFFOLK","ppdCategoryType":"Standard","recordStatus":"Addition","latitude":52.168503,"longitude":0.985854,"postcodeStart":"IP14 2","postcode":["IP14","2NZ"]}
{"price":45000,"dateOfTransfer":"1995-10-17T00:00:00","postcodeFull":"IP14 2DF","propertyType":"Detached","oldOrNew":"Established","duration":"Freehold","paon":"92","saon":"","street":"COMBS LANE","locality":"STOWMARKET","townOrCity":"STOWMARKET","district":"MID SUFFOLK","county":"SUFFOLK","ppdCategoryType":"Standard","recordStatus":"Addition","latitude":52.180997,"longitude":0.990027,"postcodeStart":"IP14 2","postcode":["IP14","2DF"]}
{"price":65250,"dateOfTransfer":"1995-04-07T00:00:00","postcodeFull":"IP14 2PS","propertyType":"Detached","oldOrNew":"Established","duration":"Freehold","paon":"13","saon":"","street":"ALDHAM GARDENS","locality":"STOWMARKET","townOrCity":"STOWMARKET","district":"MID SUFFOLK","county":"SUFFOLK","ppdCategoryType":"Standard","recordStatus":"Addition","latitude":52.177747,"longitude":1.003955,"postcodeStart":"IP14 2","postcode":["IP14","2PS"]}
{"price":155000,"dateOfTransfer":"1995-02-16T00:00:00","postcodeFull":"IP14 2AB","propertyType":"Detached","oldOrNew":"Established","duration":"Freehold","paon":"3","saon":"","street":"WYNTON RISE","locality":"STOWMARKET","townOrCity":"STOWMARKET","district":"MID SUFFOLK","county":"SUFFOLK","ppdCategoryType":"Standard","recordStatus":"Addition","latitude":52.179362,"longitude":1.001636,"postcodeStart":"IP14 2","postcode":["IP14","2AB"]}
{"price":43950,"dateOfTransfer":"1995-06-16T00:00:00","postcodeFull":"IP14 2DZ","propertyType":"Semi-detached","oldOrNew":"Established","duration":"Freehold","paon":"23","saon":"","street":"JUBILEE AVENUE","locality":"STOWMARKET","townOrCity":"STOWMARKET","district":"MID SUFFOLK","county":"SUFFOLK","ppdCategoryType":"Standard","recordStatus":"Addition","latitude":52.178542,"longitude":0.993929,"postcodeStart":"IP14 2","postcode":["IP14","2DZ"]}
{"price":15000,"dateOfTransfer":"1995-12-22T00:00:00","postcodeFull":"IP14 2AS","propertyType":"Flat/Maisonette/Townhouse","oldOrNew":"Established","duration":"Leasehold","paon":"36","saon":"","street":"POPLAR HILL","locality":"STOWMARKET","townOrCity":"STOWMARKET","district":"MID SUFFOLK","county":"SUFFOLK","ppdCategoryType":"Standard","recordStatus":"Addition","latitude":52.179362,"longitude":0.997042,"postcodeStart":"IP14 2","postcode":["IP14","2AS"]}
{"price":126000,"dateOfTransfer":"1995-10-25T00:00:00","postcodeFull":"IP14 2HW","propertyType":"Detached","oldOrNew":"Established","duration":"Freehold","paon":"WOODLANDS","saon":"","street":"VALLEY ROAD","locality":"BATTISFORD","townOrCity":"STOWMARKET","district":"MID SUFFOLK","county":"SUFFOLK","ppdCategoryType":"Standard","recordStatus":"Addition","latitude":52.144616,"longitude":0.9919,"postcodeStart":"IP14 2","postcode":["IP14","2HW"]}
{"price":44500,"dateOfTransfer":"1995-06-30T00:00:00","postcodeFull":"IP14 2DW","propertyType":"Semi-detached","oldOrNew":"Established","duration":"Freehold","paon":"68","saon":"","street":"EDGECOMB ROAD","locality":"STOWMARKET","townOrCity":"STOWMARKET","district":"MID SUFFOLK","county":"SUFFOLK","ppdCategoryType":"Standard","recordStatus":"Addition","latitude":52.178126,"longitude":0.990829,"postcodeStart":"IP14 2","postcode":["IP14","2DW"]}
{"price":51000,"dateOfTransfer":"1995-12-21T00:00:00","postcodeFull":"IP14 2DL","propertyType":"Semi-detached","oldOrNew":"Established","duration":"Freehold","paon":"37","saon":"","street":"ALDIS AVENUE","locality":"STOWMARKET","townOrCity":"STOWMARKET","district":"MID SUFFOLK","county":"SUFFOLK","ppdCategoryType":"Standard","recordStatus":"Addition","latitude":52.180009,"longitude":0.991424,"postcodeStart":"IP14 2","postcode":["IP14","2DL"]}
{"price":45000,"dateOfTransfer":"1995-05-12T00:00:00","postcodeFull":"IP14 2PF","propertyType":"Semi-detached","oldOrNew":"Established","duration":"Freehold","paon":"26","saon":"","street":"HINTLESHAM CLOSE","locality":"STOWMARKET","townOrCity":"STOWMARKET","district":"MID SUFFOLK","county":"SUFFOLK","ppdCategoryType":"Standard","recordStatus":"Addition","latitude":52.176378,"longitude":1.003351,"postcodeStart":"IP14 2","postcode":["IP14","2PF"]}
{"price":54000,"dateOfTransfer":"1995-05-12T00:00:00","postcodeFull":"IP14 2PF","propertyType":"Terraced","oldOrNew":"Established","duration":"Freehold","paon":"22","saon":"","street":"HINTLESHAM CLOSE","locality":"STOWMARKET","townOrCity":"STOWMARKET","district":"MID SUFFOLK","county":"SUFFOLK","ppdCategoryType":"Standard","recordStatus":"Addition","latitude":52.176378,"longitude":1.003351,"postcodeStart":"IP14 2","postcode":["IP14","2PF"]}
{"price":55000,"dateOfTransfer":"1995-11-30T00:00:00","postcodeFull":"IP14 2BH","propertyType":"Semi-detached","oldOrNew":"Established","duration":"Freehold","paon":"7","saon":"","street":"CLARE CLOSE","locality":"STOWMARKET","townOrCity":"STOWMARKET","district":"MID SUFFOLK","county":"SUFFOLK","ppdCategoryType":"Standard","recordStatus":"Addition","latitude":52.176744,"longitude":1.000611,"postcodeStart":"IP14 2","postcode":["IP14","2BH"]}
{"price":136000,"dateOfTransfer":"1995-05-31T00:00:00","postcodeFull":"IP14 2HX","propertyType":"Detached","oldOrNew":"Established","duration":"Freehold","paon":"CEDARS","saon":"","street":"WATTISHAM ROAD","locality":"RINGSHALL","townOrCity":"STOWMARKET","district":"MID SUFFOLK","county":"SUFFOLK","ppdCategoryType":"Standard","recordStatus":"Addition","latitude":52.131487,"longitude":0.950453,"postcodeStart":"IP14 2","postcode":["IP14","2HX"]}
{"price":95000,"dateOfTransfer":"1995-10-20T00:00:00","postcodeFull":"IP14 2NB","propertyType":"Detached","oldOrNew":"Established","duration":"Freehold","paon":"WINDSOR LODGE","saon":"","street":"STRAIGHT ROAD","locality":"BATTISFORD","townOrCity":"STOWMARKET","district":"MID SUFFOLK","county":"SUFFOLK","ppdCategoryType":"Standard","recordStatus":"Addition","latitude":52.147686,"longitude":0.96221,"postcodeStart":"IP14 2","postcode":["IP14","2NB"]}
{"price":42000,"dateOfTransfer":"1995-07-14T00:00:00","postcodeFull":"IP14 2PF","propertyType":"Semi-detached","oldOrNew":"Established","duration":"Freehold","paon":"33","saon":"","street":"HINTLESHAM CLOSE","locality":"STOWMARKET","townOrCity":"STOWMARKET","district":"MID SUFFOLK","county":"SUFFOLK","ppdCategoryType":"Standard","recordStatus":"Addition","latitude":52.176378,"longitude":1.003351,"postcodeStart":"IP14 2","postcode":["IP14","2PF"]}
{"price":95000,"dateOfTransfer":"1995-03-24T00:00:00","postcodeFull":"IP14 2ES","propertyType":"Semi-detached","oldOrNew":"Established","duration":"Freehold","paon":"WALNUT TREE COTTAGE","saon":"","street":"LITTLE LONDON","locality":"COMBS","townOrCity":"STOWMARKET","district":"MID SUFFOLK","county":"SUFFOLK","ppdCategoryType":"Standard","recordStatus":"Addition","latitude":52.161398,"longitude":0.995059,"postcodeStart":"IP14 2","postcode":["IP14","2ES"]}
{"price":42450,"dateOfTransfer":"1995-04-05T00:00:00","postcodeFull":"IP14 2PT","propertyType":"Semi-detached","oldOrNew":"Established","duration":"Freehold","paon":"103","saon":"","street":"MELFORD ROAD","locality":"STOWMARKET","townOrCity":"STOWMARKET","district":"MID SUFFOLK","county":"SUFFOLK","ppdCategoryType":"Standard","recordStatus":"Addition","latitude":52.176454,"longitude":1.008125,"postcodeStart":"IP14 2","postcode":["IP14","2PT"]}
{"price":40500,"dateOfTransfer":"1995-12-15T00:00:00","postcodeFull":"IP14 2RE","propertyType":"Terraced","oldOrNew":"Established","duration":"Freehold","paon":"1","saon":"","street":"CHATTISHAM CLOSE","locality":"STOWMARKET","townOrCity":"STOWMARKET","district":"MID SUFFOLK","county":"SUFFOLK","ppdCategoryType":"Standard","recordStatus":"Addition","latitude":52.174821,"longitude":1.000891,"postcodeStart":"IP14 2","postcode":["IP14","2RE"]}
{"price":46500,"dateOfTransfer":"1995-08-25T00:00:00","postcodeFull":"IP14 2PQ","propertyType":"Semi-detached","oldOrNew":"Established","duration":"Freehold","paon":"87","saon":"","street":"LAVENHAM WAY","locality":"STOWMARKET","townOrCity":"STOWMARKET","district":"MID SUFFOLK","county":"SUFFOLK","ppdCategoryType":"Standard","recordStatus":"Addition","latitude":52.175784,"longitude":1.005812,"postcodeStart":"IP14 2","postcode":["IP14","2PQ"]}
{"price":68000,"dateOfTransfer":"1995-03-31T00:00:00","postcodeFull":"IP14 2RB","propertyType":"Detached","oldOrNew":"Established","duration":"Freehold","paon":"17","saon":"","street":"WHATFIELD WAY","locality":"STOWMARKET","townOrCity":"STOWMARKET","district":"MID SUFFOLK","county":"SUFFOLK","ppdCategoryType":"Standard","recordStatus":"Addition","latitude":52.175147,"longitude":1.001176,"postcodeStart":"IP14 2","postcode":["IP14","2RB"]}
{"price":99000,"dateOfTransfer":"1995-09-01T00:00:00","postcodeFull":"IP14 2HE","propertyType":"Detached","oldOrNew":"Established","duration":"Freehold","paon":"CRICKHOLLOW","saon":"","street":"CHURCH ROAD","locality":"BATTISFORD","townOrCity":"STOWMARKET","district":"MID SUFFOLK","county":"SUFFOLK","ppdCategoryType":"Standard","recordStatus":"Addition","latitude":52.148927,"longitude":0.988915,"postcodeStart":"IP14 2","postcode":["IP14","2HE"]}
{"price":41000,"dateOfTransfer":"1995-02-17T00:00:00","postcodeFull":"IP14 2DN","propertyType":"Semi-detached","oldOrNew":"Established","duration":"Freehold","paon":"20","saon":"","street":"EDGECOMB ROAD","locality":"STOWMARKET","townOrCity":"STOWMARKET","district":"MID SUFFOLK","county":"SUFFOLK","ppdCategoryType":"Standard","recordStatus":"Addition","latitude":52.179142,"longitude":0.992258,"postcodeStart":"IP14 2","postcode":["IP14","2DN"]}
{"price":56000,"dateOfTransfer":"1995-10-27T00:00:00","postcodeFull":"IP14 2PJ","propertyType":"Semi-detached","oldOrNew":"Established","duration":"Freehold","paon":"42","saon":"","street":"POLSTEAD CLOSE","locality":"STOWMARKET","townOrCity":"STOWMARKET","district":"MID SUFFOLK","county":"SUFFOLK","ppdCategoryType":"Standard","recordStatus":"Addition","latitude":52.178403,"longitude":1.005404,"postcodeStart":"IP14 2","postcode":["IP14","2PJ"]}
{"price":46950,"dateOfTransfer":"1995-05-02T00:00:00","postcodeFull":"IP14 2NT","propertyType":"Terraced","oldOrNew":"Established","duration":"Freehold","paon":"16","saon":"","street":"HESSETT CLOSE","locality":"STOWMARKET","townOrCity":"STOWMARKET","district":"MID SUFFOLK","county":"SUFFOLK","ppdCategoryType":"Standard","recordStatus":"Addition","latitude":52.176249,"longitude":1.005229,"postcodeStart":"IP14 2","postcode":["IP14","2NT"]}
{"price":68000,"dateOfTransfer":"1995-12-01T00:00:00","postcodeFull":"IP14 2JE","propertyType":"Detached","oldOrNew":"Established","duration":"Freehold","paon":"MEWS COTTAGE","saon":"","street":"LOWER FARM ROAD","locality":"RINGSHALL","townOrCity":"STOWMARKET","district":"MID SUFFOLK","county":"SUFFOLK","ppdCategoryType":"Standard","recordStatus":"Addition","latitude":52.123118,"longitude":0.988837,"postcodeStart":"IP14 2","postcode":["IP14","2JE"]}
{"price":29000,"dateOfTransfer":"1995-01-20T00:00:00","postcodeFull":"IP14 2JE","propertyType":"Terraced","oldOrNew":"Established","duration":"Freehold","paon":"THE COTTAGE AT LOST ORCHARDS","saon":"","street":"LOWER FARM ROAD","locality":"RINGSHALL","townOrCity":"STOWMARKET","district":"MID SUFFOLK","county":"SUFFOLK","ppdCategoryType":"Standard","recordStatus":"Addition","latitude":52.123118,"longitude":0.988837,"postcodeStart":"IP14 2","postcode":["IP14","2JE"]}
{"price":27000,"dateOfTransfer":"1995-07-28T00:00:00","postcodeFull":"IP14 2PG","propertyType":"Terraced","oldOrNew":"Established","duration":"Freehold","paon":"40","saon":"","street":"FLATFORD CLOSE","locality":"STOWMARKET","townOrCity":"STOWMARKET","district":"MID SUFFOLK","county":"SUFFOLK","ppdCategoryType":"Standard","recordStatus":"Addition","latitude":52.1763,"longitude":1.004282,"postcodeStart":"IP14 2","postcode":["IP14","2PG"]}
{"price":44500,"dateOfTransfer":"1995-12-04T00:00:00","postcodeFull":"IP14 2NU","propertyType":"Semi-detached","oldOrNew":"Established","duration":"Freehold","paon":"8","saon":"","street":"ELMSETT CLOSE","locality":"STOWMARKET","townOrCity":"STOWMARKET","district":"MID SUFFOLK","county":"SUFFOLK","ppdCategoryType":"Standard","recordStatus":"Addition","latitude":52.176052,"longitude":1.00662,"postcodeStart":"IP14 2","postcode":["IP14","2NU"]}
{"price":72400,"dateOfTransfer":"1995-02-14T00:00:00","postcodeFull":"IP14 2JE","propertyType":"Detached","oldOrNew":"Established","duration":"Freehold","paon":"FIELD VIEW","saon":"","street":"LOWER FARM ROAD","locality":"RINGSHALL","townOrCity":"STOWMARKET","district":"MID SUFFOLK","county":"SUFFOLK","ppdCategoryType":"Standard","recordStatus":"Addition","latitude":52.123118,"longitude":0.988837,"postcodeStart":"IP14 2","postcode":["IP14","2JE"]}
{"price":162500,"dateOfTransfer":"1995-03-31T00:00:00","postcodeFull":"IP14 2HH","propertyType":"Detached","oldOrNew":"Established","duration":"Freehold","paon":"STONE CROFT","saon":"","street":"VALLEY ROAD","locality":"BATTISFORD","townOrCity":"STOWMARKET","district":"MID SUFFOLK","county":"SUFFOLK","ppdCategoryType":"Standard","recordStatus":"Addition","latitude":52.144572,"longitude":1.012333,"postcodeStart":"IP14 2","postcode":["IP14","2HH"]}
{"price":40000,"dateOfTransfer":"1995-05-16T00:00:00","postcodeFull":"IP14 2PB","propertyType":"Terraced","oldOrNew":"Established","duration":"Freehold","paon":"21","saon":"","street":"SEMER CLOSE","locality":"STOWMARKET","townOrCity":"STOWMARKET","district":"MID SUFFOLK","county":"SUFFOLK","ppdCategoryType":"Standard","recordStatus":"Addition","latitude":52.177172,"longitude":1.001825,"postcodeStart":"IP14 2","postcode":["IP14","2PB"]}
{"price":43000,"dateOfTransfer":"1995-02-28T00:00:00","postcodeFull":"IP14 2RE","propertyType":"Terraced","oldOrNew":"Established","duration":"Freehold","paon":"6","saon":"","street":"CHATTISHAM CLOSE","locality":"STOWMARKET","townOrCity":"STOWMARKET","district":"MID SUFFOLK","county":"SUFFOLK","ppdCategoryType":"Standard","recordStatus":"Addition","latitude":52.174821,"longitude":1.000891,"postcodeStart":"IP14 2","postcode":["IP14","2RE"]}
{"price":44000,"dateOfTransfer":"1995-03-24T00:00:00","postcodeFull":"IP14 2PB","propertyType":"Terraced","oldOrNew":"Established","duration":"Freehold","paon":"45","saon":"","street":"SEMER CLOSE","locality":"STOWMARKET","townOrCity":"STOWMARKET","district":"MID SUFFOLK","county":"SUFFOLK","ppdCategoryType":"Standard","recordStatus":"Addition","latitude":52.177172,"longitude":1.001825,"postcodeStart":"IP14 2","postcode":["IP14","2PB"]}
{"price":44000,"dateOfTransfer":"1995-06-14T00:00:00","postcodeFull":"IP14 2PE","propertyType":"Terraced","oldOrNew":"Established","duration":"Freehold","paon":"16","saon":"","street":"LAVENHAM WAY","locality":"STOWMARKET","townOrCity":"STOWMARKET","district":"MID SUFFOLK","county":"SUFFOLK","ppdCategoryType":"Standard","recordStatus":"Addition","latitude":52.175491,"longitude":1.00531,"postcodeStart":"IP14 2","postcode":["IP14","2PE"]}
{"price":25000,"dateOfTransfer":"1995-07-14T00:00:00","postcodeFull":"IP14 2NJ","propertyType":"Terraced","oldOrNew":"Established","duration":"Freehold","paon":"FEN FARM COTTAGES","saon":"2","street":"COMBS LANE","locality":"STOWMARKET","townOrCity":"STOWMARKET","district":"MID SUFFOLK","county":"SUFFOLK","ppdCategoryType":"Standard","recordStatus":"Addition","latitude":52.184094,"longitude":0.979613,"postcodeStart":"IP14 2","postcode":["IP14","2NJ"]}
{"price":118000,"dateOfTransfer":"1995-02-24T00:00:00","postcodeFull":"IP14 2ES","propertyType":"Detached","oldOrNew":"Established","duration":"Freehold","paon":"THE COTTAGE","saon":"","street":"LITTLE LONDON","locality":"COMBS","townOrCity":"STOWMARKET","district":"MID SUFFOLK","county":"SUFFOLK","ppdCategoryType":"Standard","recordStatus":"Addition","latitude":52.161398,"longitude":0.995059,"postcodeStart":"IP14 2","postcode":["IP14","2ES"]}
{"price":35000,"dateOfTransfer":"1995-05-31T00:00:00","postcodeFull":"IP14 2DY","propertyType":"Terraced","oldOrNew":"Established","duration":"Freehold","paon":"9","saon":"","street":"WAYSIDE CLOSE","locality":"STOWMARKET","townOrCity":"STOWMARKET","district":"MID SUFFOLK","county":"SUFFOLK","ppdCategoryType":"Standard","recordStatus":"Addition","latitude":52.177456,"longitude":0.991763,"postcodeStart":"IP14 2","postcode":["IP14","2DY"]}
{"price":44750,"dateOfTransfer":"1995-04-13T00:00:00","postcodeFull":"IP14 2NT","propertyType":"Semi-detached","oldOrNew":"Established","duration":"Freehold","paon":"18","saon":"","street":"HESSETT CLOSE","locality":"STOWMARKET","townOrCity":"STOWMARKET","district":"MID SUFFOLK","county":"SUFFOLK","ppdCategoryType":"Standard","recordStatus":"Addition","latitude":52.176249,"longitude":1.005229,"postcodeStart":"IP14 2","postcode":["IP14","2NT"]}
{"price":49995,"dateOfTransfer":"1995-02-24T00:00:00","postcodeFull":"IP14 2BG","propertyType":"Semi-detached","oldOrNew":"Established","duration":"Freehold","paon":"11","saon":"","street":"KERSEY CLOSE","locality":"STOWMARKET","townOrCity":"STOWMARKET","district":"MID SUFFOLK","county":"SUFFOLK","ppdCategoryType":"Standard","recordStatus":"Addition","latitude":52.175808,"longitude":0.999231,"postcodeStart":"IP14 2","postcode":["IP14","2BG"]}
{"price":59000,"dateOfTransfer":"1995-08-31T00:00:00","postcodeFull":"IP14 2NY","propertyType":"Semi-detached","oldOrNew":"Established","duration":"Freehold","paon":"12","saon":"","street":"SHELLEY CLOSE","locality":"STOWMARKET","townOrCity":"STOWMARKET","district":"MID SUFFOLK","county":"SUFFOLK","ppdCategoryType":"Standard","recordStatus":"Addition","latitude":52.175508,"longitude":1.007461,"postcodeStart":"IP14 2","postcode":["IP14","2NY"]}
{"price":57995,"dateOfTransfer":"1995-02-10T00:00:00","postcodeFull":"IP14 2PR","propertyType":"Detached","oldOrNew":"Established","duration":"Freehold","paon":"41","saon":"","street":"MELFORD ROAD","locality":"STOWMARKET","townOrCity":"STOWMARKET","district":"MID SUFFOLK","county":"SUFFOLK","ppdCategoryType":"Standard","recordStatus":"Addition","latitude":52.177617,"longitude":1.00696,"postcodeStart":"IP14 2","postcode":["IP14","2PR"]}
{"price":40750,"dateOfTransfer":"1996-10-18T00:00:00","postcodeFull":"IP14 2PD","propertyType":"Semi-detached","oldOrNew":"Established","duration":"Freehold","paon":"3","saon":"","street":"LINDSEY WAY","locality":"STOWMARKET","townOrCity":"STOWMARKET","district":"MID SUFFOLK","county":"SUFFOLK","ppdCategoryType":"Standard","recordStatus":"Addition","latitude":52.175588,"longitude":0.997973,"postcodeStart":"IP14 2","postcode":["IP14","2PD"]}
{"price":48000,"dateOfTransfer":"1996-08-23T00:00:00","postcodeFull":"IP14 2HU","propertyType":"Semi-detached","oldOrNew":"Established","duration":"Freehold","paon":"MEAD COTTAGE","saon":"","street":"CHARLES TYE","locality":"RINGSHALL","townOrCity":"STOWMARKET","district":"MID SUFFOLK","county":"SUFFOLK","ppdCategoryType":"Standard","recordStatus":"Addition","latitude":52.134256,"longitude":0.953003,"postcodeStart":"IP14 2","postcode":["IP14","2HU"]}
{"price":38500,"dateOfTransfer":"1996-10-25T00:00:00","postcodeFull":"IP14 2NT","propertyType":"Semi-detached","oldOrNew":"Established","duration":"Freehold","paon":"21","saon":"","street":"HESSETT CLOSE","locality":"STOWMARKET","townOrCity":"STOWMARKET","district":"MID SUFFOLK","county":"SUFFOLK","ppdCategoryType":"Standard","recordStatus":"Addition","latitude":52.176249,"longitude":1.005229,"postcodeStart":"IP14 2","postcode":["IP14","2NT"]}
{"price":37995,"dateOfTransfer":"1996-04-26T00:00:00","postcodeFull":"IP14 2DR","propertyType":"Terraced","oldOrNew":"Established","duration":"Freehold","paon":"9","saon":"","street":"THATCHERS WALK","locality":"STOWMARKET","townOrCity":"STOWMARKET","district":"MID SUFFOLK","county":"SUFFOLK","ppdCategoryType":"Standard","recordStatus":"Addition","latitude":52.177117,"longitude":0.990191,"postcodeStart":"IP14 2","postcode":["IP14","2DR"]}
{"price":58000,"dateOfTransfer":"1996-02-28T00:00:00","postcodeFull":"IP14 2NP","propertyType":"Detached","oldOrNew":"Established","duration":"Freehold","paon":"14","saon":"","street":"COMBS GREEN","locality":"COMBS","townOrCity":"STOWMARKET","district":"MID SUFFOLK","county":"SUFFOLK","ppdCategoryType":"Standard","recordStatus":"Addition","latitude":52.163461,"longitude":0.967193,"postcodeStart":"IP14 2","postcode":["IP14","2NP"]}
{"price":68000,"dateOfTransfer":"1996-05-29T00:00:00","postcodeFull":"IP14 2PT","propertyType":"Detached","oldOrNew":"Established","duration":"Freehold","paon":"79","saon":"","street":"MELFORD ROAD","locality":"STOWMARKET","townOrCity":"STOWMARKET","district":"MID SUFFOLK","county":"SUFFOLK","ppdCategoryType":"Standard","recordStatus":"Addition","latitude":52.176454,"longitude":1.008125,"postcodeStart":"IP14 2","postcode":["IP14","2PT"]}
{"price":70000,"dateOfTransfer":"1996-07-26T00:00:00","postcodeFull":"IP14 2PY","propertyType":"Detached","oldOrNew":"Established","duration":"Freehold","paon":"13","saon":"","street":"LAYHAM GARDENS","locality":"STOWMARKET","townOrCity":"STOWMARKET","district":"MID SUFFOLK","county":"SUFFOLK","ppdCategoryType":"Standard","recordStatus":"Addition","latitude":52.17682,"longitude":1.006102,"postcodeStart":"IP14 2","postcode":["IP14","2PY"]}
{"price":30500,"dateOfTransfer":"1996-07-18T00:00:00","postcodeFull":"IP14 2DW","propertyType":"Terraced","oldOrNew":"Established","duration":"Freehold","paon":"92","saon":"","street":"EDGECOMB ROAD","locality":"STOWMARKET","townOrCity":"STOWMARKET","district":"MID SUFFOLK","county":"SUFFOLK","ppdCategoryType":"Standard","recordStatus":"Addition","latitude":52.178126,"longitude":0.990829,"postcodeStart":"IP14 2","postcode":["IP14","2DW"]}
{"price":78500,"dateOfTransfer":"1996-11-07T00:00:00","postcodeFull":"IP14 2JE","propertyType":"Detached","oldOrNew":"Established","duration":"Freehold","paon":"WESTBROOK","saon":"","street":"LOWER FARM ROAD","locality":"RINGSHALL","townOrCity":"STOWMARKET","district":"MID SUFFOLK","county":"SUFFOLK","ppdCategoryType":"Standard","recordStatus":"Addition","latitude":52.123118,"longitude":0.988837,"postcodeStart":"IP14 2","postcode":["IP14","2JE"]}
{"price":40000,"dateOfTransfer":"1996-05-03T00:00:00","postcodeFull":"IP14 2EL","propertyType":"Detached","oldOrNew":"Established","duration":"Freehold","paon":"THE OLD POST OFFICE","saon":"","street":"TANNERY ROAD","locality":"COMBS","townOrCity":"STOWMARKET","district":"MID SUFFOLK","county":"SUFFOLK","ppdCategoryType":"Standard","recordStatus":"Addition","latitude":52.168434,"longitude":0.9868,"postcodeStart":"IP14 2","postcode":["IP14","2EL"]}
{"price":72000,"dateOfTransfer":"1996-07-12T00:00:00","postcodeFull":"IP14 2RA","propertyType":"Detached","oldOrNew":"Established","duration":"Freehold","paon":"7","saon":"","street":"NAUGHTON GARDENS","locality":"STOWMARKET","townOrCity":"STOWMARKET","district":"MID SUFFOLK","county":"SUFFOLK","ppdCategoryType":"Standard","recordStatus":"Addition","latitude":52.174719,"longitude":0.998222,"postcodeStart":"IP14 2","postcode":["IP14","2RA"]}
{"price":35500,"dateOfTransfer":"1996-01-31T00:00:00","postcodeFull":"IP14 2AS","propertyType":"Terraced","oldOrNew":"Established","duration":"Freehold","paon":"32","saon":"","street":"POPLAR HILL","locality":"STOWMARKET","townOrCity":"STOWMARKET","district":"MID SUFFOLK","county":"SUFFOLK","ppdCategoryType":"Standard","recordStatus":"Addition","latitude":52.179362,"longitude":0.997042,"postcodeStart":"IP14 2","postcode":["IP14","2AS"]}
{"price":83250,"dateOfTransfer":"1996-06-21T00:00:00","postcodeFull":"IP14 2DQ","propertyType":"Detached","oldOrNew":"Established","duration":"Freehold","paon":"41","saon":"","street":"CAMPION CRESCENT","locality":"STOWMARKET","townOrCity":"STOWMARKET","district":"MID SUFFOLK","county":"SUFFOLK","ppdCategoryType":"Standard","recordStatus":"Addition","latitude":52.178671,"longitude":0.987779,"postcodeStart":"IP14 2","postcode":["IP14","2DQ"]}
{"price":30000,"dateOfTransfer":"1996-03-22T00:00:00","postcodeFull":"IP14 2JP","propertyType":"Terraced","oldOrNew":"Established","duration":"Freehold","paon":"4","saon":"","street":"ROPERS ROW","locality":"COMBS","townOrCity":"STOWMARKET","district":"MID SUFFOLK","county":"SUFFOLK","ppdCategoryType":"Standard","recordStatus":"Addition","latitude":52.169127,"longitude":0.979665,"postcodeStart":"IP14 2","postcode":["IP14","2JP"]}
{"price":41000,"dateOfTransfer":"1996-05-31T00:00:00","postcodeFull":"IP14 2PB","propertyType":"Terraced","oldOrNew":"Established","duration":"Freehold","paon":"22","saon":"","street":"SEMER CLOSE","locality":"STOWMARKET","townOrCity":"STOWMARKET","district":"MID SUFFOLK","county":"SUFFOLK","ppdCategoryType":"Standard","recordStatus":"Addition","latitude":52.177172,"longitude":1.001825,"postcodeStart":"IP14 2","postcode":["IP14","2PB"]}
{"price":40995,"dateOfTransfer":"1996-04-29T00:00:00","postcodeFull":"IP14 2PB","propertyType":"Terraced","oldOrNew":"Established","duration":"Freehold","paon":"16","saon":"","street":"SEMER CLOSE","locality":"STOWMARKET","townOrCity":"STOWMARKET","district":"MID SUFFOLK","county":"SUFFOLK","ppdCategoryType":"Standard","recordStatus":"Addition","latitude":52.177172,"longitude":1.001825,"postcodeStart":"IP14 2","postcode":["IP14","2PB"]}
{"price":33000,"dateOfTransfer":"1996-04-26T00:00:00","postcodeFull":"IP14 2PP","propertyType":"Terraced","oldOrNew":"Established","duration":"Freehold","paon":"50","saon":"","street":"MELFORD ROAD","locality":"STOWMARKET","townOrCity":"STOWMARKET","district":"MID SUFFOLK","county":"SUFFOLK","ppdCategoryType":"Standard","recordStatus":"Addition","latitude":52.17713,"longitude":1.006284,"postcodeStart":"IP14 2","postcode":["IP14","2PP"]}
{"price":36000,"dateOfTransfer":"1996-10-04T00:00:00","postcodeFull":"IP14 2AS","propertyType":"Terraced","oldOrNew":"Established","duration":"Freehold","paon":"14","saon":"","street":"POPLAR HILL","locality":"STOWMARKET","townOrCity":"STOWMARKET","district":"MID SUFFOLK","county":"SUFFOLK","ppdCategoryType":"Standard","recordStatus":"Addition","latitude":52.179362,"longitude":0.997042,"postcodeStart":"IP14 2","postcode":["IP14","2AS"]}
{"price":73000,"dateOfTransfer":"1996-07-19T00:00:00","postcodeFull":"IP14 2BT","propertyType":"Detached","oldOrNew":"Established","duration":"Freehold","paon":"16","saon":"","street":"CHELSWORTH WAY","locality":"STOWMARKET","townOrCity":"STOWMARKET","district":"MID SUFFOLK","county":"SUFFOLK","ppdCategoryType":"Standard","recordStatus":"Addition","latitude":52.176614,"longitude":1.001831,"postcodeStart":"IP14 2","postcode":["IP14","2BT"]}
{"price":59918,"dateOfTransfer":"1996-01-19T00:00:00","postcodeFull":"IP14 2AL","propertyType":"Semi-detached","oldOrNew":"Established","duration":"Freehold","paon":"73","saon":"","street":"NEEDHAM ROAD","locality":"STOWMARKET","townOrCity":"STOWMARKET","district":"MID SUFFOLK","county":"SUFFOLK","ppdCategoryType":"Standard","recordStatus":"Addition","latitude":52.180048,"longitude":1.004037,"postcodeStart":"IP14 2","postcode":["IP14","2AL"]}
{"price":40000,"dateOfTransfer":"1996-02-22T00:00:00","postcodeFull":"IP14 2PE","propertyType":"Detached","oldOrNew":"Established","duration":"Freehold","paon":"68","saon":"","street":"LAVENHAM WAY","locality":"STOWMARKET","townOrCity":"STOWMARKET","district":"MID SUFFOLK","county":"SUFFOLK","ppdCategoryType":"Standard","recordStatus":"Addition","latitude":52.175491,"longitude":1.00531,"postcodeStart":"IP14 2","postcode":["IP14","2PE"]}
{"price":134000,"dateOfTransfer":"1996-12-13T00:00:00","postcodeFull":"IP14 2EW","propertyType":"Detached","oldOrNew":"Established","duration":"Freehold","paon":"FAIRFIELD HOUSE","saon":"","street":"TANNERY ROAD","locality":"COMBS","townOrCity":"STOWMARKET","district":"MID SUFFOLK","county":"SUFFOLK","ppdCategoryType":"Standard","recordStatus":"Addition","latitude":52.163103,"longitude":0.983167,"postcodeStart":"IP14 2","postcode":["IP14","2EW"]}
{"price":43000,"dateOfTransfer":"1996-05-29T00:00:00","postcodeFull":"IP14 2PB","propertyType":"Terraced","oldOrNew":"Established","duration":"Freehold","paon":"1","saon":"","street":"SEMER CLOSE","locality":"STOWMARKET","townOrCity":"STOWMARKET","district":"MID SUFFOLK","county":"SUFFOLK","ppdCategoryType":"Standard","recordStatus":"Addition","latitude":52.177172,"longitude":1.001825,"postcodeStart":"IP14 2","postcode":["IP14","2PB"]}
{"price":36076,"dateOfTransfer":"1996-07-15T00:00:00","postcodeFull":"IP14 2PB","propertyType":"Terraced","oldOrNew":"Established","duration":"Freehold","paon":"41","saon":"","street":"SEMER CLOSE","locality":"STOWMARKET","townOrCity":"STOWMARKET","district":"MID SUFFOLK","county":"SUFFOLK","ppdCategoryType":"Standard","recordStatus":"Addition","latitude":52.177172,"longitude":1.001825,"postcodeStart":"IP14 2","postcode":["IP14","2PB"]}
{"price":43000,"dateOfTransfer":"1996-05-23T00:00:00","postcodeFull":"IP14 2PQ","propertyType":"Semi-detached","oldOrNew":"Established","duration":"Freehold","paon":"73","saon":"","street":"LAVENHAM WAY","locality":"STOWMARKET","townOrCity":"STOWMARKET","district":"MID SUFFOLK","county":"SUFFOLK","ppdCategoryType":"Standard","recordStatus":"Addition","latitude":52.175784,"longitude":1.005812,"postcodeStart":"IP14 2","postcode":["IP14","2PQ"]}
{"price":28500,"dateOfTransfer":"1996-06-14T00:00:00","postcodeFull":"IP14 2JE","propertyType":"Detached","oldOrNew":"Established","duration":"Freehold","paon":"BRINCLIFFE","saon":"","street":"LOWER FARM ROAD","locality":"RINGSHALL","townOrCity":"STOWMARKET","district":"MID SUFFOLK","county":"SUFFOLK","ppdCategoryType":"Standard","recordStatus":"Addition","latitude":52.123118,"longitude":0.988837,"postcodeStart":"IP14 2","postcode":["IP14","2JE"]}
{"price":45000,"dateOfTransfer":"1996-09-23T00:00:00","postcodeFull":"IP14 2DN","propertyType":"Semi-detached","oldOrNew":"Established","duration":"Freehold","paon":"7","saon":"","street":"EDGECOMB ROAD","locality":"STOWMARKET","townOrCity":"STOWMARKET","district":"MID SUFFOLK","county":"SUFFOLK","ppdCategoryType":"Standard","recordStatus":"Addition","latitude":52.179142,"longitude":0.992258,"postcodeStart":"IP14 2","postcode":["IP14","2DN"]}
{"price":53000,"dateOfTransfer":"1996-11-08T00:00:00","postcodeFull":"IP14 2PJ","propertyType":"Detached","oldOrNew":"Established","duration":"Freehold","paon":"17","saon":"","street":"POLSTEAD CLOSE","locality":"STOWMARKET","townOrCity":"STOWMARKET","district":"MID SUFFOLK","county":"SUFFOLK","ppdCategoryType":"Standard","recordStatus":"Addition","latitude":52.178403,"longitude":1.005404,"postcodeStart":"IP14 2","postcode":["IP14","2PJ"]}
{"price":54000,"dateOfTransfer":"1996-06-28T00:00:00","postcodeFull":"IP14 2NP","propertyType":"Terraced","oldOrNew":"Established","duration":"Freehold","paon":"8","saon":"","street":"COMBS GREEN","locality":"COMBS","townOrCity":"STOWMARKET","district":"MID SUFFOLK","county":"SUFFOLK","ppdCategoryType":"Standard","recordStatus":"Addition","latitude":52.163461,"longitude":0.967193,"postcodeStart":"IP14 2","postcode":["IP14","2NP"]}
{"price":59950,"dateOfTransfer":"1996-09-20T00:00:00","postcodeFull":"IP14 2PE","propertyType":"Detached","oldOrNew":"Established","duration":"Freehold","paon":"46","saon":"","street":"LAVENHAM WAY","locality":"STOWMARKET","townOrCity":"STOWMARKET","district":"MID SUFFOLK","county":"SUFFOLK","ppdCategoryType":"Standard","recordStatus":"Addition","latitude":52.175491,"longitude":1.00531,"postcodeStart":"IP14 2","postcode":["IP14","2PE"]}
{"price":34000,"dateOfTransfer":"1996-05-07T00:00:00","postcodeFull":"IP14 2DY","propertyType":"Terraced","oldOrNew":"Established","duration":"Freehold","paon":"9","saon":"","street":"WAYSIDE CLOSE","locality":"STOWMARKET","townOrCity":"STOWMARKET","district":"MID SUFFOLK","county":"SUFFOLK","ppdCategoryType":"Standard","recordStatus":"Addition","latitude":52.177456,"longitude":0.991763,"postcodeStart":"IP14 2","postcode":["IP14","2DY"]}
{"price":43250,"dateOfTransfer":"1996-11-20T00:00:00","postcodeFull":"IP14 2PD","propertyType":"Semi-detached","oldOrNew":"Established","duration":"Freehold","paon":"82","saon":"","street":"LINDSEY WAY","locality":"STOWMARKET","townOrCity":"STOWMARKET","district":"MID SUFFOLK","county":"SUFFOLK","ppdCategoryType":"Standard","recordStatus":"Addition","latitude":52.175588,"longitude":0.997973,"postcodeStart":"IP14 2","postcode":["IP14","2PD"]}
{"price":156500,"dateOfTransfer":"1996-06-24T00:00:00","postcodeFull":"IP14 2NJ","propertyType":"Detached","oldOrNew":"Established","duration":"Freehold","paon":"BLACKSMITHS MEADOW","saon":"","street":"COMBS LANE","locality":"STOWMARKET","townOrCity":"STOWMARKET","district":"MID SUFFOLK","county":"SUFFOLK","ppdCategoryType":"Standard","recordStatus":"Addition","latitude":52.184094,"longitude":0.979613,"postcodeStart":"IP14 2","postcode":["IP14","2NJ"]}
{"price":47995,"dateOfTransfer":"1996-07-26T00:00:00","postcodeFull":"IP14 2EQ","propertyType":"Terraced","oldOrNew":"Established","duration":"Freehold","paon":"14","saon":"","street":"NORMANDY CLOSE","locality":"STOWMARKET","townOrCity":"STOWMARKET","district":"MID SUFFOLK","county":"SUFFOLK","ppdCategoryType":"Standard","recordStatus":"Addition","latitude":52.176525,"longitude":0.990488,"postcodeStart":"IP14 2","postcode":["IP14","2EQ"]}
{"price":51600,"dateOfTransfer":"1996-04-26T00:00:00","postcodeFull":"IP14 2NY","propertyType":"Semi-detached","oldOrNew":"Established","duration":"Freehold","paon":"9","saon":"","street":"SHELLEY CLOSE","locality":"STOWMARKET","townOrCity":"STOWMARKET","district":"MID SUFFOLK","county":"SUFFOLK","ppdCategoryType":"Standard","recordStatus":"Addition","latitude":52.175508,"longitude":1.007461,"postcodeStart":"IP14 2","postcode":["IP14","2NY"]}
{"price":29750,"dateOfTransfer":"1996-08-09T00:00:00","postcodeFull":"IP14 2NT","propertyType":"Semi-detached","oldOrNew":"Established","duration":"Freehold","paon":"4","saon":"","street":"HESSETT CLOSE","locality":"STOWMARKET","townOrCity":"STOWMARKET","district":"MID SUFFOLK","county":"SUFFOLK","ppdCategoryType":"Standard","recordStatus":"Addition","latitude":52.176249,"longitude":1.005229,"postcodeStart":"IP14 2","postcode":["IP14","2NT"]}
{"price":70000,"dateOfTransfer":"1996-02-07T00:00:00","postcodeFull":"IP14 2NS","propertyType":"Detached","oldOrNew":"Established","duration":"Freehold","paon":"66","saon":"","street":"FARRIERS ROAD","locality":"STOWMARKET","townOrCity":"STOWMARKET","district":"MID SUFFOLK","county":"SUFFOLK","ppdCategoryType":"Standard","recordStatus":"Addition","latitude":52.176884,"longitude":0.98801,"postcodeStart":"IP14 2","postcode":["IP14","2NS"]}
{"price":42000,"dateOfTransfer":"1996-08-23T00:00:00","postcodeFull":"IP14 2RB","propertyType":"Semi-detached","oldOrNew":"Established","duration":"Freehold","paon":"16","saon":"","street":"WHATFIELD WAY","locality":"STOWMARKET","townOrCity":"STOWMARKET","district":"MID SUFFOLK","county":"SUFFOLK","ppdCategoryType":"Standard","recordStatus":"Addition","latitude":52.175147,"longitude":1.001176,"postcodeStart":"IP14 2","postcode":["IP14","2RB"]}
{"price":40000,"dateOfTransfer":"1996-06-04T00:00:00","postcodeFull":"IP14 2AX","propertyType":"Detached","oldOrNew":"Established","duration":"Freehold","paon":"86","saon":"","street":"POPLAR HILL","locality":"STOWMARKET","townOrCity":"STOWMARKET","district":"MID SUFFOLK","county":"SUFFOLK","ppdCategoryType":"Standard","recordStatus":"Addition","latitude":52.175582,"longitude":0.992575,"postcodeStart":"IP14 2","postcode":["IP14","2AX"]}
{"price":56500,"dateOfTransfer":"1996-03-20T00:00:00","postcodeFull":"IP14 2PD","propertyType":"Terraced","oldOrNew":"Established","duration":"Freehold","paon":"74","saon":"","street":"LINDSEY WAY","locality":"STOWMARKET","townOrCity":"STOWMARKET","district":"MID SUFFOLK","county":"SUFFOLK","ppdCategoryType":"Standard","recordStatus":"Addition","latitude":52.175588,"longitude":0.997973,"postcodeStart":"IP14 2","postcode":["IP14","2PD"]}
{"price":42750,"dateOfTransfer":"1996-07-03T00:00:00","postcodeFull":"IP14 2NU","propertyType":"Semi-detached","oldOrNew":"Established","duration":"Freehold","paon":"10","saon":"","street":"ELMSETT CLOSE","locality":"STOWMARKET","townOrCity":"STOWMARKET","district":"MID SUFFOLK","county":"SUFFOLK","ppdCategoryType":"Standard","recordStatus":"Addition","latitude":52.176052,"longitude":1.00662,"postcodeStart":"IP14 2","postcode":["IP14","2NU"]}
{"price":95100,"dateOfTransfer":"1996-05-03T00:00:00","postcodeFull":"IP14 2LZ","propertyType":"Detached","oldOrNew":"Established","duration":"Freehold","paon":"MAYFIELD","saon":"","street":"STRAIGHT ROAD","locality":"BATTISFORD","townOrCity":"STOWMARKET","district":"MID SUFFOLK","county":"SUFFOLK","ppdCategoryType":"Standard","recordStatus":"Addition","latitude":52.148417,"longitude":0.96068,"postcodeStart":"IP14 2","postcode":["IP14","2LZ"]}
{"price":46995,"dateOfTransfer":"1996-09-16T00:00:00","postcodeFull":"IP14 2DW","propertyType":"Semi-detached","oldOrNew":"Established","duration":"Freehold","paon":"43","saon":"","street":"EDGECOMB ROAD","locality":"STOWMARKET","townOrCity":"STOWMARKET","district":"MID SUFFOLK","county":"SUFFOLK","ppdCategoryType":"Standard","recordStatus":"Addition","latitude":52.178126,"longitude":0.990829,"postcodeStart":"IP14 2","postcode":["IP14","2DW"]}
{"price":45000,"dateOfTransfer":"1996-01-05T00:00:00","postcodeFull":"IP14 2NU","propertyType":"Semi-detached","oldOrNew":"Established","duration":"Freehold","paon":"3","saon":"","street":"ELMSETT CLOSE","locality":"STOWMARKET","townOrCity":"STOWMARKET","district":"MID SUFFOLK","county":"SUFFOLK","ppdCategoryType":"Standard","recordStatus":"Addition","latitude":52.176052,"longitude":1.00662,"postcodeStart":"IP14 2","postcode":["IP14","2NU"]}
{"price":45000,"dateOfTransfer":"1996-10-04T00:00:00","postcodeFull":"IP14 2PW","propertyType":"Semi-detached","oldOrNew":"Established","duration":"Freehold","paon":"32","saon":"","street":"GLEMSFORD ROAD","locality":"STOWMARKET","townOrCity":"STOWMARKET","district":"MID SUFFOLK","county":"SUFFOLK","ppdCategoryType":"Standard","recordStatus":"Addition","latitude":52.178854,"longitude":1.001484,"postcodeStart":"IP14 2","postcode":["IP14","2PW"]}
{"price":43995,"dateOfTransfer":"1996-12-03T00:00:00","postcodeFull":"IP14 2PT","propertyType":"Semi-detached","oldOrNew":"Established","duration":"Freehold","paon":"87","saon":"","street":"MELFORD ROAD","locality":"STOWMARKET","townOrCity":"STOWMARKET","district":"MID SUFFOLK","county":"SUFFOLK","ppdCategoryType":"Standard","recordStatus":"Addition","latitude":52.176454,"longitude":1.008125,"postcodeStart":"IP14 2","postcode":["IP14","2PT"]}
{"price":45000,"dateOfTransfer":"1996-10-25T00:00:00","postcodeFull":"IP14 2AA","propertyType":"Semi-detached","oldOrNew":"Established","duration":"Freehold","paon":"5","saon":"","street":"TAKERS LANE","locality":"STOWMARKET","townOrCity":"STOWMARKET","district":"MID SUFFOLK","county":"SUFFOLK","ppdCategoryType":"Standard","recordStatus":"Addition","latitude":52.181811,"longitude":1.001186,"postcodeStart":"IP14 2","postcode":["IP14","2AA"]}
{"price":48500,"dateOfTransfer":"1996-05-31T00:00:00","postcodeFull":"IP14 2JG","propertyType":"Terraced","oldOrNew":"New build","duration":"Freehold","paon":"11","saon":"","street":"MODEL FARM","locality":"COMBS","townOrCity":"STOWMARKET","district":"MID SUFFOLK","county":"SUFFOLK","ppdCategoryType":"Standard","recordStatus":"Addition","latitude":52.169834,"longitude":0.984086,"postcodeStart":"IP14 2","postcode":["IP14","2JG"]}
{"price":85000,"dateOfTransfer":"1996-12-16T00:00:00","postcodeFull":"IP14 2JG","propertyType":"Terraced","oldOrNew":"New build","duration":"Freehold","paon":"2","saon":"","street":"MODEL FARM","locality":"COMBS","townOrCity":"STOWMARKET","district":"MID SUFFOLK","county":"SUFFOLK","ppdCategoryType":"Standard","recordStatus":"Addition","latitude":52.169834,"longitude":0.984086,"postcodeStart":"IP14 2","postcode":["IP14","2JG"]}
{"price":95000,"dateOfTransfer":"1996-05-31T00:00:00","postcodeFull":"IP14 2QE","propertyType":"Detached","oldOrNew":"Established","duration":"Freehold","paon":"4","saon":"","street":"COBBOLD CLOSE","locality":"BATTISFORD","townOrCity":"STOWMARKET","district":"MID SUFFOLK","county":"SUFFOLK","ppdCategoryType":"Standard","recordStatus":"Addition","latitude":52.150345,"longitude":0.957665,"postcodeStart":"IP14 2","postcode":["IP14","2QE"]}
{"price":49000,"dateOfTransfer":"1996-07-19T00:00:00","postcodeFull":"IP14 2DZ","propertyType":"Semi-detached","oldOrNew":"Established","duration":"Freehold","paon":"38","saon":"","street":"JUBILEE AVENUE","locality":"STOWMARKET","townOrCity":"STOWMARKET","district":"MID SUFFOLK","county":"SUFFOLK","ppdCategoryType":"Standard","recordStatus":"Addition","latitude":52.178542,"longitude":0.993929,"postcodeStart":"IP14 2","postcode":["IP14","2DZ"]}
{"price":111000,"dateOfTransfer":"1996-06-19T00:00:00","postcodeFull":"IP14 2EX","propertyType":"Detached","oldOrNew":"Established","duration":"Freehold","paon":"LITTLE ORCHARDS","saon":"","street":"MOATS TYE","locality":"COMBS","townOrCity":"STOWMARKET","district":"MID SUFFOLK","county":"SUFFOLK","ppdCategoryType":"Standard","recordStatus":"Addition","latitude":52.157618,"longitude":0.989848,"postcodeStart":"IP14 2","postcode":["IP14","2EX"]}
{"price":38500,"dateOfTransfer":"1996-11-01T00:00:00","postcodeFull":"IP14 2PD","propertyType":"Terraced","oldOrNew":"Established","duration":"Freehold","paon":"9","saon":"","street":"LINDSEY WAY","locality":"STOWMARKET","townOrCity":"STOWMARKET","district":"MID SUFFOLK","county":"SUFFOLK","ppdCategoryType":"Standard","recordStatus":"Addition","latitude":52.175588,"longitude":0.997973,"postcodeStart":"IP14 2","postcode":["IP14","2PD"]}
{"price":41000,"dateOfTransfer":"1996-06-04T00:00:00","postcodeFull":"IP14 2PB","propertyType":"Terraced","oldOrNew":"Established","duration":"Freehold","paon":"22","saon":"","street":"SEMER CLOSE","locality":"STOWMARKET","townOrCity":"STOWMARKET","district":"MID SUFFOLK","county":"SUFFOLK","ppdCategoryType":"Standard","recordStatus":"Addition","latitude":52.177172,"longitude":1.001825,"postcodeStart":"IP14 2","postcode":["IP14","2PB"]}
{"price":39500,"dateOfTransfer":"1996-10-28T00:00:00","postcodeFull":"IP14 2RD","propertyType":"Terraced","oldOrNew":"Established","duration":"Freehold","paon":"122","saon":"","street":"LINDSEY WAY","locality":"STOWMARKET","townOrCity":"STOWMARKET","district":"MID SUFFOLK","county":"SUFFOLK","ppdCategoryType":"Standard","recordStatus":"Addition","latitude":52.174791,"longitude":0.999602,"postcodeStart":"IP14 2","postcode":["IP14","2RD"]}
{"price":53500,"dateOfTransfer":"1996-09-19T00:00:00","postcodeFull":"IP14 2JT","propertyType":"Semi-detached","oldOrNew":"New build","duration":"Freehold","paon":"APPLETREE COTTAGE","saon":"","street":"BILDESTON ROAD","locality":"COMBS","townOrCity":"STOWMARKET","district":"MID SUFFOLK","county":"SUFFOLK","ppdCategoryType":"Standard","recordStatus":"Addition","latitude":52.166798,"longitude":0.974683,"postcodeStart":"IP14 2","postcode":["IP14","2JT"]}
{"price":39000,"dateOfTransfer":"1996-03-29T00:00:00","postcodeFull":"IP14 2DR","propertyType":"Terraced","oldOrNew":"Established","duration":"Freehold","paon":"1","saon":"","street":"THATCHERS WALK","locality":"STOWMARKET","townOrCity":"STOWMARKET","district":"MID SUFFOLK","county":"SUFFOLK","ppdCategoryType":"Standard","recordStatus":"Addition","latitude":52.177117,"longitude":0.990191,"postcodeStart":"IP14 2","postcode":["IP14","2DR"]}
{"price":47500,"dateOfTransfer":"1996-06-07T00:00:00","postcodeFull":"IP14 2DE","propertyType":"Semi-detached","oldOrNew":"Established","duration":"Freehold","paon":"80","saon":"","street":"COMBS LANE","locality":"STOWMARKET","townOrCity":"STOWMARKET","district":"MID SUFFOLK","county":"SUFFOLK","ppdCategoryType":"Standard","recordStatus":"Addition","latitude":52.180456,"longitude":0.991176,"postcodeStart":"IP14 2","postcode":["IP14","2DE"]}
{"price":41000,"dateOfTransfer":"1996-06-28T00:00:00","postcodeFull":"IP14 2PT","propertyType":"Semi-detached","oldOrNew":"Established","duration":"Freehold","paon":"107","saon":"","street":"MELFORD ROAD","locality":"STOWMARKET","townOrCity":"STOWMARKET","district":"MID SUFFOLK","county":"SUFFOLK","ppdCategoryType":"Standard","recordStatus":"Addition","latitude":52.176454,"longitude":1.008125,"postcodeStart":"IP14 2","postcode":["IP14","2PT"]}
{"price":27500,"dateOfTransfer":"1996-08-23T00:00:00","postcodeFull":"IP14 2PJ","propertyType":"Terraced","oldOrNew":"Established","duration":"Freehold","paon":"30","saon":"","street":"POLSTEAD CLOSE","locality":"STOWMARKET","townOrCity":"STOWMARKET","district":"MID SUFFOLK","county":"SUFFOLK","ppdCategoryType":"Standard","recordStatus":"Addition","latitude":52.178403,"longitude":1.005404,"postcodeStart":"IP14 2","postcode":["IP14","2PJ"]}
{"price":90000,"dateOfTransfer":"1996-10-01T00:00:00","postcodeFull":"IP14 2DB","propertyType":"Detached","oldOrNew":"Established","duration":"Freehold","paon":"29","saon":"","street":"COMBS LANE","locality":"STOWMARKET","townOrCity":"STOWMARKET","district":"MID SUFFOLK","county":"SUFFOLK","ppdCategoryType":"Standard","recordStatus":"Addition","latitude":52.179783,"longitude":0.994276,"postcodeStart":"IP14 2","postcode":["IP14","2DB"]}
{"price":41900,"dateOfTransfer":"1996-01-26T00:00:00","postcodeFull":"IP14 2PQ","propertyType":"Semi-detached","oldOrNew":"Established","duration":"Freehold","paon":"67","saon":"","street":"LAVENHAM WAY","locality":"STOWMARKET","townOrCity":"STOWMARKET","district":"MID SUFFOLK","county":"SUFFOLK","ppdCategoryType":"Standard","recordStatus":"Addition","latitude":52.175784,"longitude":1.005812,"postcodeStart":"IP14 2","postcode":["IP14","2PQ"]}
{"price":78000,"dateOfTransfer":"1996-05-23T00:00:00","postcodeFull":"IP14 2DL","propertyType":"Detached","oldOrNew":"Established","duration":"Freehold","paon":"39","saon":"","street":"ALDIS AVENUE","locality":"STOWMARKET","townOrCity":"STOWMARKET","district":"MID SUFFOLK","county":"SUFFOLK","ppdCategoryType":"Standard","recordStatus":"Addition","latitude":52.180009,"longitude":0.991424,"postcodeStart":"IP14 2","postcode":["IP14","2DL"]}
{"price":115000,"dateOfTransfer":"1996-09-05T00:00:00","postcodeFull":"IP14 2QG","propertyType":"Detached","oldOrNew":"New build","duration":"Freehold","paon":"1","saon":"","street":"BARN MEADOW","locality":"COMBS","townOrCity":"STOWMARKET","district":"MID SUFFOLK","county":"SUFFOLK","ppdCategoryType":"Standard","recordStatus":"Addition","latitude":52.162676,"longitude":0.96657,"postcodeStart":"IP14 2","postcode":["IP14","2QG"]}
{"price":59000,"dateOfTransfer":"1996-12-10T00:00:00","postcodeFull":"IP14 2DH","propertyType":"Semi-detached","oldOrNew":"Established","duration":"Freehold","paon":"2","saon":"","street":"ORWELL ROAD","locality":"STOWMARKET","townOrCity":"STOWMARKET","district":"MID SUFFOLK","county":"SUFFOLK","ppdCategoryType":"Standard","recordStatus":"Addition","latitude":52.179898,"longitude":0.990831,"postcodeStart":"IP14 2","postcode":["IP14","2DH"]}
{"price":64000,"dateOfTransfer":"1996-09-20T00:00:00","postcodeFull":"IP14 2DQ","propertyType":"Detached","oldOrNew":"Established","duration":"Freehold","paon":"32","saon":"","street":"CAMPION CRESCENT","locality":"STOWMARKET","townOrCity":"STOWMARKET","district":"MID SUFFOLK","county":"SUFFOLK","ppdCategoryType":"Standard","recordStatus":"Addition","latitude":52.178671,"longitude":0.987779,"postcodeStart":"IP14 2","postcode":["IP14","2DQ"]}
{"price":41750,"dateOfTransfer":"1996-12-02T00:00:00","postcodeFull":"IP14 2DR","propertyType":"Terraced","oldOrNew":"Established","duration":"Freehold","paon":"5","saon":"","street":"THATCHERS WALK","locality":"STOWMARKET","townOrCity":"STOWMARKET","district":"MID SUFFOLK","county":"SUFFOLK","ppdCategoryType":"Standard","recordStatus":"Addition","latitude":52.177117,"longitude":0.990191,"postcodeStart":"IP14 2","postcode":["IP14","2DR"]}
{"price":34950,"dateOfTransfer":"1996-09-13T00:00:00","postcodeFull":"IP14 2NS","propertyType":"Terraced","oldOrNew":"Established","duration":"Freehold","paon":"30","saon":"","street":"FARRIERS ROAD","locality":"STOWMARKET","townOrCity":"STOWMARKET","district":"MID SUFFOLK","county":"SUFFOLK","ppdCategoryType":"Standard","recordStatus":"Addition","latitude":52.176884,"longitude":0.98801,"postcodeStart":"IP14 2","postcode":["IP14","2NS"]}
{"price":17000,"dateOfTransfer":"1996-05-08T00:00:00","postcodeFull":"IP14 2PB","propertyType":"Flat/Maisonette/Townhouse","oldOrNew":"Established","duration":"Leasehold","paon":"11","saon":"","street":"SEMER CLOSE","locality":"STOWMARKET","townOrCity":"STOWMARKET","district":"MID SUFFOLK","county":"SUFFOLK","ppdCategoryType":"Standard","recordStatus":"Addition","latitude":52.177172,"longitude":1.001825,"postcodeStart":"IP14 2","postcode":["IP14","2PB"]}
{"price":42750,"dateOfTransfer":"1996-05-07T00:00:00","postcodeFull":"IP14 2PQ","propertyType":"Terraced","oldOrNew":"Established","duration":"Freehold","paon":"85","saon":"","street":"LAVENHAM WAY","locality":"STOWMARKET","townOrCity":"STOWMARKET","district":"MID SUFFOLK","county":"SUFFOLK","ppdCategoryType":"Standard","recordStatus":"Addition","latitude":52.175784,"longitude":1.005812,"postcodeStart":"IP14 2","postcode":["IP14","2PQ"]}
{"price":43500,"dateOfTransfer":"1996-09-27T00:00:00","postcodeFull":"IP14 2PB","propertyType":"Terraced","oldOrNew":"Established","duration":"Freehold","paon":"1","saon":"","street":"SEMER CLOSE","locality":"STOWMARKET","townOrCity":"STOWMARKET","district":"MID SUFFOLK","county":"SUFFOLK","ppdCategoryType":"Standard","recordStatus":"Addition","latitude":52.177172,"longitude":1.001825,"postcodeStart":"IP14 2","postcode":["IP14","2PB"]}
{"price":27360,"dateOfTransfer":"1996-05-06T00:00:00","postcodeFull":"IP14 2BA","propertyType":"Detached","oldOrNew":"Established","duration":"Freehold","paon":"40","saon":"","street":"HILLSIDE","locality":"STOWMARKET","townOrCity":"STOWMARKET","district":"MID SUFFOLK","county":"SUFFOLK","ppdCategoryType":"Standard","recordStatus":"Addition","latitude":52.174788,"longitude":0.994423,"postcodeStart":"IP14 2","postcode":["IP14","2BA"]}
{"price":45000,"dateOfTransfer":"1996-03-07T00:00:00","postcodeFull":"IP14 2PT","propertyType":"Semi-detached","oldOrNew":"Established","duration":"Freehold","paon":"129","saon":"","street":"MELFORD ROAD","locality":"STOWMARKET","townOrCity":"STOWMARKET","district":"MID SUFFOLK","county":"SUFFOLK","ppdCategoryType":"Standard","recordStatus":"Addition","latitude":52.176454,"longitude":1.008125,"postcodeStart":"IP14 2","postcode":["IP14","2PT"]}
{"price":34000,"dateOfTransfer":"1996-02-09T00:00:00","postcodeFull":"IP14 2NW","propertyType":"Terraced","oldOrNew":"Established","duration":"Freehold","paon":"12","saon":"","street":"WEAVERS CLOSE","locality":"STOWMARKET","townOrCity":"STOWMARKET","district":"MID SUFFOLK","county":"SUFFOLK","ppdCategoryType":"Standard","recordStatus":"Addition","latitude":52.176262,"longitude":0.988465,"postcodeStart":"IP14 2","postcode":["IP14","2NW"]}
{"price":85000,"dateOfTransfer":"1996-10-04T00:00:00","postcodeFull":"IP14 2EL","propertyType":"Detached","oldOrNew":"Established","duration":"Freehold","paon":"HILL HOUSE","saon":"","street":"TANNERY ROAD","locality":"COMBS","townOrCity":"STOWMARKET","district":"MID SUFFOLK","county":"SUFFOLK","ppdCategoryType":"Standard","recordStatus":"Addition","latitude":52.168434,"longitude":0.9868,"postcodeStart":"IP14 2","postcode":["IP14","2EL"]}
{"price":32500,"dateOfTransfer":"1996-03-29T00:00:00","postcodeFull":"IP14 2AS","propertyType":"Terraced","oldOrNew":"Established","duration":"Freehold","paon":"28","saon":"","street":"POPLAR HILL","locality":"STOWMARKET","townOrCity":"STOWMARKET","district":"MID SUFFOLK","county":"SUFFOLK","ppdCategoryType":"Standard","recordStatus":"Addition","latitude":52.179362,"longitude":0.997042,"postcodeStart":"IP14 2","postcode":["IP14","2AS"]}
{"price":44000,"dateOfTransfer":"1996-10-25T00:00:00","postcodeFull":"IP14 2DS","propertyType":"Terraced","oldOrNew":"Established","duration":"Freehold","paon":"12","saon":"","street":"TYLERS WAY","locality":"STOWMARKET","townOrCity":"STOWMARKET","district":"MID SUFFOLK","county":"SUFFOLK","ppdCategoryType":"Standard","recordStatus":"Addition","latitude":52.177461,"longitude":0.990814,"postcodeStart":"IP14 2","postcode":["IP14","2DS"]}
{"price":41000,"dateOfTransfer":"1996-10-02T00:00:00","postcodeFull":"IP14 2PR","propertyType":"Semi-detached","oldOrNew":"Established","duration":"Freehold","paon":"73","saon":"","street":"MELFORD ROAD","locality":"STOWMARKET","townOrCity":"STOWMARKET","district":"MID SUFFOLK","county":"SUFFOLK","ppdCategoryType":"Standard","recordStatus":"Addition","latitude":52.177617,"longitude":1.00696,"postcodeStart":"IP14 2","postcode":["IP14","2PR"]}
{"price":40995,"dateOfTransfer":"1996-08-30T00:00:00","postcodeFull":"IP14 2DR","propertyType":"Terraced","oldOrNew":"Established","duration":"Freehold","paon":"12","saon":"","street":"THATCHERS WALK","locality":"STOWMARKET","townOrCity":"STOWMARKET","district":"MID SUFFOLK","county":"SUFFOLK","ppdCategoryType":"Standard","recordStatus":"Addition","latitude":52.177117,"longitude":0.990191,"postcodeStart":"IP14 2","postcode":["IP14","2DR"]}
{"price":54500,"dateOfTransfer":"1996-03-22T00:00:00","postcodeFull":"IP14 2AT","propertyType":"Semi-detached","oldOrNew":"Established","duration":"Freehold","paon":"12","saon":"","street":"THE CRESCENT","locality":"STOWMARKET","townOrCity":"STOWMARKET","district":"MID SUFFOLK","county":"SUFFOLK","ppdCategoryType":"Standard","recordStatus":"Addition","latitude":52.178375,"longitude":0.997298,"postcodeStart":"IP14 2","postcode":["IP14","2AT"]}
{"price":26250,"dateOfTransfer":"1996-10-25T00:00:00","postcodeFull":"IP14 2PG","propertyType":"Terraced","oldOrNew":"Established","duration":"Freehold","paon":"34","saon":"","street":"FLATFORD CLOSE","locality":"STOWMARKET","townOrCity":"STOWMARKET","district":"MID SUFFOLK","county":"SUFFOLK","ppdCategoryType":"Standard","recordStatus":"Addition","latitude":52.1763,"longitude":1.004282,"postcodeStart":"IP14 2","postcode":["IP14","2PG"]}
{"price":65000,"dateOfTransfer":"1996-11-29T00:00:00","postcodeFull":"IP14 2PJ","propertyType":"Detached","oldOrNew":"Established","duration":"Freehold","paon":"7","saon":"","street":"POLSTEAD CLOSE","locality":"STOWMARKET","townOrCity":"STOWMARKET","district":"MID SUFFOLK","county":"SUFFOLK","ppdCategoryType":"Standard","recordStatus":"Addition","latitude":52.178403,"longitude":1.005404,"postcodeStart":"IP14 2","postcode":["IP14","2PJ"]}
{"price":25995,"dateOfTransfer":"1996-09-06T00:00:00","postcodeFull":"IP14 2PJ","propertyType":"Terraced","oldOrNew":"Established","duration":"Freehold","paon":"31","saon":"","street":"POLSTEAD CLOSE","locality":"STOWMARKET","townOrCity":"STOWMARKET","district":"MID SUFFOLK","county":"SUFFOLK","ppdCategoryType":"Standard","recordStatus":"Addition","latitude":52.178403,"longitude":1.005404,"postcodeStart":"IP14 2","postcode":["IP14","2PJ"]}
{"price":37000,"dateOfTransfer":"1996-05-02T00:00:00","postcodeFull":"IP14 2DU","propertyType":"Semi-detached","oldOrNew":"Established","duration":"Freehold","paon":"4","saon":"","street":"WOOLMERS CLOSE","locality":"STOWMARKET","townOrCity":"STOWMARKET","district":"MID SUFFOLK","county":"SUFFOLK","ppdCategoryType":"Standard","recordStatus":"Addition","latitude":52.178462,"longitude":0.993178,"postcodeStart":"IP14 2","postcode":["IP14","2DU"]}
{"price":43000,"dateOfTransfer":"1996-04-04T00:00:00","postcodeFull":"IP14 2DY","propertyType":"Semi-detached","oldOrNew":"Established","duration":"Freehold","paon":"53","saon":"","street":"WAYSIDE CLOSE","locality":"STOWMARKET","townOrCity":"STOWMARKET","district":"MID SUFFOLK","county":"SUFFOLK","ppdCategoryType":"Standard","recordStatus":"Addition","latitude":52.177456,"longitude":0.991763,"postcodeStart":"IP14 2","postcode":["IP14","2DY"]}
{"price":49000,"dateOfTransfer":"1996-09-13T00:00:00","postcodeFull":"IP14 2RA","propertyType":"Detached","oldOrNew":"Established","duration":"Freehold","paon":"3","saon":"","street":"NAUGHTON GARDENS","locality":"STOWMARKET","townOrCity":"STOWMARKET","district":"MID SUFFOLK","county":"SUFFOLK","ppdCategoryType":"Standard","recordStatus":"Addition","latitude":52.174719,"longitude":0.998222,"postcodeStart":"IP14 2","postcode":["IP14","2RA"]}
{"price":42300,"dateOfTransfer":"1996-10-11T00:00:00","postcodeFull":"IP14 2PQ","propertyType":"Terraced","oldOrNew":"Established","duration":"Freehold","paon":"83","saon":"","street":"LAVENHAM WAY","locality":"STOWMARKET","townOrCity":"STOWMARKET","district":"MID SUFFOLK","county":"SUFFOLK","ppdCategoryType":"Standard","recordStatus":"Addition","latitude":52.175784,"longitude":1.005812,"postcodeStart":"IP14 2","postcode":["IP14","2PQ"]}
{"price":22000,"dateOfTransfer":"1996-08-23T00:00:00","postcodeFull":"IP14 2JS","propertyType":"Semi-detached","oldOrNew":"Established","duration":"Freehold","paon":"(UNSWORTH)","saon":"","street":"PARK ROAD","locality":"COMBS","townOrCity":"STOWMARKET","district":"MID SUFFOLK","county":"SUFFOLK","ppdCategoryType":"Standard","recordStatus":"Addition","latitude":52.168064,"longitude":0.976552,"postcodeStart":"IP14 2","postcode":["IP14","2JS"]}
{"price":64000,"dateOfTransfer":"1996-11-29T00:00:00","postcodeFull":"IP14 2PJ","propertyType":"Semi-detached","oldOrNew":"Established","duration":"Freehold","paon":"9","saon":"","street":"POLSTEAD CLOSE","locality":"STOWMARKET","townOrCity":"STOWMARKET","district":"MID SUFFOLK","county":"SUFFOLK","ppdCategoryType":"Standard","recordStatus":"Addition","latitude":52.178403,"longitude":1.005404,"postcodeStart":"IP14 2","postcode":["IP14","2PJ"]}
{"price":55000,"dateOfTransfer":"1996-03-01T00:00:00","postcodeFull":"IP14 2JS","propertyType":"Semi-detached","oldOrNew":"Established","duration":"Freehold","paon":"ST. ANTON","saon":"","street":"PARK ROAD","locality":"COMBS","townOrCity":"STOWMARKET","district":"MID SUFFOLK","county":"SUFFOLK","ppdCategoryType":"Standard","recordStatus":"Addition","latitude":52.168064,"longitude":0.976552,"postcodeStart":"IP14 2","postcode":["IP14","2JS"]}
{"price":35000,"dateOfTransfer":"1996-04-19T00:00:00","postcodeFull":"IP14 2QG","propertyType":"Detached","oldOrNew":"New build","duration":"Freehold","paon":"7","saon":"","street":"BARN MEADOW","locality":"COMBS","townOrCity":"STOWMARKET","district":"MID SUFFOLK","county":"SUFFOLK","ppdCategoryType":"Standard","recordStatus":"Addition","latitude":52.162676,"longitude":0.96657,"postcodeStart":"IP14 2","postcode":["IP14","2QG"]}
{"price":54995,"dateOfTransfer":"1996-11-29T00:00:00","postcodeFull":"IP14 2JT","propertyType":"Semi-detached","oldOrNew":"New build","duration":"Freehold","paon":"HOLLAND HOUSE","saon":"","street":"BILDESTON ROAD","locality":"COMBS","townOrCity":"STOWMARKET","district":"MID SUFFOLK","county":"SUFFOLK","ppdCategoryType":"Standard","recordStatus":"Addition","latitude":52.166798,"longitude":0.974683,"postcodeStart":"IP14 2","postcode":["IP14","2JT"]}
{"price":39950,"dateOfTransfer":"1996-03-05T00:00:00","postcodeFull":"IP14 2EF","propertyType":"Semi-detached","oldOrNew":"Established","duration":"Freehold","paon":"21","saon":"","street":"EDGAR AVENUE","locality":"STOWMARKET","townOrCity":"STOWMARKET","district":"MID SUFFOLK","county":"SUFFOLK","ppdCategoryType":"Standard","recordStatus":"Addition","latitude":52.17826,"longitude":0.99511,"postcodeStart":"IP14 2","postcode":["IP14","2EF"]}
{"price":78000,"dateOfTransfer":"1996-04-12T00:00:00","postcodeFull":"IP14 2PJ","propertyType":"Detached","oldOrNew":"Established","duration":"Freehold","paon":"18","saon":"","street":"POLSTEAD CLOSE","locality":"STOWMARKET","townOrCity":"STOWMARKET","district":"MID SUFFOLK","county":"SUFFOLK","ppdCategoryType":"Standard","recordStatus":"Addition","latitude":52.178403,"longitude":1.005404,"postcodeStart":"IP14 2","postcode":["IP14","2PJ"]}
{"price":42000,"dateOfTransfer":"1996-02-05T00:00:00","postcodeFull":"IP14 2RE","propertyType":"Terraced","oldOrNew":"Established","duration":"Freehold","paon":"5","saon":"","street":"CHATTISHAM CLOSE","locality":"STOWMARKET","townOrCity":"STOWMARKET","district":"MID SUFFOLK","county":"SUFFOLK","ppdCategoryType":"Standard","recordStatus":"Addition","latitude":52.174821,"longitude":1.000891,"postcodeStart":"IP14 2","postcode":["IP14","2RE"]}
{"price":59000,"dateOfTransfer":"1996-09-19T00:00:00","postcodeFull":"IP14 2JG","propertyType":"Semi-detached","oldOrNew":"New build","duration":"Freehold","paon":"18","saon":"","street":"MODEL FARM","locality":"COMBS","townOrCity":"STOWMARKET","district":"MID SUFFOLK","county":"SUFFOLK","ppdCategoryType":"Standard","recordStatus":"Addition","latitude":52.169834,"longitude":0.984086,"postcodeStart":"IP14 2","postcode":["IP14","2JG"]}
{"price":45450,"dateOfTransfer":"1996-06-10T00:00:00","postcodeFull":"IP14 2DN","propertyType":"Semi-detached","oldOrNew":"Established","duration":"Freehold","paon":"22","saon":"","street":"EDGECOMB ROAD","locality":"STOWMARKET","townOrCity":"STOWMARKET","district":"MID SUFFOLK","county":"SUFFOLK","ppdCategoryType":"Standard","recordStatus":"Addition","latitude":52.179142,"longitude":0.992258,"postcodeStart":"IP14 2","postcode":["IP14","2DN"]}
{"price":51000,"dateOfTransfer":"1996-08-28T00:00:00","postcodeFull":"IP14 2AL","propertyType":"Semi-detached","oldOrNew":"Established","duration":"Freehold","paon":"73","saon":"","street":"NEEDHAM ROAD","locality":"STOWMARKET","townOrCity":"STOWMARKET","district":"MID SUFFOLK","county":"SUFFOLK","ppdCategoryType":"Standard","recordStatus":"Addition","latitude":52.180048,"longitude":1.004037,"postcodeStart":"IP14 2","postcode":["IP14","2AL"]}
{"price":40000,"dateOfTransfer":"1996-12-09T00:00:00","postcodeFull":"IP14 2PN","propertyType":"Terraced","oldOrNew":"Established","duration":"Freehold","paon":"6","saon":"","street":"GLEMSFORD ROAD","locality":"STOWMARKET","townOrCity":"STOWMARKET","district":"MID SUFFOLK","county":"SUFFOLK","ppdCategoryType":"Standard","recordStatus":"Addition","latitude":52.178436,"longitude":1.003417,"postcodeStart":"IP14 2","postcode":["IP14","2PN"]}
{"price":40000,"dateOfTransfer":"1996-10-25T00:00:00","postcodeFull":"IP14 2AT","propertyType":"Semi-detached","oldOrNew":"Established","duration":"Freehold","paon":"1","saon":"","street":"THE CRESCENT","locality":"STOWMARKET","townOrCity":"STOWMARKET","district":"MID SUFFOLK","county":"SUFFOLK","ppdCategoryType":"Standard","recordStatus":"Addition","latitude":52.178375,"longitude":0.997298,"postcodeStart":"IP14 2","postcode":["IP14","2AT"]}
{"price":25000,"dateOfTransfer":"1996-10-25T00:00:00","postcodeFull":"IP14 2PT","propertyType":"Semi-detached","oldOrNew":"Established","duration":"Freehold","paon":"115","saon":"","street":"MELFORD ROAD","locality":"STOWMARKET","townOrCity":"STOWMARKET","district":"MID SUFFOLK","county":"SUFFOLK","ppdCategoryType":"Standard","recordStatus":"Addition","latitude":52.176454,"longitude":1.008125,"postcodeStart":"IP14 2","postcode":["IP14","2PT"]}
{"price":44000,"dateOfTransfer":"1996-02-16T00:00:00","postcodeFull":"IP14 2AT","propertyType":"Semi-detached","oldOrNew":"Established","duration":"Freehold","paon":"9","saon":"","street":"THE CRESCENT","locality":"STOWMARKET","townOrCity":"STOWMARKET","district":"MID SUFFOLK","county":"SUFFOLK","ppdCategoryType":"Standard","recordStatus":"Addition","latitude":52.178375,"longitude":0.997298,"postcodeStart":"IP14 2","postcode":["IP14","2AT"]}
{"price":34500,"dateOfTransfer":"1996-04-12T00:00:00","postcodeFull":"IP14 2NW","propertyType":"Terraced","oldOrNew":"Established","duration":"Freehold","paon":"13","saon":"","street":"WEAVERS CLOSE","locality":"STOWMARKET","townOrCity":"STOWMARKET","district":"MID SUFFOLK","county":"SUFFOLK","ppdCategoryType":"Standard","recordStatus":"Addition","latitude":52.176262,"longitude":0.988465,"postcodeStart":"IP14 2","postcode":["IP14","2NW"]}
{"price":60000,"dateOfTransfer":"1996-04-30T00:00:00","postcodeFull":"IP14 2HP","propertyType":"Detached","oldOrNew":"Established","duration":"Freehold","paon":"PIPPIN COTTAGE","saon":"","street":"STRAIGHT ROAD","locality":"BATTISFORD","townOrCity":"STOWMARKET","district":"MID SUFFOLK","county":"SUFFOLK","ppdCategoryType":"Standard","recordStatus":"Addition","latitude":52.146668,"longitude":0.980811,"postcodeStart":"IP14 2","postcode":["IP14","2HP"]}
{"price":46000,"dateOfTransfer":"1996-04-12T00:00:00","postcodeFull":"IP14 2DW","propertyType":"Semi-detached","oldOrNew":"Established","duration":"Freehold","paon":"45","saon":"","street":"EDGECOMB ROAD","locality":"STOWMARKET","townOrCity":"STOWMARKET","district":"MID SUFFOLK","county":"SUFFOLK","ppdCategoryType":"Standard","recordStatus":"Addition","latitude":52.178126,"longitude":0.990829,"postcodeStart":"IP14 2","postcode":["IP14","2DW"]}
{"price":50000,"dateOfTransfer":"1996-08-12T00:00:00","postcodeFull":"IP14 2DJ","propertyType":"Semi-detached","oldOrNew":"Established","duration":"Freehold","paon":"28","saon":"","street":"ALDIS AVENUE","locality":"STOWMARKET","townOrCity":"STOWMARKET","district":"MID SUFFOLK","county":"SUFFOLK","ppdCategoryType":"Standard","recordStatus":"Addition","latitude":52.179142,"longitude":0.990824,"postcodeStart":"IP14 2","postcode":["IP14","2DJ"]}
{"price":64000,"dateOfTransfer":"1996-11-20T00:00:00","postcodeFull":"IP14 2DH","propertyType":"Detached","oldOrNew":"Established","duration":"Freehold","paon":"14","saon":"","street":"ORWELL ROAD","locality":"STOWMARKET","townOrCity":"STOWMARKET","district":"MID SUFFOLK","county":"SUFFOLK","ppdCategoryType":"Standard","recordStatus":"Addition","latitude":52.179898,"longitude":0.990831,"postcodeStart":"IP14 2","postcode":["IP14","2DH"]}
{"price":41245,"dateOfTransfer":"1996-08-27T00:00:00","postcodeFull":"IP14 2PB","propertyType":"Terraced","oldOrNew":"Established","duration":"Freehold","paon":"3","saon":"","street":"SEMER CLOSE","locality":"STOWMARKET","townOrCity":"STOWMARKET","district":"MID SUFFOLK","county":"SUFFOLK","ppdCategoryType":"Standard","recordStatus":"Addition","latitude":52.177172,"longitude":1.001825,"postcodeStart":"IP14 2","postcode":["IP14","2PB"]}
{"price":43950,"dateOfTransfer":"1996-07-19T00:00:00","postcodeFull":"IP14 2PR","propertyType":"Semi-detached","oldOrNew":"Established","duration":"Freehold","paon":"75","saon":"","street":"MELFORD ROAD","locality":"STOWMARKET","townOrCity":"STOWMARKET","district":"MID SUFFOLK","county":"SUFFOLK","ppdCategoryType":"Standard","recordStatus":"Addition","latitude":52.177617,"longitude":1.00696,"postcodeStart":"IP14 2","postcode":["IP14","2PR"]}
{"price":63500,"dateOfTransfer":"1996-10-04T00:00:00","postcodeFull":"IP14 2PU","propertyType":"Detached","oldOrNew":"Established","duration":"Freehold","paon":"2","saon":"","street":"BOXFORD CLOSE","locality":"STOWMARKET","townOrCity":"STOWMARKET","district":"MID SUFFOLK","county":"SUFFOLK","ppdCategoryType":"Standard","recordStatus":"Addition","latitude":52.177219,"longitude":1.003861,"postcodeStart":"IP14 2","postcode":["IP14","2PU"]}
{"price":66000,"dateOfTransfer":"1996-06-14T00:00:00","postcodeFull":"IP14 2PX","propertyType":"Detached","oldOrNew":"Established","duration":"Freehold","paon":"7","saon":"","street":"HARTEST WAY","locality":"STOWMARKET","townOrCity":"STOWMARKET","district":"MID SUFFOLK","county":"SUFFOLK","ppdCategoryType":"Standard","recordStatus":"Addition","latitude":52.177179,"longitude":1.005087,"postcodeStart":"IP14 2","postcode":["IP14","2PX"]}
{"price":45000,"dateOfTransfer":"1996-01-19T00:00:00","postcodeFull":"IP14 2PJ","propertyType":"Terraced","oldOrNew":"Established","duration":"Freehold","paon":"13","saon":"","street":"POLSTEAD CLOSE","locality":"STOWMARKET","townOrCity":"STOWMARKET","district":"MID SUFFOLK","county":"SUFFOLK","ppdCategoryType":"Standard","recordStatus":"Addition","latitude":52.178403,"longitude":1.005404,"postcodeStart":"IP14 2","postcode":["IP14","2PJ"]}
