{"price":44000,"dateOfTransfer":"1995-07-31T00:00:00","postcodeFull":"L10 2JF","propertyType":"Semi-detached","oldOrNew":"Established","duration":"Freehold","paon":"49","saon":"","street":"MOSTYN AVENUE","locality":"OLD ROAN","townOrCity":"LIVERPOOL","district":"SEFTON","county":"MERSEYSIDE","ppdCategoryType":"Standard","recordStatus":"Addition","latitude":53.483293,"longitude":-2.947193,"postcodeStart":"L10 2","postcode":["L10","2JF"]}
{"price":60000,"dateOfTransfer":"1995-07-14T00:00:00","postcodeFull":"L10 2JN","propertyType":"Semi-detached","oldOrNew":"Established","duration":"Freehold","paon":"66","saon":"","street":"AINTREE LANE","locality":"LIVERPOOL","townOrCity":"LIVERPOOL","district":"SEFTON","county":"MERSEYSIDE","ppdCategoryType":"Standard","recordStatus":"Addition","latitude":53.48353,"longitude":-2.946807,"postcodeStart":"L10 2","postcode":["L10","2JN"]}
{"price":70000,"dateOfTransfer":"1995-07-12T00:00:00","postcodeFull":"L10 2LG","propertyType":"Terraced","oldOrNew":"Established","duration":"Freehold","paon":"44","saon":"","street":"ALTWAY","locality":"LIVERPOOL","townOrCity":"LIVERPOOL","district":"SEFTON","county":"MERSEYSIDE","ppdCategoryType":"Standard","recordStatus":"Addition","latitude":53.485021,"longitude":-2.944579,"postcodeStart":"L10 2","postcode":["L10","2LG"]}
{"price":49000,"dateOfTransfer":"1995-09-21T00:00:00","postcodeFull":"L10 2JE","propertyType":"Semi-detached","oldOrNew":"Established","duration":"Freehold","paon":"19","saon":"","street":"MOSTYN AVENUE","locality":"OLD ROAN","townOrCity":"LIVERPOOL","district":"SEFTON","county":"MERSEYSIDE","ppdCategoryType":"Standard","recordStatus":"Addition","latitude":53.48442,"longitude":-2.948982,"postcodeStart":"L10 2","postcode":["L10","2JE"]}
{"price":60000,"dateOfTransfer":"1995-05-19T00:00:00","postcodeFull":"L10 2JT","propertyType":"Terraced","oldOrNew":"Established","duration":"Freehold","paon":"22","saon":"","street":"STONEYHURST AVENUE","locality":"LIVERPOOL","townOrCity":"LIVERPOOL","district":"SEFTON","county":"MERSEYSIDE","ppdCategoryType":"Standard","recordStatus":"Addition","latitude":53.484667,"longitude":-2.946214,"postcodeStart":"L10 2","postcode":["L10","2JT"]}
{"price":52000,"dateOfTransfer":"1995-07-31T00:00:00","postcodeFull":"L10 2JF","propertyType":"Semi-detached","oldOrNew":"Established","duration":"Freehold","paon":"51","saon":"","street":"MOSTYN AVENUE","locality":"OLD ROAN","townOrCity":"LIVERPOOL","district":"SEFTON","county":"MERSEYSIDE","ppdCategoryType":"Standard","recordStatus":"Addition","latitude":53.483293,"longitude":-2.947193,"postcodeStart":"L10 2","postcode":["L10","2JF"]}
{"price":64000,"dateOfTransfer":"1995-07-24T00:00:00","postcodeFull":"L10 2JX","propertyType":"Semi-detached","oldOrNew":"Established","duration":"Freehold","paon":"4","saon":"","street":"REPTON GROVE","locality":"LIVERPOOL","townOrCity":"LIVERPOOL","district":"SEFTON","county":"MERSEYSIDE","ppdCategoryType":"Standard","recordStatus":"Addition","latitude":53.481979,"longitude":-2.94516,"postcodeStart":"L10 2","postcode":["L10","2JX"]}
{"price":48400,"dateOfTransfer":"1995-11-28T00:00:00","postcodeFull":"L10 2JG","propertyType":"Semi-detached","oldOrNew":"Established","duration":"Freehold","paon":"14","saon":"","street":"MOSTYN AVENUE","locality":"OLD ROAN","townOrCity":"LIVERPOOL","district":"SEFTON","county":"MERSEYSIDE","ppdCategoryType":"Standard","recordStatus":"Addition","latitude":53.48445,"longitude":-2.949751,"postcodeStart":"L10 2","postcode":["L10","2JG"]}
{"price":57000,"dateOfTransfer":"1995-09-19T00:00:00","postcodeFull":"L10 2JY","propertyType":"Semi-detached","oldOrNew":"Established","duration":"Freehold","paon":"19","saon":"","street":"ETON DRIVE","locality":"LIVERPOOL","townOrCity":"LIVERPOOL","district":"SEFTON","county":"MERSEYSIDE","ppdCategoryType":"Standard","recordStatus":"Addition","latitude":53.482962,"longitude":-2.943539,"postcodeStart":"L10 2","postcode":["L10","2JY"]}
{"price":59000,"dateOfTransfer":"1995-12-08T00:00:00","postcodeFull":"L10 2JG","propertyType":"Semi-detached","oldOrNew":"Established","duration":"Freehold","paon":"18","saon":"","street":"MOSTYN AVENUE","locality":"OLD ROAN","townOrCity":"LIVERPOOL","district":"SEFTON","county":"MERSEYSIDE","ppdCategoryType":"Standard","recordStatus":"Addition","latitude":53.48445,"longitude":-2.949751,"postcodeStart":"L10 2","postcode":["L10","2JG"]}
{"price":57000,"dateOfTransfer":"1995-02-10T00:00:00","postcodeFull":"L10 2LA","propertyType":"Detached","oldOrNew":"Established","duration":"Freehold","paon":"14","saon":"","street":"MALVERN GROVE","locality":"LIVERPOOL","townOrCity":"LIVERPOOL","district":"SEFTON","county":"MERSEYSIDE","ppdCategoryType":"Standard","recordStatus":"Addition","latitude":53.481687,"longitude":-2.944505,"postcodeStart":"L10 2","postcode":["L10","2LA"]}
{"price":47500,"dateOfTransfer":"1996-10-31T00:00:00","postcodeFull":"L10 2JL","propertyType":"Semi-detached","oldOrNew":"Established","duration":"Freehold","paon":"10","saon":"","street":"AINTREE LANE","locality":"LIVERPOOL","townOrCity":"LIVERPOOL","district":"SEFTON","county":"MERSEYSIDE","ppdCategoryType":"Standard","recordStatus":"Addition","latitude":53.484762,"longitude":-2.948671,"postcodeStart":"L10 2","postcode":["L10","2JL"]}
{"price":58000,"dateOfTransfer":"1996-01-19T00:00:00","postcodeFull":"L10 2LQ","propertyType":"Semi-detached","oldOrNew":"Established","duration":"Freehold","paon":"80","saon":"","street":"ALTWAY","locality":"LIVERPOOL","townOrCity":"LIVERPOOL","district":"SEFTON","county":"MERSEYSIDE","ppdCategoryType":"Standard","recordStatus":"Addition","latitude":53.483839,"longitude":-2.940695,"postcodeStart":"L10 2","postcode":["L10","2LQ"]}
{"price":60000,"dateOfTransfer":"1996-03-20T00:00:00","postcodeFull":"L10 2LD","propertyType":"Semi-detached","oldOrNew":"Established","duration":"Freehold","paon":"31","saon":"","street":"SHREWSBURY AVENUE","locality":"OLD ROAN","townOrCity":"LIVERPOOL","district":"SEFTON","county":"MERSEYSIDE","ppdCategoryType":"Standard","recordStatus":"Addition","latitude":53.483797,"longitude":-2.941403,"postcodeStart":"L10 2","postcode":["L10","2LD"]}
{"price":50000,"dateOfTransfer":"1996-04-04T00:00:00","postcodeFull":"L10 2LB","propertyType":"Semi-detached","oldOrNew":"Established","duration":"Freehold","paon":"14","saon":"","street":"CRANWELL CLOSE","locality":"LIVERPOOL","townOrCity":"LIVERPOOL","district":"SEFTON","county":"MERSEYSIDE","ppdCategoryType":"Standard","recordStatus":"Addition","latitude":53.483488,"longitude":-2.944093,"postcodeStart":"L10 2","postcode":["L10","2LB"]}
{"price":42000,"dateOfTransfer":"1996-12-20T00:00:00","postcodeFull":"L10 2JN","propertyType":"Semi-detached","oldOrNew":"Established","duration":"Freehold","paon":"48","saon":"","street":"AINTREE LANE","locality":"LIVERPOOL","townOrCity":"LIVERPOOL","district":"SEFTON","county":"MERSEYSIDE","ppdCategoryType":"Standard","recordStatus":"Addition","latitude":53.48353,"longitude":-2.946807,"postcodeStart":"L10 2","postcode":["L10","2JN"]}
{"price":75000,"dateOfTransfer":"1996-09-02T00:00:00","postcodeFull":"L10 2JJ","propertyType":"Semi-detached","oldOrNew":"Established","duration":"Freehold","paon":"27","saon":"","street":"AINTREE LANE","locality":"LIVERPOOL","townOrCity":"LIVERPOOL","district":"SEFTON","county":"MERSEYSIDE","ppdCategoryType":"Standard","recordStatus":"Addition","latitude":53.483597,"longitude":-2.94619,"postcodeStart":"L10 2","postcode":["L10","2JJ"]}
{"price":57000,"dateOfTransfer":"1996-03-29T00:00:00","postcodeFull":"L10 2JG","propertyType":"Semi-detached","oldOrNew":"Established","duration":"Freehold","paon":"34","saon":"","street":"MOSTYN AVENUE","locality":"OLD ROAN","townOrCity":"LIVERPOOL","district":"SEFTON","county":"MERSEYSIDE","ppdCategoryType":"Standard","recordStatus":"Addition","latitude":53.48445,"longitude":-2.949751,"postcodeStart":"L10 2","postcode":["L10","2JG"]}
{"price":60000,"dateOfTransfer":"1996-02-19T00:00:00","postcodeFull":"L10 2JU","propertyType":"Semi-detached","oldOrNew":"Established","duration":"Freehold","paon":"6","saon":"","street":"DARTMOUTH AVENUE","locality":"LIVERPOOL","townOrCity":"LIVERPOOL","district":"SEFTON","county":"MERSEYSIDE","ppdCategoryType":"Standard","recordStatus":"Addition","latitude":53.483233,"longitude":-2.94454,"postcodeStart":"L10 2","postcode":["L10","2JU"]}
{"price":75000,"dateOfTransfer":"1996-05-08T00:00:00","postcodeFull":"L10 2JW","propertyType":"Semi-detached","oldOrNew":"Established","duration":"Freehold","paon":"94","saon":"","street":"AINTREE LANE","locality":"LIVERPOOL","townOrCity":"LIVERPOOL","district":"SEFTON","county":"MERSEYSIDE","ppdCategoryType":"Standard","recordStatus":"Addition","latitude":53.48218,"longitude":-2.944712,"postcodeStart":"L10 2","postcode":["L10","2JW"]}
{"price":54500,"dateOfTransfer":"1996-11-15T00:00:00","postcodeFull":"L10 2JN","propertyType":"Semi-detached","oldOrNew":"Established","duration":"Freehold","paon":"78","saon":"","street":"AINTREE LANE","locality":"LIVERPOOL","townOrCity":"LIVERPOOL","district":"SEFTON","county":"MERSEYSIDE","ppdCategoryType":"Standard","recordStatus":"Addition","latitude":53.48353,"longitude":-2.946807,"postcodeStart":"L10 2","postcode":["L10","2JN"]}
{"price":40000,"dateOfTransfer":"1997-04-01T00:00:00","postcodeFull":"L10 2JE","propertyType":"Semi-detached","oldOrNew":"Established","duration":"Freehold","paon":"13","saon":"","street":"MOSTYN AVENUE","locality":"OLD ROAN","townOrCity":"LIVERPOOL","district":"LIVERPOOL","county":"MERSEYSIDE","ppdCategoryType":"Standard","recordStatus":"Addition","latitude":53.48442,"longitude":-2.948982,"postcodeStart":"L10 2","postcode":["L10","2JE"]}
{"price":60000,"dateOfTransfer":"1997-05-30T00:00:00","postcodeFull":"L10 2JW","propertyType":"Semi-detached","oldOrNew":"Established","duration":"Freehold","paon":"110","saon":"","street":"AINTREE LANE","locality":"LIVERPOOL","townOrCity":"LIVERPOOL","district":"SEFTON","county":"MERSEYSIDE","ppdCategoryType":"Standard","recordStatus":"Addition","latitude":53.48218,"longitude":-2.944712,"postcodeStart":"L10 2","postcode":["L10","2JW"]}
{"price":60000,"dateOfTransfer":"1997-05-16T00:00:00","postcodeFull":"L10 2JN","propertyType":"Semi-detached","oldOrNew":"Established","duration":"Freehold","paon":"52","saon":"","street":"AINTREE LANE","locality":"LIVERPOOL","townOrCity":"LIVERPOOL","district":"SEFTON","county":"MERSEYSIDE","ppdCategoryType":"Standard","recordStatus":"Addition","latitude":53.48353,"longitude":-2.946807,"postcodeStart":"L10 2","postcode":["L10","2JN"]}
{"price":66000,"dateOfTransfer":"1997-10-06T00:00:00","postcodeFull":"L10 2LB","propertyType":"Semi-detached","oldOrNew":"Established","duration":"Freehold","paon":"9","saon":"","street":"CRANWELL CLOSE","locality":"LIVERPOOL","townOrCity":"LIVERPOOL","district":"SEFTON","county":"MERSEYSIDE","ppdCategoryType":"Standard","recordStatus":"Addition","latitude":53.483488,"longitude":-2.944093,"postcodeStart":"L10 2","postcode":["L10","2LB"]}
{"price":67000,"dateOfTransfer":"1997-06-06T00:00:00","postcodeFull":"L10 2LD","propertyType":"Semi-detached","oldOrNew":"Established","duration":"Freehold","paon":"5","saon":"","street":"SHREWSBURY AVENUE","locality":"OLD ROAN","townOrCity":"LIVERPOOL","district":"SEFTON","county":"MERSEYSIDE","ppdCategoryType":"Standard","recordStatus":"Addition","latitude":53.483797,"longitude":-2.941403,"postcodeStart":"L10 2","postcode":["L10","2LD"]}
{"price":59950,"dateOfTransfer":"1997-11-28T00:00:00","postcodeFull":"L10 2LG","propertyType":"Semi-detached","oldOrNew":"Established","duration":"Freehold","paon":"8","saon":"","street":"ALTWAY","locality":"LIVERPOOL","townOrCity":"LIVERPOOL","district":"SEFTON","county":"MERSEYSIDE","ppdCategoryType":"Standard","recordStatus":"Addition","latitude":53.485021,"longitude":-2.944579,"postcodeStart":"L10 2","postcode":["L10","2LG"]}
{"price":59999,"dateOfTransfer":"1997-04-09T00:00:00","postcodeFull":"L10 2LD","propertyType":"Semi-detached","oldOrNew":"Established","duration":"Freehold","paon":"53","saon":"","street":"SHREWSBURY AVENUE","locality":"OLD ROAN","townOrCity":"LIVERPOOL","district":"SEFTON","county":"MERSEYSIDE","ppdCategoryType":"Standard","recordStatus":"Addition","latitude":53.483797,"longitude":-2.941403,"postcodeStart":"L10 2","postcode":["L10","2LD"]}
{"price":52500,"dateOfTransfer":"1997-06-27T00:00:00","postcodeFull":"L10 2JF","propertyType":"Semi-detached","oldOrNew":"Established","duration":"Freehold","paon":"69","saon":"","street":"MOSTYN AVENUE","locality":"OLD ROAN","townOrCity":"LIVERPOOL","district":"SEFTON","county":"MERSEYSIDE","ppdCategoryType":"Standard","recordStatus":"Addition","latitude":53.483293,"longitude":-2.947193,"postcodeStart":"L10 2","postcode":["L10","2JF"]}
{"price":75000,"dateOfTransfer":"1997-07-22T00:00:00","postcodeFull":"L10 2JW","propertyType":"Semi-detached","oldOrNew":"Established","duration":"Freehold","paon":"94","saon":"","street":"AINTREE LANE","locality":"LIVERPOOL","townOrCity":"LIVERPOOL","district":"SEFTON","county":"MERSEYSIDE","ppdCategoryType":"Standard","recordStatus":"Addition","latitude":53.48218,"longitude":-2.944712,"postcodeStart":"L10 2","postcode":["L10","2JW"]}
{"price":71000,"dateOfTransfer":"1997-06-06T00:00:00","postcodeFull":"L10 2JU","propertyType":"Semi-detached","oldOrNew":"Established","duration":"Freehold","paon":"27","saon":"","street":"DARTMOUTH AVENUE","locality":"LIVERPOOL","townOrCity":"LIVERPOOL","district":"SEFTON","county":"MERSEYSIDE","ppdCategoryType":"Standard","recordStatus":"Addition","latitude":53.483233,"longitude":-2.94454,"postcodeStart":"L10 2","postcode":["L10","2JU"]}
{"price":66000,"dateOfTransfer":"1997-06-27T00:00:00","postcodeFull":"L10 2JF","propertyType":"Semi-detached","oldOrNew":"Established","duration":"Freehold","paon":"41","saon":"","street":"MOSTYN AVENUE","locality":"OLD ROAN","townOrCity":"LIVERPOOL","district":"SEFTON","county":"MERSEYSIDE","ppdCategoryType":"Standard","recordStatus":"Addition","latitude":53.483293,"longitude":-2.947193,"postcodeStart":"L10 2","postcode":["L10","2JF"]}
{"price":59950,"dateOfTransfer":"1997-08-04T00:00:00","postcodeFull":"L10 2JQ","propertyType":"Semi-detached","oldOrNew":"Established","duration":"Freehold","paon":"86","saon":"","street":"MOSTYN AVENUE","locality":"OLD ROAN","townOrCity":"LIVERPOOL","district":"SEFTON","county":"MERSEYSIDE","ppdCategoryType":"Standard","recordStatus":"Addition","latitude":53.483022,"longitude":-2.947368,"postcodeStart":"L10 2","postcode":["L10","2JQ"]}
{"price":53000,"dateOfTransfer":"1997-07-31T00:00:00","postcodeFull":"L10 2JL","propertyType":"Semi-detached","oldOrNew":"Established","duration":"Freehold","paon":"18","saon":"","street":"AINTREE LANE","locality":"LIVERPOOL","townOrCity":"LIVERPOOL","district":"SEFTON","county":"MERSEYSIDE","ppdCategoryType":"Standard","recordStatus":"Addition","latitude":53.484762,"longitude":-2.948671,"postcodeStart":"L10 2","postcode":["L10","2JL"]}
{"price":57500,"dateOfTransfer":"1997-01-31T00:00:00","postcodeFull":"L10 2JL","propertyType":"Semi-detached","oldOrNew":"Established","duration":"Freehold","paon":"24","saon":"","street":"AINTREE LANE","locality":"LIVERPOOL","townOrCity":"LIVERPOOL","district":"SEFTON","county":"MERSEYSIDE","ppdCategoryType":"Standard","recordStatus":"Addition","latitude":53.484762,"longitude":-2.948671,"postcodeStart":"L10 2","postcode":["L10","2JL"]}
{"price":32000,"dateOfTransfer":"1997-03-27T00:00:00","postcodeFull":"L10 2JQ","propertyType":"Semi-detached","oldOrNew":"Established","duration":"Freehold","paon":"68","saon":"","street":"MOSTYN AVENUE","locality":"OLD ROAN","townOrCity":"LIVERPOOL","district":"SEFTON","county":"MERSEYSIDE","ppdCategoryType":"Standard","recordStatus":"Addition","latitude":53.483022,"longitude":-2.947368,"postcodeStart":"L10 2","postcode":["L10","2JQ"]}
{"price":60000,"dateOfTransfer":"1997-02-28T00:00:00","postcodeFull":"L10 2JG","propertyType":"Semi-detached","oldOrNew":"Established","duration":"Freehold","paon":"56","saon":"","street":"MOSTYN AVENUE","locality":"OLD ROAN","townOrCity":"LIVERPOOL","district":"SEFTON","county":"MERSEYSIDE","ppdCategoryType":"Standard","recordStatus":"Addition","latitude":53.48445,"longitude":-2.949751,"postcodeStart":"L10 2","postcode":["L10","2JG"]}
{"price":66500,"dateOfTransfer":"1997-06-06T00:00:00","postcodeFull":"L10 2JE","propertyType":"Semi-detached","oldOrNew":"Established","duration":"Freehold","paon":"3","saon":"","street":"MOSTYN AVENUE","locality":"OLD ROAN","townOrCity":"LIVERPOOL","district":"LIVERPOOL","county":"MERSEYSIDE","ppdCategoryType":"Standard","recordStatus":"Addition","latitude":53.48442,"longitude":-2.948982,"postcodeStart":"L10 2","postcode":["L10","2JE"]}
{"price":59500,"dateOfTransfer":"1997-01-17T00:00:00","postcodeFull":"L10 2JG","propertyType":"Semi-detached","oldOrNew":"Established","duration":"Freehold","paon":"20","saon":"","street":"MOSTYN AVENUE","locality":"OLD ROAN","townOrCity":"LIVERPOOL","district":"SEFTON","county":"MERSEYSIDE","ppdCategoryType":"Standard","recordStatus":"Addition","latitude":53.48445,"longitude":-2.949751,"postcodeStart":"L10 2","postcode":["L10","2JG"]}
{"price":43500,"dateOfTransfer":"1998-08-26T00:00:00","postcodeFull":"L10 2JQ","propertyType":"Semi-detached","oldOrNew":"Established","duration":"Freehold","paon":"112","saon":"","street":"MOSTYN AVENUE","locality":"OLD ROAN","townOrCity":"LIVERPOOL","district":"SEFTON","county":"MERSEYSIDE","ppdCategoryType":"Standard","recordStatus":"Addition","latitude":53.483022,"longitude":-2.947368,"postcodeStart":"L10 2","postcode":["L10","2JQ"]}
{"price":66750,"dateOfTransfer":"1998-10-23T00:00:00","postcodeFull":"L10 2JS","propertyType":"Semi-detached","oldOrNew":"Established","duration":"Freehold","paon":"37","saon":"","street":"STONEYHURST AVENUE","locality":"LIVERPOOL","townOrCity":"LIVERPOOL","district":"SEFTON","county":"MERSEYSIDE","ppdCategoryType":"Standard","recordStatus":"Addition","latitude":53.484582,"longitude":-2.94674,"postcodeStart":"L10 2","postcode":["L10","2JS"]}
{"price":55000,"dateOfTransfer":"1998-03-02T00:00:00","postcodeFull":"L10 2JF","propertyType":"Semi-detached","oldOrNew":"Established","duration":"Freehold","paon":"85","saon":"","street":"MOSTYN AVENUE","locality":"OLD ROAN","townOrCity":"LIVERPOOL","district":"SEFTON","county":"MERSEYSIDE","ppdCategoryType":"Standard","recordStatus":"Addition","latitude":53.483293,"longitude":-2.947193,"postcodeStart":"L10 2","postcode":["L10","2JF"]}
{"price":59950,"dateOfTransfer":"1998-12-18T00:00:00","postcodeFull":"L10 2JQ","propertyType":"Semi-detached","oldOrNew":"Established","duration":"Freehold","paon":"74","saon":"","street":"MOSTYN AVENUE","locality":"OLD ROAN","townOrCity":"LIVERPOOL","district":"SEFTON","county":"MERSEYSIDE","ppdCategoryType":"Standard","recordStatus":"Addition","latitude":53.483022,"longitude":-2.947368,"postcodeStart":"L10 2","postcode":["L10","2JQ"]}
{"price":52400,"dateOfTransfer":"1998-06-30T00:00:00","postcodeFull":"L10 2JN","propertyType":"Semi-detached","oldOrNew":"Established","duration":"Freehold","paon":"42","saon":"","street":"AINTREE LANE","locality":"LIVERPOOL","townOrCity":"LIVERPOOL","district":"SEFTON","county":"MERSEYSIDE","ppdCategoryType":"Standard","recordStatus":"Addition","latitude":53.48353,"longitude":-2.946807,"postcodeStart":"L10 2","postcode":["L10","2JN"]}
{"price":49000,"dateOfTransfer":"1998-07-10T00:00:00","postcodeFull":"L10 2JG","propertyType":"Semi-detached","oldOrNew":"Established","duration":"Freehold","paon":"26","saon":"","street":"MOSTYN AVENUE","locality":"OLD ROAN","townOrCity":"LIVERPOOL","district":"SEFTON","county":"MERSEYSIDE","ppdCategoryType":"Standard","recordStatus":"Addition","latitude":53.48445,"longitude":-2.949751,"postcodeStart":"L10 2","postcode":["L10","2JG"]}
{"price":68000,"dateOfTransfer":"1998-04-09T00:00:00","postcodeFull":"L10 2JZ","propertyType":"Semi-detached","oldOrNew":"Established","duration":"Freehold","paon":"12","saon":"","street":"ETON DRIVE","locality":"LIVERPOOL","townOrCity":"LIVERPOOL","district":"SEFTON","county":"MERSEYSIDE","ppdCategoryType":"Standard","recordStatus":"Addition","latitude":53.482921,"longitude":-2.943011,"postcodeStart":"L10 2","postcode":["L10","2JZ"]}
{"price":60000,"dateOfTransfer":"1998-06-05T00:00:00","postcodeFull":"L10 2JU","propertyType":"Semi-detached","oldOrNew":"Established","duration":"Freehold","paon":"4","saon":"","street":"DARTMOUTH AVENUE","locality":"LIVERPOOL","townOrCity":"LIVERPOOL","district":"SEFTON","county":"MERSEYSIDE","ppdCategoryType":"Standard","recordStatus":"Addition","latitude":53.483233,"longitude":-2.94454,"postcodeStart":"L10 2","postcode":["L10","2JU"]}
{"price":68000,"dateOfTransfer":"1999-08-23T00:00:00","postcodeFull":"L10 2JF","propertyType":"Semi-detached","oldOrNew":"Established","duration":"Freehold","paon":"41","saon":"","street":"MOSTYN AVENUE","locality":"OLD ROAN","townOrCity":"LIVERPOOL","district":"SEFTON","county":"MERSEYSIDE","ppdCategoryType":"Standard","recordStatus":"Addition","latitude":53.483293,"longitude":-2.947193,"postcodeStart":"L10 2","postcode":["L10","2JF"]}
{"price":62000,"dateOfTransfer":"1999-09-30T00:00:00","postcodeFull":"L10 2JJ","propertyType":"Semi-detached","oldOrNew":"Established","duration":"Freehold","paon":"55","saon":"","street":"AINTREE LANE","locality":"","townOrCity":"LIVERPOOL","district":"SEFTON","county":"MERSEYSIDE","ppdCategoryType":"Standard","recordStatus":"Addition","latitude":53.483597,"longitude":-2.94619,"postcodeStart":"L10 2","postcode":["L10","2JJ"]}
{"price":67000,"dateOfTransfer":"1999-06-28T00:00:00","postcodeFull":"L10 2JT","propertyType":"Semi-detached","oldOrNew":"Established","duration":"Freehold","paon":"2","saon":"","street":"STONEYHURST AVENUE","locality":"","townOrCity":"LIVERPOOL","district":"SEFTON","county":"MERSEYSIDE","ppdCategoryType":"Standard","recordStatus":"Addition","latitude":53.484667,"longitude":-2.946214,"postcodeStart":"L10 2","postcode":["L10","2JT"]}
{"price":67500,"dateOfTransfer":"1999-06-25T00:00:00","postcodeFull":"L10 2JQ","propertyType":"Semi-detached","oldOrNew":"Established","duration":"Freehold","paon":"92","saon":"","street":"MOSTYN AVENUE","locality":"OLD ROAN","townOrCity":"LIVERPOOL","district":"SEFTON","county":"MERSEYSIDE","ppdCategoryType":"Standard","recordStatus":"Addition","latitude":53.483022,"longitude":-2.947368,"postcodeStart":"L10 2","postcode":["L10","2JQ"]}
{"price":60000,"dateOfTransfer":"1999-05-28T00:00:00","postcodeFull":"L10 2JN","propertyType":"Semi-detached","oldOrNew":"Established","duration":"Freehold","paon":"64","saon":"","street":"AINTREE LANE","locality":"","townOrCity":"LIVERPOOL","district":"SEFTON","county":"MERSEYSIDE","ppdCategoryType":"Standard","recordStatus":"Addition","latitude":53.48353,"longitude":-2.946807,"postcodeStart":"L10 2","postcode":["L10","2JN"]}
{"price":62500,"dateOfTransfer":"1999-10-29T00:00:00","postcodeFull":"L10 2JN","propertyType":"Semi-detached","oldOrNew":"Established","duration":"Freehold","paon":"50","saon":"","street":"AINTREE LANE","locality":"","townOrCity":"LIVERPOOL","district":"SEFTON","county":"MERSEYSIDE","ppdCategoryType":"Standard","recordStatus":"Addition","latitude":53.48353,"longitude":-2.946807,"postcodeStart":"L10 2","postcode":["L10","2JN"]}
{"price":72995,"dateOfTransfer":"1999-05-28T00:00:00","postcodeFull":"L10 2LG","propertyType":"Semi-detached","oldOrNew":"Established","duration":"Freehold","paon":"16","saon":"","street":"ALTWAY","locality":"","townOrCity":"LIVERPOOL","district":"SEFTON","county":"MERSEYSIDE","ppdCategoryType":"Standard","recordStatus":"Addition","latitude":53.485021,"longitude":-2.944579,"postcodeStart":"L10 2","postcode":["L10","2LG"]}
{"price":67000,"dateOfTransfer":"1999-09-03T00:00:00","postcodeFull":"L10 2JQ","propertyType":"Semi-detached","oldOrNew":"Established","duration":"Freehold","paon":"102","saon":"","street":"MOSTYN AVENUE","locality":"OLD ROAN","townOrCity":"LIVERPOOL","district":"SEFTON","county":"MERSEYSIDE","ppdCategoryType":"Standard","recordStatus":"Addition","latitude":53.483022,"longitude":-2.947368,"postcodeStart":"L10 2","postcode":["L10","2JQ"]}
{"price":69500,"dateOfTransfer":"1999-07-16T00:00:00","postcodeFull":"L10 2JQ","propertyType":"Semi-detached","oldOrNew":"Established","duration":"Freehold","paon":"124","saon":"","street":"MOSTYN AVENUE","locality":"OLD ROAN","townOrCity":"LIVERPOOL","district":"SEFTON","county":"MERSEYSIDE","ppdCategoryType":"Standard","recordStatus":"Addition","latitude":53.483022,"longitude":-2.947368,"postcodeStart":"L10 2","postcode":["L10","2JQ"]}
{"price":56000,"dateOfTransfer":"1999-12-22T00:00:00","postcodeFull":"L10 2JZ","propertyType":"Semi-detached","oldOrNew":"Established","duration":"Freehold","paon":"36","saon":"","street":"ETON DRIVE","locality":"","townOrCity":"LIVERPOOL","district":"SEFTON","county":"MERSEYSIDE","ppdCategoryType":"Standard","recordStatus":"Addition","latitude":53.482921,"longitude":-2.943011,"postcodeStart":"L10 2","postcode":["L10","2JZ"]}
{"price":78750,"dateOfTransfer":"1999-05-24T00:00:00","postcodeFull":"L10 2JW","propertyType":"Semi-detached","oldOrNew":"Established","duration":"Freehold","paon":"114","saon":"","street":"AINTREE LANE","locality":"","townOrCity":"LIVERPOOL","district":"SEFTON","county":"MERSEYSIDE","ppdCategoryType":"Standard","recordStatus":"Addition","latitude":53.48218,"longitude":-2.944712,"postcodeStart":"L10 2","postcode":["L10","2JW"]}
{"price":67000,"dateOfTransfer":"1999-06-25T00:00:00","postcodeFull":"L10 2JQ","propertyType":"Semi-detached","oldOrNew":"Established","duration":"Freehold","paon":"120","saon":"","street":"MOSTYN AVENUE","locality":"OLD ROAN","townOrCity":"LIVERPOOL","district":"SEFTON","county":"MERSEYSIDE","ppdCategoryType":"Standard","recordStatus":"Addition","latitude":53.483022,"longitude":-2.947368,"postcodeStart":"L10 2","postcode":["L10","2JQ"]}
{"price":69000,"dateOfTransfer":"1999-05-21T00:00:00","postcodeFull":"L10 2LF","propertyType":"Semi-detached","oldOrNew":"Established","duration":"Freehold","paon":"36","saon":"","street":"SHREWSBURY AVENUE","locality":"OLD ROAN","townOrCity":"LIVERPOOL","district":"SEFTON","county":"MERSEYSIDE","ppdCategoryType":"Standard","recordStatus":"Addition","latitude":53.483359,"longitude":-2.941122,"postcodeStart":"L10 2","postcode":["L10","2LF"]}
{"price":37000,"dateOfTransfer":"1999-09-21T00:00:00","postcodeFull":"L10 2LG","propertyType":"Semi-detached","oldOrNew":"Established","duration":"Freehold","paon":"6","saon":"","street":"ALTWAY","locality":"","townOrCity":"LIVERPOOL","district":"SEFTON","county":"MERSEYSIDE","ppdCategoryType":"Standard","recordStatus":"Addition","latitude":53.485021,"longitude":-2.944579,"postcodeStart":"L10 2","postcode":["L10","2LG"]}
{"price":61000,"dateOfTransfer":"1999-04-12T00:00:00","postcodeFull":"L10 2JG","propertyType":"Semi-detached","oldOrNew":"Established","duration":"Freehold","paon":"14","saon":"","street":"MOSTYN AVENUE","locality":"OLD ROAN","townOrCity":"LIVERPOOL","district":"SEFTON","county":"MERSEYSIDE","ppdCategoryType":"Standard","recordStatus":"Addition","latitude":53.48445,"longitude":-2.949751,"postcodeStart":"L10 2","postcode":["L10","2JG"]}
{"price":71500,"dateOfTransfer":"1999-11-10T00:00:00","postcodeFull":"L10 2JT","propertyType":"Semi-detached","oldOrNew":"Established","duration":"Freehold","paon":"28","saon":"","street":"STONEYHURST AVENUE","locality":"","townOrCity":"LIVERPOOL","district":"SEFTON","county":"MERSEYSIDE","ppdCategoryType":"Standard","recordStatus":"Addition","latitude":53.484667,"longitude":-2.946214,"postcodeStart":"L10 2","postcode":["L10","2JT"]}
{"price":70000,"dateOfTransfer":"2000-12-15T00:00:00","postcodeFull":"L10 2JU","propertyType":"Semi-detached","oldOrNew":"Established","duration":"Freehold","paon":"3","saon":"","street":"DARTMOUTH AVENUE","locality":"","townOrCity":"LIVERPOOL","district":"SEFTON","county":"MERSEYSIDE","ppdCategoryType":"Standard","recordStatus":"Addition","latitude":53.483233,"longitude":-2.94454,"postcodeStart":"L10 2","postcode":["L10","2JU"]}
{"price":73450,"dateOfTransfer":"2000-05-26T00:00:00","postcodeFull":"L10 2JQ","propertyType":"Semi-detached","oldOrNew":"Established","duration":"Freehold","paon":"90","saon":"","street":"MOSTYN AVENUE","locality":"OLD ROAN","townOrCity":"LIVERPOOL","district":"SEFTON","county":"MERSEYSIDE","ppdCategoryType":"Standard","recordStatus":"Addition","latitude":53.483022,"longitude":-2.947368,"postcodeStart":"L10 2","postcode":["L10","2JQ"]}
{"price":51500,"dateOfTransfer":"2000-01-14T00:00:00","postcodeFull":"L10 2JZ","propertyType":"Semi-detached","oldOrNew":"Established","duration":"Freehold","paon":"22","saon":"","street":"ETON DRIVE","locality":"","townOrCity":"LIVERPOOL","district":"SEFTON","county":"MERSEYSIDE","ppdCategoryType":"Standard","recordStatus":"Addition","latitude":53.482921,"longitude":-2.943011,"postcodeStart":"L10 2","postcode":["L10","2JZ"]}
{"price":5000,"dateOfTransfer":"2000-06-07T00:00:00","postcodeFull":"L10 2JQ","propertyType":"Semi-detached","oldOrNew":"Established","duration":"Freehold","paon":"92","saon":"","street":"MOSTYN AVENUE","locality":"OLD ROAN","townOrCity":"LIVERPOOL","district":"SEFTON","county":"MERSEYSIDE","ppdCategoryType":"Standard","recordStatus":"Addition","latitude":53.483022,"longitude":-2.947368,"postcodeStart":"L10 2","postcode":["L10","2JQ"]}
{"price":68000,"dateOfTransfer":"2000-12-08T00:00:00","postcodeFull":"L10 2LF","propertyType":"Semi-detached","oldOrNew":"Established","duration":"Freehold","paon":"64","saon":"","street":"SHREWSBURY AVENUE","locality":"OLD ROAN","townOrCity":"LIVERPOOL","district":"SEFTON","county":"MERSEYSIDE","ppdCategoryType":"Standard","recordStatus":"Addition","latitude":53.483359,"longitude":-2.941122,"postcodeStart":"L10 2","postcode":["L10","2LF"]}
{"price":68886,"dateOfTransfer":"2000-05-26T00:00:00","postcodeFull":"L10 2JP","propertyType":"Semi-detached","oldOrNew":"Established","duration":"Freehold","paon":"15","saon":"","street":"ELLESMERE DRIVE","locality":"","townOrCity":"LIVERPOOL","district":"SEFTON","county":"MERSEYSIDE","ppdCategoryType":"Standard","recordStatus":"Addition","latitude":53.484306,"longitude":-2.945257,"postcodeStart":"L10 2","postcode":["L10","2JP"]}
{"price":84000,"dateOfTransfer":"2000-06-30T00:00:00","postcodeFull":"L10 2JW","propertyType":"Semi-detached","oldOrNew":"Established","duration":"Freehold","paon":"94","saon":"","street":"AINTREE LANE","locality":"","townOrCity":"LIVERPOOL","district":"SEFTON","county":"MERSEYSIDE","ppdCategoryType":"Standard","recordStatus":"Addition","latitude":53.48218,"longitude":-2.944712,"postcodeStart":"L10 2","postcode":["L10","2JW"]}
{"price":59950,"dateOfTransfer":"2000-11-24T00:00:00","postcodeFull":"L10 2JW","propertyType":"Semi-detached","oldOrNew":"Established","duration":"Freehold","paon":"108","saon":"","street":"AINTREE LANE","locality":"","townOrCity":"LIVERPOOL","district":"SEFTON","county":"MERSEYSIDE","ppdCategoryType":"Standard","recordStatus":"Addition","latitude":53.48218,"longitude":-2.944712,"postcodeStart":"L10 2","postcode":["L10","2JW"]}
{"price":70000,"dateOfTransfer":"2000-08-21T00:00:00","postcodeFull":"L10 2JE","propertyType":"Semi-detached","oldOrNew":"Established","duration":"Freehold","paon":"9","saon":"","street":"MOSTYN AVENUE","locality":"OLD ROAN","townOrCity":"LIVERPOOL","district":"SEFTON","county":"MERSEYSIDE","ppdCategoryType":"Standard","recordStatus":"Addition","latitude":53.48442,"longitude":-2.948982,"postcodeStart":"L10 2","postcode":["L10","2JE"]}
{"price":75000,"dateOfTransfer":"2000-08-25T00:00:00","postcodeFull":"L10 2JJ","propertyType":"Semi-detached","oldOrNew":"Established","duration":"Freehold","paon":"41","saon":"","street":"AINTREE LANE","locality":"","townOrCity":"LIVERPOOL","district":"SEFTON","county":"MERSEYSIDE","ppdCategoryType":"Standard","recordStatus":"Addition","latitude":53.483597,"longitude":-2.94619,"postcodeStart":"L10 2","postcode":["L10","2JJ"]}
{"price":68000,"dateOfTransfer":"2000-11-02T00:00:00","postcodeFull":"L10 2JQ","propertyType":"Semi-detached","oldOrNew":"Established","duration":"Freehold","paon":"76","saon":"","street":"MOSTYN AVENUE","locality":"OLD ROAN","townOrCity":"LIVERPOOL","district":"SEFTON","county":"MERSEYSIDE","ppdCategoryType":"Standard","recordStatus":"Addition","latitude":53.483022,"longitude":-2.947368,"postcodeStart":"L10 2","postcode":["L10","2JQ"]}
{"price":72000,"dateOfTransfer":"2001-01-16T00:00:00","postcodeFull":"L10 2JS","propertyType":"Semi-detached","oldOrNew":"Established","duration":"Freehold","paon":"21","saon":"","street":"STONEYHURST AVENUE","locality":"LIVERPOOL","townOrCity":"LIVERPOOL","district":"SEFTON","county":"MERSEYSIDE","ppdCategoryType":"Standard","recordStatus":"Addition","latitude":53.484582,"longitude":-2.94674,"postcodeStart":"L10 2","postcode":["L10","2JS"]}
{"price":91000,"dateOfTransfer":"2001-12-18T00:00:00","postcodeFull":"L10 2JY","propertyType":"Semi-detached","oldOrNew":"Established","duration":"Freehold","paon":"13","saon":"","street":"ETON DRIVE","locality":"LIVERPOOL","townOrCity":"LIVERPOOL","district":"SEFTON","county":"MERSEYSIDE","ppdCategoryType":"Standard","recordStatus":"Addition","latitude":53.482962,"longitude":-2.943539,"postcodeStart":"L10 2","postcode":["L10","2JY"]}
{"price":78500,"dateOfTransfer":"2001-01-12T00:00:00","postcodeFull":"L10 2LQ","propertyType":"Semi-detached","oldOrNew":"Established","duration":"Freehold","paon":"82","saon":"","street":"ALTWAY","locality":"LIVERPOOL","townOrCity":"LIVERPOOL","district":"SEFTON","county":"MERSEYSIDE","ppdCategoryType":"Standard","recordStatus":"Addition","latitude":53.483839,"longitude":-2.940695,"postcodeStart":"L10 2","postcode":["L10","2LQ"]}
{"price":78000,"dateOfTransfer":"2001-10-11T00:00:00","postcodeFull":"L10 2JL","propertyType":"Semi-detached","oldOrNew":"Established","duration":"Freehold","paon":"32","saon":"","street":"AINTREE LANE","locality":"LIVERPOOL","townOrCity":"LIVERPOOL","district":"SEFTON","county":"MERSEYSIDE","ppdCategoryType":"Standard","recordStatus":"Addition","latitude":53.484762,"longitude":-2.948671,"postcodeStart":"L10 2","postcode":["L10","2JL"]}
{"price":77000,"dateOfTransfer":"2001-06-08T00:00:00","postcodeFull":"L10 2LD","propertyType":"Semi-detached","oldOrNew":"Established","duration":"Freehold","paon":"17","saon":"","street":"SHREWSBURY AVENUE","locality":"OLD ROAN","townOrCity":"LIVERPOOL","district":"SEFTON","county":"MERSEYSIDE","ppdCategoryType":"Standard","recordStatus":"Addition","latitude":53.483797,"longitude":-2.941403,"postcodeStart":"L10 2","postcode":["L10","2LD"]}
{"price":91500,"dateOfTransfer":"2001-06-22T00:00:00","postcodeFull":"L10 2JJ","propertyType":"Semi-detached","oldOrNew":"Established","duration":"Freehold","paon":"45","saon":"","street":"AINTREE LANE","locality":"LIVERPOOL","townOrCity":"LIVERPOOL","district":"SEFTON","county":"MERSEYSIDE","ppdCategoryType":"Standard","recordStatus":"Addition","latitude":53.483597,"longitude":-2.94619,"postcodeStart":"L10 2","postcode":["L10","2JJ"]}
{"price":70000,"dateOfTransfer":"2001-09-21T00:00:00","postcodeFull":"L10 2JY","propertyType":"Semi-detached","oldOrNew":"Established","duration":"Freehold","paon":"11","saon":"","street":"ETON DRIVE","locality":"LIVERPOOL","townOrCity":"LIVERPOOL","district":"SEFTON","county":"MERSEYSIDE","ppdCategoryType":"Standard","recordStatus":"Addition","latitude":53.482962,"longitude":-2.943539,"postcodeStart":"L10 2","postcode":["L10","2JY"]}
{"price":81950,"dateOfTransfer":"2001-06-08T00:00:00","postcodeFull":"L10 2LG","propertyType":"Semi-detached","oldOrNew":"Established","duration":"Freehold","paon":"12","saon":"","street":"ALTWAY","locality":"LIVERPOOL","townOrCity":"LIVERPOOL","district":"SEFTON","county":"MERSEYSIDE","ppdCategoryType":"Standard","recordStatus":"Addition","latitude":53.485021,"longitude":-2.944579,"postcodeStart":"L10 2","postcode":["L10","2LG"]}
{"price":59950,"dateOfTransfer":"2001-07-04T00:00:00","postcodeFull":"L10 2JL","propertyType":"Semi-detached","oldOrNew":"Established","duration":"Freehold","paon":"32","saon":"","street":"AINTREE LANE","locality":"LIVERPOOL","townOrCity":"LIVERPOOL","district":"SEFTON","county":"MERSEYSIDE","ppdCategoryType":"Standard","recordStatus":"Addition","latitude":53.484762,"longitude":-2.948671,"postcodeStart":"L10 2","postcode":["L10","2JL"]}
{"price":80000,"dateOfTransfer":"2001-12-04T00:00:00","postcodeFull":"L10 2JP","propertyType":"Semi-detached","oldOrNew":"Established","duration":"Freehold","paon":"27","saon":"","street":"ELLESMERE DRIVE","locality":"LIVERPOOL","townOrCity":"LIVERPOOL","district":"SEFTON","county":"MERSEYSIDE","ppdCategoryType":"Standard","recordStatus":"Addition","latitude":53.484306,"longitude":-2.945257,"postcodeStart":"L10 2","postcode":["L10","2JP"]}
{"price":81000,"dateOfTransfer":"2001-04-20T00:00:00","postcodeFull":"L10 2JS","propertyType":"Terraced","oldOrNew":"Established","duration":"Freehold","paon":"13","saon":"","street":"STONEYHURST AVENUE","locality":"LIVERPOOL","townOrCity":"LIVERPOOL","district":"SEFTON","county":"MERSEYSIDE","ppdCategoryType":"Standard","recordStatus":"Addition","latitude":53.484582,"longitude":-2.94674,"postcodeStart":"L10 2","postcode":["L10","2JS"]}
{"price":70000,"dateOfTransfer":"2001-07-31T00:00:00","postcodeFull":"L10 2LQ","propertyType":"Semi-detached","oldOrNew":"Established","duration":"Freehold","paon":"74","saon":"","street":"ALTWAY","locality":"LIVERPOOL","townOrCity":"LIVERPOOL","district":"SEFTON","county":"MERSEYSIDE","ppdCategoryType":"Standard","recordStatus":"Addition","latitude":53.483839,"longitude":-2.940695,"postcodeStart":"L10 2","postcode":["L10","2LQ"]}
{"price":85000,"dateOfTransfer":"2001-09-28T00:00:00","postcodeFull":"L10 2LD","propertyType":"Semi-detached","oldOrNew":"Established","duration":"Freehold","paon":"53","saon":"","street":"SHREWSBURY AVENUE","locality":"OLD ROAN","townOrCity":"LIVERPOOL","district":"SEFTON","county":"MERSEYSIDE","ppdCategoryType":"Standard","recordStatus":"Addition","latitude":53.483797,"longitude":-2.941403,"postcodeStart":"L10 2","postcode":["L10","2LD"]}
{"price":100000,"dateOfTransfer":"2002-08-16T00:00:00","postcodeFull":"L10 2LD","propertyType":"Semi-detached","oldOrNew":"Established","duration":"Freehold","paon":"27","saon":"","street":"SHREWSBURY AVENUE","locality":"OLD ROAN","townOrCity":"LIVERPOOL","district":"SEFTON","county":"MERSEYSIDE","ppdCategoryType":"Standard","recordStatus":"Addition","latitude":53.483797,"longitude":-2.941403,"postcodeStart":"L10 2","postcode":["L10","2LD"]}
{"price":76000,"dateOfTransfer":"2002-05-31T00:00:00","postcodeFull":"L10 2JE","propertyType":"Semi-detached","oldOrNew":"Established","duration":"Freehold","paon":"17","saon":"","street":"MOSTYN AVENUE","locality":"OLD ROAN","townOrCity":"LIVERPOOL","district":"SEFTON","county":"MERSEYSIDE","ppdCategoryType":"Standard","recordStatus":"Addition","latitude":53.48442,"longitude":-2.948982,"postcodeStart":"L10 2","postcode":["L10","2JE"]}
{"price":87500,"dateOfTransfer":"2002-05-31T00:00:00","postcodeFull":"L10 2JU","propertyType":"Semi-detached","oldOrNew":"Established","duration":"Freehold","paon":"2","saon":"","street":"DARTMOUTH AVENUE","locality":"LIVERPOOL","townOrCity":"LIVERPOOL","district":"SEFTON","county":"MERSEYSIDE","ppdCategoryType":"Standard","recordStatus":"Addition","latitude":53.483233,"longitude":-2.94454,"postcodeStart":"L10 2","postcode":["L10","2JU"]}
{"price":129950,"dateOfTransfer":"2002-12-06T00:00:00","postcodeFull":"L10 2JQ","propertyType":"Semi-detached","oldOrNew":"Established","duration":"Freehold","paon":"120","saon":"","street":"MOSTYN AVENUE","locality":"OLD ROAN","townOrCity":"LIVERPOOL","district":"SEFTON","county":"MERSEYSIDE","ppdCategoryType":"Standard","recordStatus":"Addition","latitude":53.483022,"longitude":-2.947368,"postcodeStart":"L10 2","postcode":["L10","2JQ"]}
{"price":87950,"dateOfTransfer":"2002-05-30T00:00:00","postcodeFull":"L10 2LF","propertyType":"Semi-detached","oldOrNew":"Established","duration":"Freehold","paon":"48","saon":"","street":"SHREWSBURY AVENUE","locality":"OLD ROAN","townOrCity":"LIVERPOOL","district":"LIVERPOOL","county":"MERSEYSIDE","ppdCategoryType":"Standard","recordStatus":"Addition","latitude":53.483359,"longitude":-2.941122,"postcodeStart":"L10 2","postcode":["L10","2LF"]}
{"price":72000,"dateOfTransfer":"2002-03-28T00:00:00","postcodeFull":"L10 2JF","propertyType":"Semi-detached","oldOrNew":"Established","duration":"Freehold","paon":"51","saon":"","street":"MOSTYN AVENUE","locality":"OLD ROAN","townOrCity":"LIVERPOOL","district":"SEFTON","county":"MERSEYSIDE","ppdCategoryType":"Standard","recordStatus":"Addition","latitude":53.483293,"longitude":-2.947193,"postcodeStart":"L10 2","postcode":["L10","2JF"]}
{"price":82000,"dateOfTransfer":"2002-11-29T00:00:00","postcodeFull":"L10 2JG","propertyType":"Semi-detached","oldOrNew":"Established","duration":"Freehold","paon":"10","saon":"","street":"MOSTYN AVENUE","locality":"OLD ROAN","townOrCity":"LIVERPOOL","district":"SEFTON","county":"MERSEYSIDE","ppdCategoryType":"Standard","recordStatus":"Addition","latitude":53.48445,"longitude":-2.949751,"postcodeStart":"L10 2","postcode":["L10","2JG"]}
{"price":99950,"dateOfTransfer":"2002-04-26T00:00:00","postcodeFull":"L10 2JT","propertyType":"Semi-detached","oldOrNew":"Established","duration":"Freehold","paon":"8","saon":"","street":"STONEYHURST AVENUE","locality":"LIVERPOOL","townOrCity":"LIVERPOOL","district":"SEFTON","county":"MERSEYSIDE","ppdCategoryType":"Standard","recordStatus":"Addition","latitude":53.484667,"longitude":-2.946214,"postcodeStart":"L10 2","postcode":["L10","2JT"]}
{"price":99950,"dateOfTransfer":"2003-03-07T00:00:00","postcodeFull":"L10 2JU","propertyType":"Semi-detached","oldOrNew":"Established","duration":"Freehold","paon":"26","saon":"","street":"DARTMOUTH AVENUE","locality":"LIVERPOOL","townOrCity":"LIVERPOOL","district":"SEFTON","county":"MERSEYSIDE","ppdCategoryType":"Standard","recordStatus":"Addition","latitude":53.483233,"longitude":-2.94454,"postcodeStart":"L10 2","postcode":["L10","2JU"]}
{"price":149950,"dateOfTransfer":"2003-10-15T00:00:00","postcodeFull":"L10 2LD","propertyType":"Semi-detached","oldOrNew":"Established","duration":"Freehold","paon":"27","saon":"","street":"SHREWSBURY AVENUE","locality":"OLD ROAN","townOrCity":"LIVERPOOL","district":"SEFTON","county":"MERSEYSIDE","ppdCategoryType":"Standard","recordStatus":"Addition","latitude":53.483797,"longitude":-2.941403,"postcodeStart":"L10 2","postcode":["L10","2LD"]}
{"price":136000,"dateOfTransfer":"2003-06-05T00:00:00","postcodeFull":"L10 2JT","propertyType":"Terraced","oldOrNew":"Established","duration":"Freehold","paon":"20","saon":"","street":"STONEYHURST AVENUE","locality":"LIVERPOOL","townOrCity":"LIVERPOOL","district":"SEFTON","county":"MERSEYSIDE","ppdCategoryType":"Standard","recordStatus":"Addition","latitude":53.484667,"longitude":-2.946214,"postcodeStart":"L10 2","postcode":["L10","2JT"]}
{"price":107950,"dateOfTransfer":"2003-08-01T00:00:00","postcodeFull":"L10 2JX","propertyType":"Semi-detached","oldOrNew":"Established","duration":"Freehold","paon":"6","saon":"","street":"REPTON GROVE","locality":"LIVERPOOL","townOrCity":"LIVERPOOL","district":"SEFTON","county":"MERSEYSIDE","ppdCategoryType":"Standard","recordStatus":"Addition","latitude":53.481979,"longitude":-2.94516,"postcodeStart":"L10 2","postcode":["L10","2JX"]}
{"price":105000,"dateOfTransfer":"2003-01-30T00:00:00","postcodeFull":"L10 2LA","propertyType":"Semi-detached","oldOrNew":"Established","duration":"Freehold","paon":"13","saon":"","street":"MALVERN GROVE","locality":"LIVERPOOL","townOrCity":"LIVERPOOL","district":"SEFTON","county":"MERSEYSIDE","ppdCategoryType":"Standard","recordStatus":"Addition","latitude":53.481687,"longitude":-2.944505,"postcodeStart":"L10 2","postcode":["L10","2LA"]}
{"price":91000,"dateOfTransfer":"2003-01-30T00:00:00","postcodeFull":"L10 2JX","propertyType":"Semi-detached","oldOrNew":"Established","duration":"Freehold","paon":"3","saon":"","street":"REPTON GROVE","locality":"LIVERPOOL","townOrCity":"LIVERPOOL","district":"SEFTON","county":"MERSEYSIDE","ppdCategoryType":"Standard","recordStatus":"Addition","latitude":53.481979,"longitude":-2.94516,"postcodeStart":"L10 2","postcode":["L10","2JX"]}
{"price":115000,"dateOfTransfer":"2003-04-09T00:00:00","postcodeFull":"L10 2JU","propertyType":"Semi-detached","oldOrNew":"Established","duration":"Freehold","paon":"16","saon":"","street":"DARTMOUTH AVENUE","locality":"LIVERPOOL","townOrCity":"LIVERPOOL","district":"SEFTON","county":"MERSEYSIDE","ppdCategoryType":"Standard","recordStatus":"Addition","latitude":53.483233,"longitude":-2.94454,"postcodeStart":"L10 2","postcode":["L10","2JU"]}
{"price":124000,"dateOfTransfer":"2003-07-23T00:00:00","postcodeFull":"L10 2JQ","propertyType":"Semi-detached","oldOrNew":"Established","duration":"Freehold","paon":"76","saon":"","street":"MOSTYN AVENUE","locality":"OLD ROAN","townOrCity":"LIVERPOOL","district":"SEFTON","county":"MERSEYSIDE","ppdCategoryType":"Standard","recordStatus":"Addition","latitude":53.483022,"longitude":-2.947368,"postcodeStart":"L10 2","postcode":["L10","2JQ"]}
{"price":116000,"dateOfTransfer":"2003-01-30T00:00:00","postcodeFull":"L10 2JQ","propertyType":"Semi-detached","oldOrNew":"Established","duration":"Freehold","paon":"124","saon":"","street":"MOSTYN AVENUE","locality":"OLD ROAN","townOrCity":"LIVERPOOL","district":"SEFTON","county":"MERSEYSIDE","ppdCategoryType":"Standard","recordStatus":"Addition","latitude":53.483022,"longitude":-2.947368,"postcodeStart":"L10 2","postcode":["L10","2JQ"]}
{"price":125000,"dateOfTransfer":"2003-11-26T00:00:00","postcodeFull":"L10 2JZ","propertyType":"Semi-detached","oldOrNew":"Established","duration":"Freehold","paon":"32","saon":"","street":"ETON DRIVE","locality":"LIVERPOOL","townOrCity":"LIVERPOOL","district":"SEFTON","county":"MERSEYSIDE","ppdCategoryType":"Standard","recordStatus":"Addition","latitude":53.482921,"longitude":-2.943011,"postcodeStart":"L10 2","postcode":["L10","2JZ"]}
{"price":105000,"dateOfTransfer":"2003-04-07T00:00:00","postcodeFull":"L10 2JF","propertyType":"Semi-detached","oldOrNew":"Established","duration":"Freehold","paon":"77","saon":"","street":"MOSTYN AVENUE","locality":"OLD ROAN","townOrCity":"LIVERPOOL","district":"SEFTON","county":"MERSEYSIDE","ppdCategoryType":"Standard","recordStatus":"Addition","latitude":53.483293,"longitude":-2.947193,"postcodeStart":"L10 2","postcode":["L10","2JF"]}
{"price":135000,"dateOfTransfer":"2003-10-24T00:00:00","postcodeFull":"L10 2LA","propertyType":"Semi-detached","oldOrNew":"Established","duration":"Freehold","paon":"15","saon":"","street":"MALVERN GROVE","locality":"LIVERPOOL","townOrCity":"LIVERPOOL","district":"SEFTON","county":"MERSEYSIDE","ppdCategoryType":"Standard","recordStatus":"Addition","latitude":53.481687,"longitude":-2.944505,"postcodeStart":"L10 2","postcode":["L10","2LA"]}
{"price":129950,"dateOfTransfer":"2003-05-30T00:00:00","postcodeFull":"L10 2JQ","propertyType":"Semi-detached","oldOrNew":"Established","duration":"Freehold","paon":"122","saon":"","street":"MOSTYN AVENUE","locality":"OLD ROAN","townOrCity":"LIVERPOOL","district":"SEFTON","county":"MERSEYSIDE","ppdCategoryType":"Standard","recordStatus":"Addition","latitude":53.483022,"longitude":-2.947368,"postcodeStart":"L10 2","postcode":["L10","2JQ"]}
{"price":105000,"dateOfTransfer":"2003-09-12T00:00:00","postcodeFull":"L10 2JN","propertyType":"Semi-detached","oldOrNew":"Established","duration":"Freehold","paon":"46","saon":"","street":"AINTREE LANE","locality":"LIVERPOOL","townOrCity":"LIVERPOOL","district":"SEFTON","county":"MERSEYSIDE","ppdCategoryType":"Standard","recordStatus":"Addition","latitude":53.48353,"longitude":-2.946807,"postcodeStart":"L10 2","postcode":["L10","2JN"]}
{"price":136000,"dateOfTransfer":"2003-10-17T00:00:00","postcodeFull":"L10 2LA","propertyType":"Detached","oldOrNew":"Established","duration":"Freehold","paon":"14","saon":"","street":"MALVERN GROVE","locality":"LIVERPOOL","townOrCity":"LIVERPOOL","district":"SEFTON","county":"MERSEYSIDE","ppdCategoryType":"Standard","recordStatus":"Addition","latitude":53.481687,"longitude":-2.944505,"postcodeStart":"L10 2","postcode":["L10","2LA"]}
{"price":134550,"dateOfTransfer":"2003-08-29T00:00:00","postcodeFull":"L10 2JW","propertyType":"Semi-detached","oldOrNew":"Established","duration":"Freehold","paon":"114","saon":"","street":"AINTREE LANE","locality":"LIVERPOOL","townOrCity":"LIVERPOOL","district":"SEFTON","county":"MERSEYSIDE","ppdCategoryType":"Standard","recordStatus":"Addition","latitude":53.48218,"longitude":-2.944712,"postcodeStart":"L10 2","postcode":["L10","2JW"]}
{"price":120000,"dateOfTransfer":"2003-01-31T00:00:00","postcodeFull":"L10 2JW","propertyType":"Semi-detached","oldOrNew":"Established","duration":"Freehold","paon":"110","saon":"","street":"AINTREE LANE","locality":"LIVERPOOL","townOrCity":"LIVERPOOL","district":"SEFTON","county":"MERSEYSIDE","ppdCategoryType":"Standard","recordStatus":"Addition","latitude":53.48218,"longitude":-2.944712,"postcodeStart":"L10 2","postcode":["L10","2JW"]}
{"price":149950,"dateOfTransfer":"2003-07-25T00:00:00","postcodeFull":"L10 2JT","propertyType":"Semi-detached","oldOrNew":"Established","duration":"Freehold","paon":"24","saon":"","street":"STONEYHURST AVENUE","locality":"LIVERPOOL","townOrCity":"LIVERPOOL","district":"SEFTON","county":"MERSEYSIDE","ppdCategoryType":"Standard","recordStatus":"Addition","latitude":53.484667,"longitude":-2.946214,"postcodeStart":"L10 2","postcode":["L10","2JT"]}
{"price":160000,"dateOfTransfer":"2004-08-06T00:00:00","postcodeFull":"L10 2JN","propertyType":"Semi-detached","oldOrNew":"Established","duration":"Freehold","paon":"54","saon":"","street":"AINTREE LANE","locality":"LIVERPOOL","townOrCity":"LIVERPOOL","district":"SEFTON","county":"MERSEYSIDE","ppdCategoryType":"Standard","recordStatus":"Addition","latitude":53.48353,"longitude":-2.946807,"postcodeStart":"L10 2","postcode":["L10","2JN"]}
{"price":171500,"dateOfTransfer":"2004-10-01T00:00:00","postcodeFull":"L10 2JU","propertyType":"Semi-detached","oldOrNew":"Established","duration":"Freehold","paon":"6","saon":"","street":"DARTMOUTH AVENUE","locality":"LIVERPOOL","townOrCity":"LIVERPOOL","district":"SEFTON","county":"MERSEYSIDE","ppdCategoryType":"Standard","recordStatus":"Addition","latitude":53.483233,"longitude":-2.94454,"postcodeStart":"L10 2","postcode":["L10","2JU"]}
{"price":195000,"dateOfTransfer":"2004-11-26T00:00:00","postcodeFull":"L10 2LE","propertyType":"Detached","oldOrNew":"Established","duration":"Freehold","paon":"4","saon":"","street":"SHREWSBURY AVENUE","locality":"OLD ROAN","townOrCity":"LIVERPOOL","district":"SEFTON","county":"MERSEYSIDE","ppdCategoryType":"Standard","recordStatus":"Addition","latitude":53.484086,"longitude":-2.943549,"postcodeStart":"L10 2","postcode":["L10","2LE"]}
{"price":134000,"dateOfTransfer":"2004-06-11T00:00:00","postcodeFull":"L10 2JY","propertyType":"Detached","oldOrNew":"Established","duration":"Freehold","paon":"31","saon":"","street":"ETON DRIVE","locality":"LIVERPOOL","townOrCity":"LIVERPOOL","district":"SEFTON","county":"MERSEYSIDE","ppdCategoryType":"Standard","recordStatus":"Addition","latitude":53.482962,"longitude":-2.943539,"postcodeStart":"L10 2","postcode":["L10","2JY"]}
{"price":177500,"dateOfTransfer":"2004-12-15T00:00:00","postcodeFull":"L10 2JJ","propertyType":"Semi-detached","oldOrNew":"Established","duration":"Freehold","paon":"69","saon":"","street":"AINTREE LANE","locality":"LIVERPOOL","townOrCity":"LIVERPOOL","district":"SEFTON","county":"MERSEYSIDE","ppdCategoryType":"Standard","recordStatus":"Addition","latitude":53.483597,"longitude":-2.94619,"postcodeStart":"L10 2","postcode":["L10","2JJ"]}
{"price":180000,"dateOfTransfer":"2004-11-05T00:00:00","postcodeFull":"L10 2LQ","propertyType":"Semi-detached","oldOrNew":"Established","duration":"Freehold","paon":"62","saon":"","street":"ALTWAY","locality":"LIVERPOOL","townOrCity":"LIVERPOOL","district":"SEFTON","county":"MERSEYSIDE","ppdCategoryType":"Standard","recordStatus":"Addition","latitude":53.483839,"longitude":-2.940695,"postcodeStart":"L10 2","postcode":["L10","2LQ"]}
{"price":110000,"dateOfTransfer":"2004-03-19T00:00:00","postcodeFull":"L10 2LQ","propertyType":"Semi-detached","oldOrNew":"Established","duration":"Freehold","paon":"88","saon":"","street":"ALTWAY","locality":"LIVERPOOL","townOrCity":"LIVERPOOL","district":"SEFTON","county":"MERSEYSIDE","ppdCategoryType":"Standard","recordStatus":"Addition","latitude":53.483839,"longitude":-2.940695,"postcodeStart":"L10 2","postcode":["L10","2LQ"]}
{"price":129950,"dateOfTransfer":"2004-03-04T00:00:00","postcodeFull":"L10 2JX","propertyType":"Semi-detached","oldOrNew":"Established","duration":"Freehold","paon":"5","saon":"","street":"REPTON GROVE","locality":"LIVERPOOL","townOrCity":"LIVERPOOL","district":"SEFTON","county":"MERSEYSIDE","ppdCategoryType":"Standard","recordStatus":"Addition","latitude":53.481979,"longitude":-2.94516,"postcodeStart":"L10 2","postcode":["L10","2JX"]}
{"price":136000,"dateOfTransfer":"2004-07-30T00:00:00","postcodeFull":"L10 2JQ","propertyType":"Semi-detached","oldOrNew":"Established","duration":"Freehold","paon":"84","saon":"","street":"MOSTYN AVENUE","locality":"OLD ROAN","townOrCity":"LIVERPOOL","district":"SEFTON","county":"MERSEYSIDE","ppdCategoryType":"Standard","recordStatus":"Addition","latitude":53.483022,"longitude":-2.947368,"postcodeStart":"L10 2","postcode":["L10","2JQ"]}
{"price":167500,"dateOfTransfer":"2004-10-28T00:00:00","postcodeFull":"L10 2LE","propertyType":"Terraced","oldOrNew":"Established","duration":"Freehold","paon":"6","saon":"","street":"SHREWSBURY AVENUE","locality":"OLD ROAN","townOrCity":"LIVERPOOL","district":"SEFTON","county":"MERSEYSIDE","ppdCategoryType":"Standard","recordStatus":"Addition","latitude":53.484086,"longitude":-2.943549,"postcodeStart":"L10 2","postcode":["L10","2LE"]}
{"price":135000,"dateOfTransfer":"2004-03-26T00:00:00","postcodeFull":"L10 2JG","propertyType":"Semi-detached","oldOrNew":"Established","duration":"Freehold","paon":"56","saon":"","street":"MOSTYN AVENUE","locality":"OLD ROAN","townOrCity":"LIVERPOOL","district":"SEFTON","county":"MERSEYSIDE","ppdCategoryType":"Standard","recordStatus":"Addition","latitude":53.48445,"longitude":-2.949751,"postcodeStart":"L10 2","postcode":["L10","2JG"]}
{"price":140000,"dateOfTransfer":"2004-02-06T00:00:00","postcodeFull":"L10 2JU","propertyType":"Semi-detached","oldOrNew":"Established","duration":"Freehold","paon":"14","saon":"","street":"DARTMOUTH AVENUE","locality":"LIVERPOOL","townOrCity":"LIVERPOOL","district":"SEFTON","county":"MERSEYSIDE","ppdCategoryType":"Standard","recordStatus":"Addition","latitude":53.483233,"longitude":-2.94454,"postcodeStart":"L10 2","postcode":["L10","2JU"]}
{"price":165000,"dateOfTransfer":"2004-09-01T00:00:00","postcodeFull":"L10 2JS","propertyType":"Semi-detached","oldOrNew":"Established","duration":"Freehold","paon":"33","saon":"","street":"STONEYHURST AVENUE","locality":"LIVERPOOL","townOrCity":"LIVERPOOL","district":"SEFTON","county":"MERSEYSIDE","ppdCategoryType":"Standard","recordStatus":"Addition","latitude":53.484582,"longitude":-2.94674,"postcodeStart":"L10 2","postcode":["L10","2JS"]}
{"price":130000,"dateOfTransfer":"2004-04-16T00:00:00","postcodeFull":"L10 2JT","propertyType":"Semi-detached","oldOrNew":"Established","duration":"Freehold","paon":"26","saon":"","street":"STONEYHURST AVENUE","locality":"LIVERPOOL","townOrCity":"LIVERPOOL","district":"SEFTON","county":"MERSEYSIDE","ppdCategoryType":"Standard","recordStatus":"Addition","latitude":53.484667,"longitude":-2.946214,"postcodeStart":"L10 2","postcode":["L10","2JT"]}
{"price":121000,"dateOfTransfer":"2004-01-30T00:00:00","postcodeFull":"L10 2JF","propertyType":"Semi-detached","oldOrNew":"Established","duration":"Freehold","paon":"49","saon":"","street":"MOSTYN AVENUE","locality":"OLD ROAN","townOrCity":"LIVERPOOL","district":"SEFTON","county":"MERSEYSIDE","ppdCategoryType":"Standard","recordStatus":"Addition","latitude":53.483293,"longitude":-2.947193,"postcodeStart":"L10 2","postcode":["L10","2JF"]}
{"price":163000,"dateOfTransfer":"2004-07-14T00:00:00","postcodeFull":"L10 2JY","propertyType":"Semi-detached","oldOrNew":"Established","duration":"Freehold","paon":"25","saon":"","street":"ETON DRIVE","locality":"LIVERPOOL","townOrCity":"LIVERPOOL","district":"SEFTON","county":"MERSEYSIDE","ppdCategoryType":"Standard","recordStatus":"Addition","latitude":53.482962,"longitude":-2.943539,"postcodeStart":"L10 2","postcode":["L10","2JY"]}
{"price":145000,"dateOfTransfer":"2004-07-30T00:00:00","postcodeFull":"L10 2JZ","propertyType":"Semi-detached","oldOrNew":"Established","duration":"Freehold","paon":"6","saon":"","street":"ETON DRIVE","locality":"LIVERPOOL","townOrCity":"LIVERPOOL","district":"SEFTON","county":"MERSEYSIDE","ppdCategoryType":"Standard","recordStatus":"Addition","latitude":53.482921,"longitude":-2.943011,"postcodeStart":"L10 2","postcode":["L10","2JZ"]}
{"price":139000,"dateOfTransfer":"2004-09-03T00:00:00","postcodeFull":"L10 2JU","propertyType":"Semi-detached","oldOrNew":"Established","duration":"Freehold","paon":"22","saon":"","street":"DARTMOUTH AVENUE","locality":"LIVERPOOL","townOrCity":"LIVERPOOL","district":"SEFTON","county":"MERSEYSIDE","ppdCategoryType":"Standard","recordStatus":"Addition","latitude":53.483233,"longitude":-2.94454,"postcodeStart":"L10 2","postcode":["L10","2JU"]}
{"price":182950,"dateOfTransfer":"2004-09-03T00:00:00","postcodeFull":"L10 2JP","propertyType":"Semi-detached","oldOrNew":"Established","duration":"Freehold","paon":"3","saon":"","street":"ELLESMERE DRIVE","locality":"LIVERPOOL","townOrCity":"LIVERPOOL","district":"SEFTON","county":"MERSEYSIDE","ppdCategoryType":"Standard","recordStatus":"Addition","latitude":53.484306,"longitude":-2.945257,"postcodeStart":"L10 2","postcode":["L10","2JP"]}
{"price":134950,"dateOfTransfer":"2004-01-16T00:00:00","postcodeFull":"L10 2JL","propertyType":"Semi-detached","oldOrNew":"Established","duration":"Freehold","paon":"18","saon":"","street":"AINTREE LANE","locality":"LIVERPOOL","townOrCity":"LIVERPOOL","district":"SEFTON","county":"MERSEYSIDE","ppdCategoryType":"Standard","recordStatus":"Addition","latitude":53.484762,"longitude":-2.948671,"postcodeStart":"L10 2","postcode":["L10","2JL"]}
{"price":149950,"dateOfTransfer":"2004-07-16T00:00:00","postcodeFull":"L10 2LD","propertyType":"Semi-detached","oldOrNew":"Established","duration":"Freehold","paon":"43","saon":"","street":"SHREWSBURY AVENUE","locality":"OLD ROAN","townOrCity":"LIVERPOOL","district":"SEFTON","county":"MERSEYSIDE","ppdCategoryType":"Standard","recordStatus":"Addition","latitude":53.483797,"longitude":-2.941403,"postcodeStart":"L10 2","postcode":["L10","2LD"]}
{"price":157450,"dateOfTransfer":"2004-11-12T00:00:00","postcodeFull":"L10 2JL","propertyType":"Semi-detached","oldOrNew":"Established","duration":"Freehold","paon":"28","saon":"","street":"AINTREE LANE","locality":"LIVERPOOL","townOrCity":"LIVERPOOL","district":"SEFTON","county":"MERSEYSIDE","ppdCategoryType":"Standard","recordStatus":"Addition","latitude":53.484762,"longitude":-2.948671,"postcodeStart":"L10 2","postcode":["L10","2JL"]}
{"price":130000,"dateOfTransfer":"2004-11-10T00:00:00","postcodeFull":"L10 2JU","propertyType":"Semi-detached","oldOrNew":"Established","duration":"Freehold","paon":"21","saon":"","street":"DARTMOUTH AVENUE","locality":"LIVERPOOL","townOrCity":"LIVERPOOL","district":"SEFTON","county":"MERSEYSIDE","ppdCategoryType":"Standard","recordStatus":"Addition","latitude":53.483233,"longitude":-2.94454,"postcodeStart":"L10 2","postcode":["L10","2JU"]}
{"price":139950,"dateOfTransfer":"2004-06-11T00:00:00","postcodeFull":"L10 2JF","propertyType":"Semi-detached","oldOrNew":"Established","duration":"Freehold","paon":"81","saon":"","street":"MOSTYN AVENUE","locality":"OLD ROAN","townOrCity":"LIVERPOOL","district":"SEFTON","county":"MERSEYSIDE","ppdCategoryType":"Standard","recordStatus":"Addition","latitude":53.483293,"longitude":-2.947193,"postcodeStart":"L10 2","postcode":["L10","2JF"]}
{"price":144000,"dateOfTransfer":"2005-11-09T00:00:00","postcodeFull":"L10 2JQ","propertyType":"Semi-detached","oldOrNew":"Established","duration":"Freehold","paon":"98","saon":"","street":"MOSTYN AVENUE","locality":"OLD ROAN","townOrCity":"LIVERPOOL","district":"SEFTON","county":"MERSEYSIDE","ppdCategoryType":"Standard","recordStatus":"Addition","latitude":53.483022,"longitude":-2.947368,"postcodeStart":"L10 2","postcode":["L10","2JQ"]}
{"price":153000,"dateOfTransfer":"2005-09-01T00:00:00","postcodeFull":"L10 2LB","propertyType":"Semi-detached","oldOrNew":"Established","duration":"Freehold","paon":"11","saon":"","street":"CRANWELL CLOSE","locality":"LIVERPOOL","townOrCity":"LIVERPOOL","district":"SEFTON","county":"MERSEYSIDE","ppdCategoryType":"Standard","recordStatus":"Addition","latitude":53.483488,"longitude":-2.944093,"postcodeStart":"L10 2","postcode":["L10","2LB"]}
{"price":159000,"dateOfTransfer":"2005-11-25T00:00:00","postcodeFull":"L10 2JE","propertyType":"Semi-detached","oldOrNew":"Established","duration":"Freehold","paon":"19","saon":"","street":"MOSTYN AVENUE","locality":"OLD ROAN","townOrCity":"LIVERPOOL","district":"SEFTON","county":"MERSEYSIDE","ppdCategoryType":"Standard","recordStatus":"Addition","latitude":53.48442,"longitude":-2.948982,"postcodeStart":"L10 2","postcode":["L10","2JE"]}
{"price":179950,"dateOfTransfer":"2005-04-28T00:00:00","postcodeFull":"L10 2JL","propertyType":"Semi-detached","oldOrNew":"Established","duration":"Freehold","paon":"10","saon":"","street":"AINTREE LANE","locality":"LIVERPOOL","townOrCity":"LIVERPOOL","district":"SEFTON","county":"MERSEYSIDE","ppdCategoryType":"Standard","recordStatus":"Addition","latitude":53.484762,"longitude":-2.948671,"postcodeStart":"L10 2","postcode":["L10","2JL"]}
{"price":185000,"dateOfTransfer":"2005-10-21T00:00:00","postcodeFull":"L10 2LQ","propertyType":"Semi-detached","oldOrNew":"Established","duration":"Freehold","paon":"68","saon":"","street":"ALTWAY","locality":"LIVERPOOL","townOrCity":"LIVERPOOL","district":"SEFTON","county":"MERSEYSIDE","ppdCategoryType":"Standard","recordStatus":"Addition","latitude":53.483839,"longitude":-2.940695,"postcodeStart":"L10 2","postcode":["L10","2LQ"]}
{"price":162500,"dateOfTransfer":"2005-09-30T00:00:00","postcodeFull":"L10 2JF","propertyType":"Semi-detached","oldOrNew":"Established","duration":"Freehold","paon":"41","saon":"","street":"MOSTYN AVENUE","locality":"OLD ROAN","townOrCity":"LIVERPOOL","district":"SEFTON","county":"MERSEYSIDE","ppdCategoryType":"Standard","recordStatus":"Addition","latitude":53.483293,"longitude":-2.947193,"postcodeStart":"L10 2","postcode":["L10","2JF"]}
{"price":149000,"dateOfTransfer":"2005-05-27T00:00:00","postcodeFull":"L10 2JX","propertyType":"Semi-detached","oldOrNew":"Established","duration":"Freehold","paon":"1","saon":"","street":"REPTON GROVE","locality":"LIVERPOOL","townOrCity":"LIVERPOOL","district":"SEFTON","county":"MERSEYSIDE","ppdCategoryType":"Standard","recordStatus":"Addition","latitude":53.481979,"longitude":-2.94516,"postcodeStart":"L10 2","postcode":["L10","2JX"]}
{"price":148000,"dateOfTransfer":"2005-08-26T00:00:00","postcodeFull":"L10 2JJ","propertyType":"Semi-detached","oldOrNew":"Established","duration":"Freehold","paon":"17","saon":"","street":"AINTREE LANE","locality":"LIVERPOOL","townOrCity":"LIVERPOOL","district":"SEFTON","county":"MERSEYSIDE","ppdCategoryType":"Standard","recordStatus":"Addition","latitude":53.483597,"longitude":-2.94619,"postcodeStart":"L10 2","postcode":["L10","2JJ"]}
{"price":162000,"dateOfTransfer":"2005-09-30T00:00:00","postcodeFull":"L10 2JY","propertyType":"Semi-detached","oldOrNew":"Established","duration":"Freehold","paon":"7","saon":"","street":"ETON DRIVE","locality":"LIVERPOOL","townOrCity":"LIVERPOOL","district":"SEFTON","county":"MERSEYSIDE","ppdCategoryType":"Standard","recordStatus":"Addition","latitude":53.482962,"longitude":-2.943539,"postcodeStart":"L10 2","postcode":["L10","2JY"]}
{"price":148000,"dateOfTransfer":"2006-01-13T00:00:00","postcodeFull":"L10 2JH","propertyType":"Semi-detached","oldOrNew":"Established","duration":"Freehold","paon":"8","saon":"","street":"WELLINGTON CLOSE","locality":"LIVERPOOL","townOrCity":"LIVERPOOL","district":"SEFTON","county":"MERSEYSIDE","ppdCategoryType":"Standard","recordStatus":"Addition","latitude":53.48494,"longitude":-2.945783,"postcodeStart":"L10 2","postcode":["L10","2JH"]}
{"price":190500,"dateOfTransfer":"2006-05-31T00:00:00","postcodeFull":"L10 2LD","propertyType":"Semi-detached","oldOrNew":"Established","duration":"Freehold","paon":"19","saon":"","street":"SHREWSBURY AVENUE","locality":"OLD ROAN","townOrCity":"LIVERPOOL","district":"SEFTON","county":"MERSEYSIDE","ppdCategoryType":"Standard","recordStatus":"Addition","latitude":53.483797,"longitude":-2.941403,"postcodeStart":"L10 2","postcode":["L10","2LD"]}
{"price":125000,"dateOfTransfer":"2006-01-26T00:00:00","postcodeFull":"L10 2JW","propertyType":"Semi-detached","oldOrNew":"Established","duration":"Freehold","paon":"90","saon":"","street":"AINTREE LANE","locality":"LIVERPOOL","townOrCity":"LIVERPOOL","district":"SEFTON","county":"MERSEYSIDE","ppdCategoryType":"Standard","recordStatus":"Addition","latitude":53.48218,"longitude":-2.944712,"postcodeStart":"L10 2","postcode":["L10","2JW"]}
{"price":172500,"dateOfTransfer":"2006-11-13T00:00:00","postcodeFull":"L10 2JN","propertyType":"Semi-detached","oldOrNew":"Established","duration":"Freehold","paon":"44","saon":"","street":"AINTREE LANE","locality":"LIVERPOOL","townOrCity":"LIVERPOOL","district":"SEFTON","county":"MERSEYSIDE","ppdCategoryType":"Standard","recordStatus":"Addition","latitude":53.48353,"longitude":-2.946807,"postcodeStart":"L10 2","postcode":["L10","2JN"]}
{"price":167500,"dateOfTransfer":"2006-06-16T00:00:00","postcodeFull":"L10 2JN","propertyType":"Semi-detached","oldOrNew":"Established","duration":"Freehold","paon":"70","saon":"","street":"AINTREE LANE","locality":"LIVERPOOL","townOrCity":"LIVERPOOL","district":"SEFTON","county":"MERSEYSIDE","ppdCategoryType":"Standard","recordStatus":"Addition","latitude":53.48353,"longitude":-2.946807,"postcodeStart":"L10 2","postcode":["L10","2JN"]}
{"price":156750,"dateOfTransfer":"2006-12-19T00:00:00","postcodeFull":"L10 2JE","propertyType":"Semi-detached","oldOrNew":"Established","duration":"Freehold","paon":"11","saon":"","street":"MOSTYN AVENUE","locality":"OLD ROAN","townOrCity":"LIVERPOOL","district":"SEFTON","county":"MERSEYSIDE","ppdCategoryType":"Standard","recordStatus":"Addition","latitude":53.48442,"longitude":-2.948982,"postcodeStart":"L10 2","postcode":["L10","2JE"]}
{"price":130000,"dateOfTransfer":"2006-04-21T00:00:00","postcodeFull":"L10 2LQ","propertyType":"Semi-detached","oldOrNew":"Established","duration":"Freehold","paon":"72","saon":"","street":"ALTWAY","locality":"LIVERPOOL","townOrCity":"LIVERPOOL","district":"SEFTON","county":"MERSEYSIDE","ppdCategoryType":"Standard","recordStatus":"Addition","latitude":53.483839,"longitude":-2.940695,"postcodeStart":"L10 2","postcode":["L10","2LQ"]}
{"price":158500,"dateOfTransfer":"2006-09-15T00:00:00","postcodeFull":"L10 2JT","propertyType":"Semi-detached","oldOrNew":"Established","duration":"Freehold","paon":"14","saon":"","street":"STONEYHURST AVENUE","locality":"LIVERPOOL","townOrCity":"LIVERPOOL","district":"SEFTON","county":"MERSEYSIDE","ppdCategoryType":"Standard","recordStatus":"Addition","latitude":53.484667,"longitude":-2.946214,"postcodeStart":"L10 2","postcode":["L10","2JT"]}
{"price":166000,"dateOfTransfer":"2006-12-14T00:00:00","postcodeFull":"L10 2JQ","propertyType":"Semi-detached","oldOrNew":"Established","duration":"Freehold","paon":"124","saon":"","street":"MOSTYN AVENUE","locality":"OLD ROAN","townOrCity":"LIVERPOOL","district":"SEFTON","county":"MERSEYSIDE","ppdCategoryType":"Standard","recordStatus":"Addition","latitude":53.483022,"longitude":-2.947368,"postcodeStart":"L10 2","postcode":["L10","2JQ"]}
{"price":165000,"dateOfTransfer":"2006-06-09T00:00:00","postcodeFull":"L10 2LD","propertyType":"Semi-detached","oldOrNew":"Established","duration":"Freehold","paon":"9","saon":"","street":"SHREWSBURY AVENUE","locality":"OLD ROAN","townOrCity":"LIVERPOOL","district":"SEFTON","county":"MERSEYSIDE","ppdCategoryType":"Standard","recordStatus":"Addition","latitude":53.483797,"longitude":-2.941403,"postcodeStart":"L10 2","postcode":["L10","2LD"]}
{"price":177500,"dateOfTransfer":"2006-03-15T00:00:00","postcodeFull":"L10 2LG","propertyType":"Semi-detached","oldOrNew":"Established","duration":"Freehold","paon":"8","saon":"","street":"ALTWAY","locality":"LIVERPOOL","townOrCity":"LIVERPOOL","district":"SEFTON","county":"MERSEYSIDE","ppdCategoryType":"Standard","recordStatus":"Addition","latitude":53.485021,"longitude":-2.944579,"postcodeStart":"L10 2","postcode":["L10","2LG"]}
{"price":168000,"dateOfTransfer":"2007-10-12T00:00:00","postcodeFull":"L10 2JU","propertyType":"Semi-detached","oldOrNew":"Established","duration":"Freehold","paon":"9","saon":"","street":"DARTMOUTH AVENUE","locality":"LIVERPOOL","townOrCity":"LIVERPOOL","district":"SEFTON","county":"MERSEYSIDE","ppdCategoryType":"Standard","recordStatus":"Addition","latitude":53.483233,"longitude":-2.94454,"postcodeStart":"L10 2","postcode":["L10","2JU"]}
{"price":184000,"dateOfTransfer":"2007-10-19T00:00:00","postcodeFull":"L10 2LQ","propertyType":"Semi-detached","oldOrNew":"Established","duration":"Freehold","paon":"62","saon":"","street":"ALTWAY","locality":"LIVERPOOL","townOrCity":"LIVERPOOL","district":"SEFTON","county":"MERSEYSIDE","ppdCategoryType":"Standard","recordStatus":"Addition","latitude":53.483839,"longitude":-2.940695,"postcodeStart":"L10 2","postcode":["L10","2LQ"]}
{"price":172000,"dateOfTransfer":"2007-09-21T00:00:00","postcodeFull":"L10 2JE","propertyType":"Semi-detached","oldOrNew":"Established","duration":"Freehold","paon":"3","saon":"","street":"MOSTYN AVENUE","locality":"OLD ROAN","townOrCity":"LIVERPOOL","district":"LIVERPOOL","county":"MERSEYSIDE","ppdCategoryType":"Standard","recordStatus":"Addition","latitude":53.48442,"longitude":-2.948982,"postcodeStart":"L10 2","postcode":["L10","2JE"]}
{"price":159000,"dateOfTransfer":"2007-10-19T00:00:00","postcodeFull":"L10 2JY","propertyType":"Semi-detached","oldOrNew":"Established","duration":"Freehold","paon":"3","saon":"","street":"ETON DRIVE","locality":"LIVERPOOL","townOrCity":"LIVERPOOL","district":"SEFTON","county":"MERSEYSIDE","ppdCategoryType":"Standard","recordStatus":"Addition","latitude":53.482962,"longitude":-2.943539,"postcodeStart":"L10 2","postcode":["L10","2JY"]}
{"price":183000,"dateOfTransfer":"2007-05-17T00:00:00","postcodeFull":"L10 2JJ","propertyType":"Semi-detached","oldOrNew":"Established","duration":"Freehold","paon":"47","saon":"","street":"AINTREE LANE","locality":"LIVERPOOL","townOrCity":"LIVERPOOL","district":"SEFTON","county":"MERSEYSIDE","ppdCategoryType":"Standard","recordStatus":"Addition","latitude":53.483597,"longitude":-2.94619,"postcodeStart":"L10 2","postcode":["L10","2JJ"]}
{"price":165000,"dateOfTransfer":"2007-10-16T00:00:00","postcodeFull":"L10 2JZ","propertyType":"Semi-detached","oldOrNew":"Established","duration":"Freehold","paon":"16","saon":"","street":"ETON DRIVE","locality":"LIVERPOOL","townOrCity":"LIVERPOOL","district":"SEFTON","county":"MERSEYSIDE","ppdCategoryType":"Standard","recordStatus":"Addition","latitude":53.482921,"longitude":-2.943011,"postcodeStart":"L10 2","postcode":["L10","2JZ"]}
{"price":172000,"dateOfTransfer":"2007-01-12T00:00:00","postcodeFull":"L10 2JF","propertyType":"Semi-detached","oldOrNew":"Established","duration":"Freehold","paon":"41","saon":"","street":"MOSTYN AVENUE","locality":"OLD ROAN","townOrCity":"LIVERPOOL","district":"SEFTON","county":"MERSEYSIDE","ppdCategoryType":"Standard","recordStatus":"Addition","latitude":53.483293,"longitude":-2.947193,"postcodeStart":"L10 2","postcode":["L10","2JF"]}
{"price":165000,"dateOfTransfer":"2007-09-14T00:00:00","postcodeFull":"L10 2JY","propertyType":"Semi-detached","oldOrNew":"Established","duration":"Freehold","paon":"9","saon":"","street":"ETON DRIVE","locality":"LIVERPOOL","townOrCity":"LIVERPOOL","district":"SEFTON","county":"MERSEYSIDE","ppdCategoryType":"Standard","recordStatus":"Addition","latitude":53.482962,"longitude":-2.943539,"postcodeStart":"L10 2","postcode":["L10","2JY"]}
{"price":187500,"dateOfTransfer":"2007-05-04T00:00:00","postcodeFull":"L10 2JH","propertyType":"Semi-detached","oldOrNew":"Established","duration":"Freehold","paon":"8","saon":"","street":"WELLINGTON CLOSE","locality":"LIVERPOOL","townOrCity":"LIVERPOOL","district":"SEFTON","county":"MERSEYSIDE","ppdCategoryType":"Standard","recordStatus":"Addition","latitude":53.48494,"longitude":-2.945783,"postcodeStart":"L10 2","postcode":["L10","2JH"]}
{"price":175000,"dateOfTransfer":"2007-12-14T00:00:00","postcodeFull":"L10 2JF","propertyType":"Semi-detached","oldOrNew":"Established","duration":"Freehold","paon":"87","saon":"","street":"MOSTYN AVENUE","locality":"OLD ROAN","townOrCity":"LIVERPOOL","district":"SEFTON","county":"MERSEYSIDE","ppdCategoryType":"Standard","recordStatus":"Addition","latitude":53.483293,"longitude":-2.947193,"postcodeStart":"L10 2","postcode":["L10","2JF"]}
{"price":179000,"dateOfTransfer":"2007-12-14T00:00:00","postcodeFull":"L10 2LQ","propertyType":"Semi-detached","oldOrNew":"Established","duration":"Freehold","paon":"82","saon":"","street":"ALTWAY","locality":"LIVERPOOL","townOrCity":"LIVERPOOL","district":"SEFTON","county":"MERSEYSIDE","ppdCategoryType":"Standard","recordStatus":"Addition","latitude":53.483839,"longitude":-2.940695,"postcodeStart":"L10 2","postcode":["L10","2LQ"]}
{"price":190000,"dateOfTransfer":"2007-08-24T00:00:00","postcodeFull":"L10 2JT","propertyType":"Semi-detached","oldOrNew":"Established","duration":"Freehold","paon":"4","saon":"","street":"STONEYHURST AVENUE","locality":"LIVERPOOL","townOrCity":"LIVERPOOL","district":"SEFTON","county":"MERSEYSIDE","ppdCategoryType":"Standard","recordStatus":"Addition","latitude":53.484667,"longitude":-2.946214,"postcodeStart":"L10 2","postcode":["L10","2JT"]}
{"price":172000,"dateOfTransfer":"2008-03-04T00:00:00","postcodeFull":"L10 2JF","propertyType":"Semi-detached","oldOrNew":"Established","duration":"Freehold","paon":"59","saon":"","street":"MOSTYN AVENUE","locality":"OLD ROAN","townOrCity":"LIVERPOOL","district":"SEFTON","county":"MERSEYSIDE","ppdCategoryType":"Standard","recordStatus":"Addition","latitude":53.483293,"longitude":-2.947193,"postcodeStart":"L10 2","postcode":["L10","2JF"]}
{"price":143500,"dateOfTransfer":"2008-06-27T00:00:00","postcodeFull":"L10 2JJ","propertyType":"Semi-detached","oldOrNew":"Established","duration":"Freehold","paon":"35","saon":"","street":"AINTREE LANE","locality":"LIVERPOOL","townOrCity":"LIVERPOOL","district":"SEFTON","county":"MERSEYSIDE","ppdCategoryType":"Standard","recordStatus":"Addition","latitude":53.483597,"longitude":-2.94619,"postcodeStart":"L10 2","postcode":["L10","2JJ"]}
{"price":160000,"dateOfTransfer":"2008-03-13T00:00:00","postcodeFull":"L10 2JF","propertyType":"Semi-detached","oldOrNew":"Established","duration":"Freehold","paon":"83","saon":"","street":"MOSTYN AVENUE","locality":"OLD ROAN","townOrCity":"LIVERPOOL","district":"SEFTON","county":"MERSEYSIDE","ppdCategoryType":"Standard","recordStatus":"Addition","latitude":53.483293,"longitude":-2.947193,"postcodeStart":"L10 2","postcode":["L10","2JF"]}
{"price":165000,"dateOfTransfer":"2008-10-09T00:00:00","postcodeFull":"L10 2JS","propertyType":"Semi-detached","oldOrNew":"Established","duration":"Freehold","paon":"19","saon":"","street":"STONEYHURST AVENUE","locality":"LIVERPOOL","townOrCity":"LIVERPOOL","district":"SEFTON","county":"MERSEYSIDE","ppdCategoryType":"Standard","recordStatus":"Addition","latitude":53.484582,"longitude":-2.94674,"postcodeStart":"L10 2","postcode":["L10","2JS"]}
{"price":179950,"dateOfTransfer":"2008-08-15T00:00:00","postcodeFull":"L10 2JQ","propertyType":"Semi-detached","oldOrNew":"Established","duration":"Freehold","paon":"124","saon":"","street":"MOSTYN AVENUE","locality":"OLD ROAN","townOrCity":"LIVERPOOL","district":"SEFTON","county":"MERSEYSIDE","ppdCategoryType":"Standard","recordStatus":"Addition","latitude":53.483022,"longitude":-2.947368,"postcodeStart":"L10 2","postcode":["L10","2JQ"]}
{"price":215000,"dateOfTransfer":"2008-03-04T00:00:00","postcodeFull":"L10 2JU","propertyType":"Semi-detached","oldOrNew":"Established","duration":"Freehold","paon":"19","saon":"","street":"DARTMOUTH AVENUE","locality":"LIVERPOOL","townOrCity":"LIVERPOOL","district":"SEFTON","county":"MERSEYSIDE","ppdCategoryType":"Standard","recordStatus":"Addition","latitude":53.483233,"longitude":-2.94454,"postcodeStart":"L10 2","postcode":["L10","2JU"]}
{"price":150000,"dateOfTransfer":"2008-11-03T00:00:00","postcodeFull":"L10 2JN","propertyType":"Semi-detached","oldOrNew":"Established","duration":"Freehold","paon":"80","saon":"","street":"AINTREE LANE","locality":"LIVERPOOL","townOrCity":"LIVERPOOL","district":"SEFTON","county":"MERSEYSIDE","ppdCategoryType":"Standard","recordStatus":"Addition","latitude":53.48353,"longitude":-2.946807,"postcodeStart":"L10 2","postcode":["L10","2JN"]}
{"price":161500,"dateOfTransfer":"2008-10-09T00:00:00","postcodeFull":"L10 2LG","propertyType":"Semi-detached","oldOrNew":"Established","duration":"Freehold","paon":"50B","saon":"","street":"ALTWAY","locality":"LIVERPOOL","townOrCity":"LIVERPOOL","district":"SEFTON","county":"MERSEYSIDE","ppdCategoryType":"Standard","recordStatus":"Addition","latitude":53.485021,"longitude":-2.944579,"postcodeStart":"L10 2","postcode":["L10","2LG"]}
{"price":175000,"dateOfTransfer":"2008-02-04T00:00:00","postcodeFull":"L10 2JT","propertyType":"Terraced","oldOrNew":"Established","duration":"Freehold","paon":"20","saon":"","street":"STONEYHURST AVENUE","locality":"LIVERPOOL","townOrCity":"LIVERPOOL","district":"SEFTON","county":"MERSEYSIDE","ppdCategoryType":"Standard","recordStatus":"Addition","latitude":53.484667,"longitude":-2.946214,"postcodeStart":"L10 2","postcode":["L10","2JT"]}
{"price":152500,"dateOfTransfer":"2008-07-18T00:00:00","postcodeFull":"L10 2JL","propertyType":"Semi-detached","oldOrNew":"Established","duration":"Freehold","paon":"8","saon":"","street":"AINTREE LANE","locality":"LIVERPOOL","townOrCity":"LIVERPOOL","district":"SEFTON","county":"MERSEYSIDE","ppdCategoryType":"Standard","recordStatus":"Addition","latitude":53.484762,"longitude":-2.948671,"postcodeStart":"L10 2","postcode":["L10","2JL"]}
{"price":169000,"dateOfTransfer":"2008-10-31T00:00:00","postcodeFull":"L10 2JU","propertyType":"Semi-detached","oldOrNew":"Established","duration":"Freehold","paon":"17","saon":"","street":"DARTMOUTH AVENUE","locality":"LIVERPOOL","townOrCity":"LIVERPOOL","district":"SEFTON","county":"MERSEYSIDE","ppdCategoryType":"Standard","recordStatus":"Addition","latitude":53.483233,"longitude":-2.94454,"postcodeStart":"L10 2","postcode":["L10","2JU"]}
{"price":176000,"dateOfTransfer":"2008-01-04T00:00:00","postcodeFull":"L10 2JJ","propertyType":"Semi-detached","oldOrNew":"Established","duration":"Freehold","paon":"23","saon":"","street":"AINTREE LANE","locality":"LIVERPOOL","townOrCity":"LIVERPOOL","district":"SEFTON","county":"MERSEYSIDE","ppdCategoryType":"Standard","recordStatus":"Addition","latitude":53.483597,"longitude":-2.94619,"postcodeStart":"L10 2","postcode":["L10","2JJ"]}
{"price":135000,"dateOfTransfer":"2009-05-29T00:00:00","postcodeFull":"L10 2JZ","propertyType":"Semi-detached","oldOrNew":"Established","duration":"Freehold","paon":"10","saon":"","street":"ETON DRIVE","locality":"","townOrCity":"LIVERPOOL","district":"SEFTON","county":"MERSEYSIDE","ppdCategoryType":"Standard","recordStatus":"Addition","latitude":53.482921,"longitude":-2.943011,"postcodeStart":"L10 2","postcode":["L10","2JZ"]}
{"price":129000,"dateOfTransfer":"2009-12-22T00:00:00","postcodeFull":"L10 2JZ","propertyType":"Semi-detached","oldOrNew":"Established","duration":"Freehold","paon":"30","saon":"","street":"ETON DRIVE","locality":"","townOrCity":"LIVERPOOL","district":"SEFTON","county":"MERSEYSIDE","ppdCategoryType":"Standard","recordStatus":"Addition","latitude":53.482921,"longitude":-2.943011,"postcodeStart":"L10 2","postcode":["L10","2JZ"]}
{"price":165000,"dateOfTransfer":"2009-12-04T00:00:00","postcodeFull":"L10 2JS","propertyType":"Semi-detached","oldOrNew":"Established","duration":"Freehold","paon":"31","saon":"","street":"STONEYHURST AVENUE","locality":"","townOrCity":"LIVERPOOL","district":"SEFTON","county":"MERSEYSIDE","ppdCategoryType":"Standard","recordStatus":"Addition","latitude":53.484582,"longitude":-2.94674,"postcodeStart":"L10 2","postcode":["L10","2JS"]}
{"price":110000,"dateOfTransfer":"2009-09-30T00:00:00","postcodeFull":"L10 2JJ","propertyType":"Semi-detached","oldOrNew":"Established","duration":"Freehold","paon":"49","saon":"","street":"AINTREE LANE","locality":"","townOrCity":"LIVERPOOL","district":"SEFTON","county":"MERSEYSIDE","ppdCategoryType":"Standard","recordStatus":"Addition","latitude":53.483597,"longitude":-2.94619,"postcodeStart":"L10 2","postcode":["L10","2JJ"]}
{"price":143500,"dateOfTransfer":"2009-03-03T00:00:00","postcodeFull":"L10 2LD","propertyType":"Semi-detached","oldOrNew":"Established","duration":"Freehold","paon":"41","saon":"","street":"SHREWSBURY AVENUE","locality":"OLD ROAN","townOrCity":"LIVERPOOL","district":"SEFTON","county":"MERSEYSIDE","ppdCategoryType":"Standard","recordStatus":"Addition","latitude":53.483797,"longitude":-2.941403,"postcodeStart":"L10 2","postcode":["L10","2LD"]}
{"price":168000,"dateOfTransfer":"2009-01-09T00:00:00","postcodeFull":"L10 2LB","propertyType":"Semi-detached","oldOrNew":"Established","duration":"Freehold","paon":"9","saon":"","street":"CRANWELL CLOSE","locality":"LIVERPOOL","townOrCity":"LIVERPOOL","district":"SEFTON","county":"MERSEYSIDE","ppdCategoryType":"Standard","recordStatus":"Addition","latitude":53.483488,"longitude":-2.944093,"postcodeStart":"L10 2","postcode":["L10","2LB"]}
{"price":180000,"dateOfTransfer":"2009-09-21T00:00:00","postcodeFull":"L10 2JT","propertyType":"Semi-detached","oldOrNew":"Established","duration":"Freehold","paon":"10","saon":"","street":"STONEYHURST AVENUE","locality":"","townOrCity":"LIVERPOOL","district":"SEFTON","county":"MERSEYSIDE","ppdCategoryType":"Standard","recordStatus":"Addition","latitude":53.484667,"longitude":-2.946214,"postcodeStart":"L10 2","postcode":["L10","2JT"]}
{"price":125000,"dateOfTransfer":"2009-04-02T00:00:00","postcodeFull":"L10 2JT","propertyType":"Semi-detached","oldOrNew":"Established","duration":"Freehold","paon":"10","saon":"","street":"STONEYHURST AVENUE","locality":"","townOrCity":"LIVERPOOL","district":"SEFTON","county":"MERSEYSIDE","ppdCategoryType":"Standard","recordStatus":"Addition","latitude":53.484667,"longitude":-2.946214,"postcodeStart":"L10 2","postcode":["L10","2JT"]}
{"price":140000,"dateOfTransfer":"2009-09-11T00:00:00","postcodeFull":"L10 2JY","propertyType":"Semi-detached","oldOrNew":"Established","duration":"Freehold","paon":"11","saon":"","street":"ETON DRIVE","locality":"","townOrCity":"LIVERPOOL","district":"SEFTON","county":"MERSEYSIDE","ppdCategoryType":"Standard","recordStatus":"Addition","latitude":53.482962,"longitude":-2.943539,"postcodeStart":"L10 2","postcode":["L10","2JY"]}
{"price":166000,"dateOfTransfer":"2009-12-04T00:00:00","postcodeFull":"L10 2JJ","propertyType":"Semi-detached","oldOrNew":"Established","duration":"Freehold","paon":"21","saon":"","street":"AINTREE LANE","locality":"","townOrCity":"LIVERPOOL","district":"SEFTON","county":"MERSEYSIDE","ppdCategoryType":"Standard","recordStatus":"Addition","latitude":53.483597,"longitude":-2.94619,"postcodeStart":"L10 2","postcode":["L10","2JJ"]}
{"price":100000,"dateOfTransfer":"2009-06-12T00:00:00","postcodeFull":"L10 2LB","propertyType":"Semi-detached","oldOrNew":"Established","duration":"Freehold","paon":"7","saon":"","street":"CRANWELL CLOSE","locality":"","townOrCity":"LIVERPOOL","district":"SEFTON","county":"MERSEYSIDE","ppdCategoryType":"Standard","recordStatus":"Addition","latitude":53.483488,"longitude":-2.944093,"postcodeStart":"L10 2","postcode":["L10","2LB"]}
{"price":160000,"dateOfTransfer":"2009-08-28T00:00:00","postcodeFull":"L10 2JU","propertyType":"Semi-detached","oldOrNew":"Established","duration":"Freehold","paon":"6","saon":"","street":"DARTMOUTH AVENUE","locality":"","townOrCity":"LIVERPOOL","district":"SEFTON","county":"MERSEYSIDE","ppdCategoryType":"Standard","recordStatus":"Addition","latitude":53.483233,"longitude":-2.94454,"postcodeStart":"L10 2","postcode":["L10","2JU"]}
{"price":173000,"dateOfTransfer":"2009-07-10T00:00:00","postcodeFull":"L10 2JJ","propertyType":"Semi-detached","oldOrNew":"Established","duration":"Freehold","paon":"45","saon":"","street":"AINTREE LANE","locality":"","townOrCity":"LIVERPOOL","district":"SEFTON","county":"MERSEYSIDE","ppdCategoryType":"Standard","recordStatus":"Addition","latitude":53.483597,"longitude":-2.94619,"postcodeStart":"L10 2","postcode":["L10","2JJ"]}
{"price":180000,"dateOfTransfer":"2010-03-26T00:00:00","postcodeFull":"L10 2JJ","propertyType":"Semi-detached","oldOrNew":"Established","duration":"Freehold","paon":"63","saon":"","street":"AINTREE LANE","locality":"","townOrCity":"LIVERPOOL","district":"SEFTON","county":"MERSEYSIDE","ppdCategoryType":"Standard","recordStatus":"Addition","latitude":53.483597,"longitude":-2.94619,"postcodeStart":"L10 2","postcode":["L10","2JJ"]}
{"price":205000,"dateOfTransfer":"2010-10-08T00:00:00","postcodeFull":"L10 2JT","propertyType":"Semi-detached","oldOrNew":"Established","duration":"Freehold","paon":"8","saon":"","street":"STONEYHURST AVENUE","locality":"","townOrCity":"LIVERPOOL","district":"SEFTON","county":"MERSEYSIDE","ppdCategoryType":"Standard","recordStatus":"Addition","latitude":53.484667,"longitude":-2.946214,"postcodeStart":"L10 2","postcode":["L10","2JT"]}
{"price":115000,"dateOfTransfer":"2010-12-02T00:00:00","postcodeFull":"L10 2JY","propertyType":"Semi-detached","oldOrNew":"Established","duration":"Freehold","paon":"29","saon":"","street":"ETON DRIVE","locality":"","townOrCity":"LIVERPOOL","district":"SEFTON","county":"MERSEYSIDE","ppdCategoryType":"Standard","recordStatus":"Addition","latitude":53.482962,"longitude":-2.943539,"postcodeStart":"L10 2","postcode":["L10","2JY"]}
{"price":168000,"dateOfTransfer":"2010-10-13T00:00:00","postcodeFull":"L10 2LB","propertyType":"Semi-detached","oldOrNew":"Established","duration":"Freehold","paon":"11","saon":"","street":"CRANWELL CLOSE","locality":"","townOrCity":"LIVERPOOL","district":"SEFTON","county":"MERSEYSIDE","ppdCategoryType":"Standard","recordStatus":"Addition","latitude":53.483488,"longitude":-2.944093,"postcodeStart":"L10 2","postcode":["L10","2LB"]}
{"price":138000,"dateOfTransfer":"2010-11-19T00:00:00","postcodeFull":"L10 2JJ","propertyType":"Semi-detached","oldOrNew":"Established","duration":"Freehold","paon":"31","saon":"","street":"AINTREE LANE","locality":"","townOrCity":"LIVERPOOL","district":"SEFTON","county":"MERSEYSIDE","ppdCategoryType":"Standard","recordStatus":"Addition","latitude":53.483597,"longitude":-2.94619,"postcodeStart":"L10 2","postcode":["L10","2JJ"]}
{"price":176000,"dateOfTransfer":"2010-12-03T00:00:00","postcodeFull":"L10 2JJ","propertyType":"Semi-detached","oldOrNew":"Established","duration":"Freehold","paon":"65","saon":"","street":"AINTREE LANE","locality":"","townOrCity":"LIVERPOOL","district":"SEFTON","county":"MERSEYSIDE","ppdCategoryType":"Standard","recordStatus":"Addition","latitude":53.483597,"longitude":-2.94619,"postcodeStart":"L10 2","postcode":["L10","2JJ"]}
{"price":167000,"dateOfTransfer":"2010-07-30T00:00:00","postcodeFull":"L10 2LE","propertyType":"Semi-detached","oldOrNew":"Established","duration":"Freehold","paon":"14","saon":"","street":"SHREWSBURY AVENUE","locality":"OLD ROAN","townOrCity":"LIVERPOOL","district":"SEFTON","county":"MERSEYSIDE","ppdCategoryType":"Standard","recordStatus":"Addition","latitude":53.484086,"longitude":-2.943549,"postcodeStart":"L10 2","postcode":["L10","2LE"]}
{"price":148000,"dateOfTransfer":"2010-02-26T00:00:00","postcodeFull":"L10 2JJ","propertyType":"Semi-detached","oldOrNew":"Established","duration":"Freehold","paon":"25","saon":"","street":"AINTREE LANE","locality":"","townOrCity":"LIVERPOOL","district":"SEFTON","county":"MERSEYSIDE","ppdCategoryType":"Standard","recordStatus":"Addition","latitude":53.483597,"longitude":-2.94619,"postcodeStart":"L10 2","postcode":["L10","2JJ"]}
{"price":135000,"dateOfTransfer":"2010-02-19T00:00:00","postcodeFull":"L10 2JU","propertyType":"Semi-detached","oldOrNew":"Established","duration":"Freehold","paon":"5","saon":"","street":"DARTMOUTH AVENUE","locality":"","townOrCity":"LIVERPOOL","district":"SEFTON","county":"MERSEYSIDE","ppdCategoryType":"Standard","recordStatus":"Addition","latitude":53.483233,"longitude":-2.94454,"postcodeStart":"L10 2","postcode":["L10","2JU"]}
{"price":143500,"dateOfTransfer":"2010-09-27T00:00:00","postcodeFull":"L10 2JZ","propertyType":"Semi-detached","oldOrNew":"Established","duration":"Freehold","paon":"26","saon":"","street":"ETON DRIVE","locality":"","townOrCity":"LIVERPOOL","district":"SEFTON","county":"MERSEYSIDE","ppdCategoryType":"Standard","recordStatus":"Addition","latitude":53.482921,"longitude":-2.943011,"postcodeStart":"L10 2","postcode":["L10","2JZ"]}
{"price":130000,"dateOfTransfer":"2010-07-16T00:00:00","postcodeFull":"L10 2JH","propertyType":"Semi-detached","oldOrNew":"Established","duration":"Freehold","paon":"10","saon":"","street":"WELLINGTON CLOSE","locality":"","townOrCity":"LIVERPOOL","district":"SEFTON","county":"MERSEYSIDE","ppdCategoryType":"Standard","recordStatus":"Addition","latitude":53.48494,"longitude":-2.945783,"postcodeStart":"L10 2","postcode":["L10","2JH"]}
{"price":163000,"dateOfTransfer":"2010-04-16T00:00:00","postcodeFull":"L10 2JS","propertyType":"Terraced","oldOrNew":"Established","duration":"Freehold","paon":"3","saon":"","street":"STONEYHURST AVENUE","locality":"","townOrCity":"LIVERPOOL","district":"SEFTON","county":"MERSEYSIDE","ppdCategoryType":"Standard","recordStatus":"Addition","latitude":53.484582,"longitude":-2.94674,"postcodeStart":"L10 2","postcode":["L10","2JS"]}
{"price":180000,"dateOfTransfer":"2010-12-17T00:00:00","postcodeFull":"L10 2JQ","propertyType":"Semi-detached","oldOrNew":"Established","duration":"Freehold","paon":"114","saon":"","street":"MOSTYN AVENUE","locality":"OLD ROAN","townOrCity":"LIVERPOOL","district":"SEFTON","county":"MERSEYSIDE","ppdCategoryType":"Standard","recordStatus":"Addition","latitude":53.483022,"longitude":-2.947368,"postcodeStart":"L10 2","postcode":["L10","2JQ"]}
{"price":177500,"dateOfTransfer":"2011-05-20T00:00:00","postcodeFull":"L10 2LA","propertyType":"Semi-detached","oldOrNew":"Established","duration":"Freehold","paon":"13","saon":"","street":"MALVERN GROVE","locality":"","townOrCity":"LIVERPOOL","district":"SEFTON","county":"MERSEYSIDE","ppdCategoryType":"Standard","recordStatus":"Addition","latitude":53.481687,"longitude":-2.944505,"postcodeStart":"L10 2","postcode":["L10","2LA"]}
{"price":133000,"dateOfTransfer":"2011-11-04T00:00:00","postcodeFull":"L10 2JQ","propertyType":"Semi-detached","oldOrNew":"Established","duration":"Freehold","paon":"110","saon":"","street":"MOSTYN AVENUE","locality":"OLD ROAN","townOrCity":"LIVERPOOL","district":"SEFTON","county":"MERSEYSIDE","ppdCategoryType":"Standard","recordStatus":"Addition","latitude":53.483022,"longitude":-2.947368,"postcodeStart":"L10 2","postcode":["L10","2JQ"]}
{"price":155000,"dateOfTransfer":"2011-06-15T00:00:00","postcodeFull":"L10 2JJ","propertyType":"Terraced","oldOrNew":"Established","duration":"Freehold","paon":"73","saon":"","street":"AINTREE LANE","locality":"","townOrCity":"LIVERPOOL","district":"SEFTON","county":"MERSEYSIDE","ppdCategoryType":"Standard","recordStatus":"Addition","latitude":53.483597,"longitude":-2.94619,"postcodeStart":"L10 2","postcode":["L10","2JJ"]}
{"price":170000,"dateOfTransfer":"2011-10-21T00:00:00","postcodeFull":"L10 2JL","propertyType":"Semi-detached","oldOrNew":"Established","duration":"Freehold","paon":"32","saon":"","street":"AINTREE LANE","locality":"","townOrCity":"LIVERPOOL","district":"SEFTON","county":"MERSEYSIDE","ppdCategoryType":"Standard","recordStatus":"Addition","latitude":53.484762,"longitude":-2.948671,"postcodeStart":"L10 2","postcode":["L10","2JL"]}
{"price":179950,"dateOfTransfer":"2011-09-02T00:00:00","postcodeFull":"L10 2JS","propertyType":"Semi-detached","oldOrNew":"Established","duration":"Freehold","paon":"25","saon":"","street":"STONEYHURST AVENUE","locality":"","townOrCity":"LIVERPOOL","district":"SEFTON","county":"MERSEYSIDE","ppdCategoryType":"Standard","recordStatus":"Addition","latitude":53.484582,"longitude":-2.94674,"postcodeStart":"L10 2","postcode":["L10","2JS"]}
{"price":142000,"dateOfTransfer":"2011-09-29T00:00:00","postcodeFull":"L10 2JS","propertyType":"Semi-detached","oldOrNew":"Established","duration":"Freehold","paon":"17","saon":"","street":"STONEYHURST AVENUE","locality":"","townOrCity":"LIVERPOOL","district":"SEFTON","county":"MERSEYSIDE","ppdCategoryType":"Standard","recordStatus":"Addition","latitude":53.484582,"longitude":-2.94674,"postcodeStart":"L10 2","postcode":["L10","2JS"]}
{"price":136500,"dateOfTransfer":"2011-09-15T00:00:00","postcodeFull":"L10 2JW","propertyType":"Semi-detached","oldOrNew":"Established","duration":"Freehold","paon":"88","saon":"","street":"AINTREE LANE","locality":"","townOrCity":"LIVERPOOL","district":"SEFTON","county":"MERSEYSIDE","ppdCategoryType":"Standard","recordStatus":"Addition","latitude":53.48218,"longitude":-2.944712,"postcodeStart":"L10 2","postcode":["L10","2JW"]}
{"price":139950,"dateOfTransfer":"2011-02-28T00:00:00","postcodeFull":"L10 2JU","propertyType":"Semi-detached","oldOrNew":"Established","duration":"Freehold","paon":"23","saon":"","street":"DARTMOUTH AVENUE","locality":"","townOrCity":"LIVERPOOL","district":"SEFTON","county":"MERSEYSIDE","ppdCategoryType":"Standard","recordStatus":"Addition","latitude":53.483233,"longitude":-2.94454,"postcodeStart":"L10 2","postcode":["L10","2JU"]}
{"price":122000,"dateOfTransfer":"2011-04-08T00:00:00","postcodeFull":"L10 2JY","propertyType":"Semi-detached","oldOrNew":"Established","duration":"Freehold","paon":"27","saon":"","street":"ETON DRIVE","locality":"","townOrCity":"LIVERPOOL","district":"SEFTON","county":"MERSEYSIDE","ppdCategoryType":"Standard","recordStatus":"Addition","latitude":53.482962,"longitude":-2.943539,"postcodeStart":"L10 2","postcode":["L10","2JY"]}
{"price":187000,"dateOfTransfer":"2011-04-14T00:00:00","postcodeFull":"L10 2JN","propertyType":"Semi-detached","oldOrNew":"Established","duration":"Freehold","paon":"42","saon":"","street":"AINTREE LANE","locality":"","townOrCity":"LIVERPOOL","district":"SEFTON","county":"MERSEYSIDE","ppdCategoryType":"Standard","recordStatus":"Addition","latitude":53.48353,"longitude":-2.946807,"postcodeStart":"L10 2","postcode":["L10","2JN"]}
{"price":157000,"dateOfTransfer":"2011-11-28T00:00:00","postcodeFull":"L10 2JJ","propertyType":"Semi-detached","oldOrNew":"Established","duration":"Freehold","paon":"43","saon":"","street":"AINTREE LANE","locality":"","townOrCity":"LIVERPOOL","district":"SEFTON","county":"MERSEYSIDE","ppdCategoryType":"Standard","recordStatus":"Addition","latitude":53.483597,"longitude":-2.94619,"postcodeStart":"L10 2","postcode":["L10","2JJ"]}
{"price":135000,"dateOfTransfer":"2012-02-17T00:00:00","postcodeFull":"L10 2LQ","propertyType":"Semi-detached","oldOrNew":"Established","duration":"Freehold","paon":"64","saon":"","street":"ALTWAY","locality":"","townOrCity":"LIVERPOOL","district":"SEFTON","county":"MERSEYSIDE","ppdCategoryType":"Standard","recordStatus":"Addition","latitude":53.483839,"longitude":-2.940695,"postcodeStart":"L10 2","postcode":["L10","2LQ"]}
{"price":160000,"dateOfTransfer":"2012-09-11T00:00:00","postcodeFull":"L10 2JF","propertyType":"Semi-detached","oldOrNew":"Established","duration":"Freehold","paon":"53","saon":"","street":"MOSTYN AVENUE","locality":"OLD ROAN","townOrCity":"LIVERPOOL","district":"SEFTON","county":"MERSEYSIDE","ppdCategoryType":"Standard","recordStatus":"Addition","latitude":53.483293,"longitude":-2.947193,"postcodeStart":"L10 2","postcode":["L10","2JF"]}
{"price":157000,"dateOfTransfer":"2012-11-16T00:00:00","postcodeFull":"L10 2JU","propertyType":"Semi-detached","oldOrNew":"Established","duration":"Freehold","paon":"5","saon":"","street":"DARTMOUTH AVENUE","locality":"","townOrCity":"LIVERPOOL","district":"SEFTON","county":"MERSEYSIDE","ppdCategoryType":"Standard","recordStatus":"Addition","latitude":53.483233,"longitude":-2.94454,"postcodeStart":"L10 2","postcode":["L10","2JU"]}
{"price":145000,"dateOfTransfer":"2012-04-10T00:00:00","postcodeFull":"L10 2JU","propertyType":"Semi-detached","oldOrNew":"Established","duration":"Freehold","paon":"14","saon":"","street":"DARTMOUTH AVENUE","locality":"","townOrCity":"LIVERPOOL","district":"SEFTON","county":"MERSEYSIDE","ppdCategoryType":"Standard","recordStatus":"Addition","latitude":53.483233,"longitude":-2.94454,"postcodeStart":"L10 2","postcode":["L10","2JU"]}
{"price":192000,"dateOfTransfer":"2012-09-28T00:00:00","postcodeFull":"L10 2JS","propertyType":"Semi-detached","oldOrNew":"Established","duration":"Freehold","paon":"27","saon":"","street":"STONEYHURST AVENUE","locality":"","townOrCity":"LIVERPOOL","district":"SEFTON","county":"MERSEYSIDE","ppdCategoryType":"Standard","recordStatus":"Addition","latitude":53.484582,"longitude":-2.94674,"postcodeStart":"L10 2","postcode":["L10","2JS"]}
{"price":173000,"dateOfTransfer":"2012-01-12T00:00:00","postcodeFull":"L10 2JH","propertyType":"Semi-detached","oldOrNew":"Established","duration":"Freehold","paon":"4","saon":"","street":"WELLINGTON CLOSE","locality":"AINTREE","townOrCity":"LIVERPOOL","district":"SEFTON","county":"MERSEYSIDE","ppdCategoryType":"Standard","recordStatus":"Addition","latitude":53.48494,"longitude":-2.945783,"postcodeStart":"L10 2","postcode":["L10","2JH"]}
{"price":130000,"dateOfTransfer":"2012-03-23T00:00:00","postcodeFull":"L10 2JH","propertyType":"Semi-detached","oldOrNew":"Established","duration":"Freehold","paon":"5","saon":"","street":"WELLINGTON CLOSE","locality":"AINTREE","townOrCity":"LIVERPOOL","district":"SEFTON","county":"MERSEYSIDE","ppdCategoryType":"Standard","recordStatus":"Addition","latitude":53.48494,"longitude":-2.945783,"postcodeStart":"L10 2","postcode":["L10","2JH"]}
{"price":148500,"dateOfTransfer":"2012-07-27T00:00:00","postcodeFull":"L10 2LD","propertyType":"Semi-detached","oldOrNew":"Established","duration":"Freehold","paon":"51","saon":"","street":"SHREWSBURY AVENUE","locality":"OLD ROAN","townOrCity":"LIVERPOOL","district":"SEFTON","county":"MERSEYSIDE","ppdCategoryType":"Standard","recordStatus":"Addition","latitude":53.483797,"longitude":-2.941403,"postcodeStart":"L10 2","postcode":["L10","2LD"]}
{"price":136250,"dateOfTransfer":"2012-06-29T00:00:00","postcodeFull":"L10 2JN","propertyType":"Semi-detached","oldOrNew":"Established","duration":"Freehold","paon":"44","saon":"","street":"AINTREE LANE","locality":"","townOrCity":"LIVERPOOL","district":"SEFTON","county":"MERSEYSIDE","ppdCategoryType":"Standard","recordStatus":"Addition","latitude":53.48353,"longitude":-2.946807,"postcodeStart":"L10 2","postcode":["L10","2JN"]}
