{"price":44000,"dateOfTransfer":"1995-06-16T00:00:00","postcodeFull":"L21 0DD","propertyType":"Semi-detached","oldOrNew":"Established","duration":"Freehold","paon":"16","saon":"","street":"STERRIX LANE","locality":"LIVERPOOL","townOrCity":"LIVERPOOL","district":"SEFTON","county":"MERSEYSIDE","ppdCategoryType":"Standard","recordStatus":"Addition","latitude":53.482574,"longitude":-2.994722,"postcodeStart":"L21 0","postcode":["L21","0DD"]}
{"price":24500,"dateOfTransfer":"1995-02-28T00:00:00","postcodeFull":"L21 0JL","propertyType":"Terraced","oldOrNew":"Established","duration":"Freehold","paon":"200","saon":"","street":"BOWLAND DRIVE","locality":"LIVERPOOL","townOrCity":"LIVERPOOL","district":"SEFTON","county":"MERSEYSIDE","ppdCategoryType":"Standard","recordStatus":"Addition","latitude":53.489123,"longitude":-2.991906,"postcodeStart":"L21 0","postcode":["L21","0JL"]}
{"price":33000,"dateOfTransfer":"1995-12-18T00:00:00","postcodeFull":"L21 0DW","propertyType":"Semi-detached","oldOrNew":"Established","duration":"Freehold","paon":"2","saon":"","street":"GREEN LANE","locality":"FORD","townOrCity":"LIVERPOOL","district":"SEFTON","county":"MERSEYSIDE","ppdCategoryType":"Standard","recordStatus":"Addition","latitude":53.481987,"longitude":-2.998264,"postcodeStart":"L21 0","postcode":["L21","0DW"]}
{"price":21730,"dateOfTransfer":"1995-09-11T00:00:00","postcodeFull":"L21 0JW","propertyType":"Terraced","oldOrNew":"New build","duration":"Freehold","paon":"65","saon":"","street":"NUNSFORD CLOSE","locality":"LIVERPOOL","townOrCity":"LIVERPOOL","district":"SEFTON","county":"MERSEYSIDE","ppdCategoryType":"Standard","recordStatus":"Addition","latitude":53.481572,"longitude":-2.987631,"postcodeStart":"L21 0","postcode":["L21","0JW"]}
{"price":38000,"dateOfTransfer":"1995-12-08T00:00:00","postcodeFull":"L21 0HN","propertyType":"Semi-detached","oldOrNew":"Established","duration":"Freehold","paon":"219","saon":"","street":"FORD LANE","locality":"LIVERPOOL","townOrCity":"LIVERPOOL","district":"SEFTON","county":"MERSEYSIDE","ppdCategoryType":"Standard","recordStatus":"Addition","latitude":53.485748,"longitude":-2.99894,"postcodeStart":"L21 0","postcode":["L21","0HN"]}
{"price":16929,"dateOfTransfer":"1995-02-03T00:00:00","postcodeFull":"L21 0JJ","propertyType":"Terraced","oldOrNew":"Established","duration":"Freehold","paon":"90","saon":"","street":"BOWLAND DRIVE","locality":"LIVERPOOL","townOrCity":"LIVERPOOL","district":"SEFTON","county":"MERSEYSIDE","ppdCategoryType":"Standard","recordStatus":"Addition","latitude":53.489635,"longitude":-2.993109,"postcodeStart":"L21 0","postcode":["L21","0JJ"]}
{"price":25000,"dateOfTransfer":"1995-10-31T00:00:00","postcodeFull":"L21 0HZ","propertyType":"Terraced","oldOrNew":"Established","duration":"Freehold","paon":"46","saon":"","street":"PENDLE DRIVE","locality":"LIVERPOOL","townOrCity":"LIVERPOOL","district":"SEFTON","county":"MERSEYSIDE","ppdCategoryType":"Standard","recordStatus":"Addition","latitude":53.488711,"longitude":-2.993961,"postcodeStart":"L21 0","postcode":["L21","0HZ"]}
{"price":35000,"dateOfTransfer":"1995-04-28T00:00:00","postcodeFull":"L21 0DZ","propertyType":"Semi-detached","oldOrNew":"Established","duration":"Leasehold","paon":"18","saon":"","street":"OCTAVIA HILL ROAD","locality":"LIVERPOOL","townOrCity":"LIVERPOOL","district":"SEFTON","county":"MERSEYSIDE","ppdCategoryType":"Standard","recordStatus":"Addition","latitude":53.478081,"longitude":-2.993426,"postcodeStart":"L21 0","postcode":["L21","0DZ"]}
{"price":33000,"dateOfTransfer":"1996-11-29T00:00:00","postcodeFull":"L21 0DS","propertyType":"Terraced","oldOrNew":"Established","duration":"Freehold","paon":"72","saon":"","street":"LONSDALE ROAD","locality":"FORD","townOrCity":"LIVERPOOL","district":"SEFTON","county":"MERSEYSIDE","ppdCategoryType":"Standard","recordStatus":"Addition","latitude":53.483951,"longitude":-2.995628,"postcodeStart":"L21 0","postcode":["L21","0DS"]}
{"price":28000,"dateOfTransfer":"1996-04-12T00:00:00","postcodeFull":"L21 0HQ","propertyType":"Terraced","oldOrNew":"Established","duration":"Freehold","paon":"91","saon":"","street":"FORD LANE","locality":"LIVERPOOL","townOrCity":"LIVERPOOL","district":"SEFTON","county":"MERSEYSIDE","ppdCategoryType":"Standard","recordStatus":"Addition","latitude":53.48307,"longitude":-3.001002,"postcodeStart":"L21 0","postcode":["L21","0HQ"]}
{"price":46500,"dateOfTransfer":"1996-04-12T00:00:00","postcodeFull":"L21 0EB","propertyType":"Semi-detached","oldOrNew":"Established","duration":"Leasehold","paon":"10","saon":"","street":"EBENEZER HOWARD ROAD","locality":"LIVERPOOL","townOrCity":"LIVERPOOL","district":"SEFTON","county":"MERSEYSIDE","ppdCategoryType":"Standard","recordStatus":"Addition","latitude":53.479475,"longitude":-2.994468,"postcodeStart":"L21 0","postcode":["L21","0EB"]}
{"price":27000,"dateOfTransfer":"1996-05-13T00:00:00","postcodeFull":"L21 0HX","propertyType":"Terraced","oldOrNew":"Established","duration":"Freehold","paon":"113","saon":"","street":"TRAWDEN WAY","locality":"LIVERPOOL","townOrCity":"LIVERPOOL","district":"SEFTON","county":"MERSEYSIDE","ppdCategoryType":"Standard","recordStatus":"Addition","latitude":53.490433,"longitude":-2.993248,"postcodeStart":"L21 0","postcode":["L21","0HX"]}
{"price":59995,"dateOfTransfer":"1996-02-19T00:00:00","postcodeFull":"L21 0EG","propertyType":"Semi-detached","oldOrNew":"Established","duration":"Freehold","paon":"53","saon":"","street":"KIRKSTONE ROAD WEST","locality":"LIVERPOOL","townOrCity":"LIVERPOOL","district":"SEFTON","county":"MERSEYSIDE","ppdCategoryType":"Standard","recordStatus":"Addition","latitude":53.479995,"longitude":-2.999996,"postcodeStart":"L21 0","postcode":["L21","0EG"]}
{"price":33000,"dateOfTransfer":"1996-10-23T00:00:00","postcodeFull":"L21 0HA","propertyType":"Terraced","oldOrNew":"Established","duration":"Freehold","paon":"2","saon":"","street":"HEATHVIEW","locality":"LIVERPOOL","townOrCity":"LIVERPOOL","district":"SEFTON","county":"MERSEYSIDE","ppdCategoryType":"Standard","recordStatus":"Addition","latitude":53.483901,"longitude":-2.9984,"postcodeStart":"L21 0","postcode":["L21","0HA"]}
{"price":46250,"dateOfTransfer":"1996-12-13T00:00:00","postcodeFull":"L21 0EQ","propertyType":"Terraced","oldOrNew":"Established","duration":"Freehold","paon":"10","saon":"","street":"KIRKSTONE ROAD WEST","locality":"LIVERPOOL","townOrCity":"LIVERPOOL","district":"SEFTON","county":"MERSEYSIDE","ppdCategoryType":"Standard","recordStatus":"Addition","latitude":53.480313,"longitude":-2.999626,"postcodeStart":"L21 0","postcode":["L21","0EQ"]}
{"price":23500,"dateOfTransfer":"1996-01-12T00:00:00","postcodeFull":"L21 0JH","propertyType":"Terraced","oldOrNew":"Established","duration":"Freehold","paon":"267","saon":"","street":"BOWLAND DRIVE","locality":"LIVERPOOL","townOrCity":"LIVERPOOL","district":"SEFTON","county":"MERSEYSIDE","ppdCategoryType":"Standard","recordStatus":"Addition","latitude":53.488978,"longitude":-2.991028,"postcodeStart":"L21 0","postcode":["L21","0JH"]}
{"price":31000,"dateOfTransfer":"1996-07-05T00:00:00","postcodeFull":"L21 0JA","propertyType":"Terraced","oldOrNew":"Established","duration":"Freehold","paon":"73","saon":"","street":"BOWLAND DRIVE","locality":"LIVERPOOL","townOrCity":"LIVERPOOL","district":"SEFTON","county":"MERSEYSIDE","ppdCategoryType":"Standard","recordStatus":"Addition","latitude":53.48956,"longitude":-2.995579,"postcodeStart":"L21 0","postcode":["L21","0JA"]}
{"price":24500,"dateOfTransfer":"1996-07-19T00:00:00","postcodeFull":"L21 0JH","propertyType":"Terraced","oldOrNew":"Established","duration":"Freehold","paon":"209","saon":"","street":"BOWLAND DRIVE","locality":"LIVERPOOL","townOrCity":"LIVERPOOL","district":"SEFTON","county":"MERSEYSIDE","ppdCategoryType":"Standard","recordStatus":"Addition","latitude":53.488978,"longitude":-2.991028,"postcodeStart":"L21 0","postcode":["L21","0JH"]}
{"price":29500,"dateOfTransfer":"1996-09-20T00:00:00","postcodeFull":"L21 0DQ","propertyType":"Semi-detached","oldOrNew":"Established","duration":"Freehold","paon":"141","saon":"","street":"GORSEY LANE","locality":"FORD","townOrCity":"LIVERPOOL","district":"SEFTON","county":"MERSEYSIDE","ppdCategoryType":"Standard","recordStatus":"Addition","latitude":53.484883,"longitude":-2.994821,"postcodeStart":"L21 0","postcode":["L21","0DQ"]}
{"price":29000,"dateOfTransfer":"1996-06-07T00:00:00","postcodeFull":"L21 0EY","propertyType":"Semi-detached","oldOrNew":"Established","duration":"Freehold","paon":"53","saon":"","street":"OATFIELD LANE","locality":"LIVERPOOL","townOrCity":"LIVERPOOL","district":"SEFTON","county":"MERSEYSIDE","ppdCategoryType":"Standard","recordStatus":"Addition","latitude":53.482451,"longitude":-2.99948,"postcodeStart":"L21 0","postcode":["L21","0EY"]}
{"price":25500,"dateOfTransfer":"1997-08-15T00:00:00","postcodeFull":"L21 0JJ","propertyType":"Terraced","oldOrNew":"Established","duration":"Freehold","paon":"132","saon":"","street":"BOWLAND DRIVE","locality":"LIVERPOOL","townOrCity":"LIVERPOOL","district":"SEFTON","county":"MERSEYSIDE","ppdCategoryType":"Standard","recordStatus":"Addition","latitude":53.489635,"longitude":-2.993109,"postcodeStart":"L21 0","postcode":["L21","0JJ"]}
{"price":29500,"dateOfTransfer":"1997-05-02T00:00:00","postcodeFull":"L21 0HX","propertyType":"Terraced","oldOrNew":"Established","duration":"Freehold","paon":"39","saon":"","street":"TRAWDEN WAY","locality":"LIVERPOOL","townOrCity":"LIVERPOOL","district":"SEFTON","county":"MERSEYSIDE","ppdCategoryType":"Standard","recordStatus":"Addition","latitude":53.490433,"longitude":-2.993248,"postcodeStart":"L21 0","postcode":["L21","0HX"]}
{"price":35000,"dateOfTransfer":"1997-06-30T00:00:00","postcodeFull":"L21 0JE","propertyType":"Semi-detached","oldOrNew":"Established","duration":"Freehold","paon":"1A","saon":"","street":"FULWOOD WAY","locality":"LIVERPOOL","townOrCity":"LIVERPOOL","district":"SEFTON","county":"MERSEYSIDE","ppdCategoryType":"Standard","recordStatus":"Addition","latitude":53.488264,"longitude":-2.995774,"postcodeStart":"L21 0","postcode":["L21","0JE"]}
{"price":42000,"dateOfTransfer":"1997-03-27T00:00:00","postcodeFull":"L21 0DD","propertyType":"Semi-detached","oldOrNew":"Established","duration":"Freehold","paon":"4","saon":"","street":"STERRIX LANE","locality":"LIVERPOOL","townOrCity":"LIVERPOOL","district":"SEFTON","county":"MERSEYSIDE","ppdCategoryType":"Standard","recordStatus":"Addition","latitude":53.482574,"longitude":-2.994722,"postcodeStart":"L21 0","postcode":["L21","0DD"]}
{"price":31500,"dateOfTransfer":"1997-06-30T00:00:00","postcodeFull":"L21 0EY","propertyType":"Semi-detached","oldOrNew":"Established","duration":"Freehold","paon":"16","saon":"","street":"OATFIELD LANE","locality":"LIVERPOOL","townOrCity":"LIVERPOOL","district":"SEFTON","county":"MERSEYSIDE","ppdCategoryType":"Standard","recordStatus":"Addition","latitude":53.482451,"longitude":-2.99948,"postcodeStart":"L21 0","postcode":["L21","0EY"]}
{"price":35500,"dateOfTransfer":"1997-12-12T00:00:00","postcodeFull":"L21 0DD","propertyType":"Semi-detached","oldOrNew":"Established","duration":"Freehold","paon":"2","saon":"","street":"STERRIX LANE","locality":"LIVERPOOL","townOrCity":"LIVERPOOL","district":"SEFTON","county":"MERSEYSIDE","ppdCategoryType":"Standard","recordStatus":"Addition","latitude":53.482574,"longitude":-2.994722,"postcodeStart":"L21 0","postcode":["L21","0DD"]}
{"price":25500,"dateOfTransfer":"1997-12-19T00:00:00","postcodeFull":"L21 0HP","propertyType":"Terraced","oldOrNew":"Established","duration":"Freehold","paon":"309","saon":"","street":"FORD LANE","locality":"LIVERPOOL","townOrCity":"LIVERPOOL","district":"SEFTON","county":"MERSEYSIDE","ppdCategoryType":"Standard","recordStatus":"Addition","latitude":53.484845,"longitude":-2.995152,"postcodeStart":"L21 0","postcode":["L21","0HP"]}
{"price":27000,"dateOfTransfer":"1997-08-15T00:00:00","postcodeFull":"L21 0HJ","propertyType":"Terraced","oldOrNew":"Established","duration":"Freehold","paon":"13","saon":"","street":"BRIDGE CROFT","locality":"LIVERPOOL","townOrCity":"LIVERPOOL","district":"SEFTON","county":"MERSEYSIDE","ppdCategoryType":"Standard","recordStatus":"Addition","latitude":53.48533,"longitude":-2.995193,"postcodeStart":"L21 0","postcode":["L21","0HJ"]}
{"price":39000,"dateOfTransfer":"1997-12-15T00:00:00","postcodeFull":"L21 0DS","propertyType":"Terraced","oldOrNew":"Established","duration":"Freehold","paon":"86","saon":"","street":"LONSDALE ROAD","locality":"FORD","townOrCity":"LIVERPOOL","district":"SEFTON","county":"MERSEYSIDE","ppdCategoryType":"Standard","recordStatus":"Addition","latitude":53.483951,"longitude":-2.995628,"postcodeStart":"L21 0","postcode":["L21","0DS"]}
{"price":44000,"dateOfTransfer":"1997-03-21T00:00:00","postcodeFull":"L21 0DJ","propertyType":"Semi-detached","oldOrNew":"Established","duration":"Leasehold","paon":"26","saon":"","street":"GORSEY LANE","locality":"FORD","townOrCity":"LIVERPOOL","district":"SEFTON","county":"MERSEYSIDE","ppdCategoryType":"Standard","recordStatus":"Addition","latitude":53.479482,"longitude":-2.995795,"postcodeStart":"L21 0","postcode":["L21","0DJ"]}
{"price":26000,"dateOfTransfer":"1997-09-12T00:00:00","postcodeFull":"L21 0JJ","propertyType":"Terraced","oldOrNew":"Established","duration":"Freehold","paon":"118","saon":"","street":"BOWLAND DRIVE","locality":"LIVERPOOL","townOrCity":"LIVERPOOL","district":"SEFTON","county":"MERSEYSIDE","ppdCategoryType":"Standard","recordStatus":"Addition","latitude":53.489635,"longitude":-2.993109,"postcodeStart":"L21 0","postcode":["L21","0JJ"]}
{"price":22500,"dateOfTransfer":"1997-08-20T00:00:00","postcodeFull":"L21 0JH","propertyType":"Terraced","oldOrNew":"Established","duration":"Freehold","paon":"213","saon":"","street":"BOWLAND DRIVE","locality":"LIVERPOOL","townOrCity":"LIVERPOOL","district":"SEFTON","county":"MERSEYSIDE","ppdCategoryType":"Standard","recordStatus":"Addition","latitude":53.488978,"longitude":-2.991028,"postcodeStart":"L21 0","postcode":["L21","0JH"]}
{"price":33000,"dateOfTransfer":"1997-05-28T00:00:00","postcodeFull":"L21 0DF","propertyType":"Semi-detached","oldOrNew":"Established","duration":"Freehold","paon":"81","saon":"","street":"GORSEY LANE","locality":"FORD","townOrCity":"LIVERPOOL","district":"SEFTON","county":"MERSEYSIDE","ppdCategoryType":"Standard","recordStatus":"Addition","latitude":53.481307,"longitude":-2.996877,"postcodeStart":"L21 0","postcode":["L21","0DF"]}
{"price":26950,"dateOfTransfer":"1997-04-04T00:00:00","postcodeFull":"L21 0JJ","propertyType":"Terraced","oldOrNew":"Established","duration":"Freehold","paon":"78","saon":"","street":"BOWLAND DRIVE","locality":"LIVERPOOL","townOrCity":"LIVERPOOL","district":"SEFTON","county":"MERSEYSIDE","ppdCategoryType":"Standard","recordStatus":"Addition","latitude":53.489635,"longitude":-2.993109,"postcodeStart":"L21 0","postcode":["L21","0JJ"]}
{"price":44950,"dateOfTransfer":"1997-07-24T00:00:00","postcodeFull":"L21 0DD","propertyType":"Semi-detached","oldOrNew":"Established","duration":"Freehold","paon":"16","saon":"","street":"STERRIX LANE","locality":"LIVERPOOL","townOrCity":"LIVERPOOL","district":"SEFTON","county":"MERSEYSIDE","ppdCategoryType":"Standard","recordStatus":"Addition","latitude":53.482574,"longitude":-2.994722,"postcodeStart":"L21 0","postcode":["L21","0DD"]}
{"price":28250,"dateOfTransfer":"1997-10-30T00:00:00","postcodeFull":"L21 0JQ","propertyType":"Terraced","oldOrNew":"Established","duration":"Freehold","paon":"109","saon":"","street":"BOWLAND DRIVE","locality":"LIVERPOOL","townOrCity":"LIVERPOOL","district":"SEFTON","county":"MERSEYSIDE","ppdCategoryType":"Standard","recordStatus":"Addition","latitude":53.490106,"longitude":-2.992652,"postcodeStart":"L21 0","postcode":["L21","0JQ"]}
{"price":34000,"dateOfTransfer":"1998-10-02T00:00:00","postcodeFull":"L21 0HB","propertyType":"Semi-detached","oldOrNew":"Established","duration":"Freehold","paon":"6","saon":"","street":"MEADOW VIEW","locality":"LIVERPOOL","townOrCity":"LIVERPOOL","district":"SEFTON","county":"MERSEYSIDE","ppdCategoryType":"Standard","recordStatus":"Addition","latitude":53.484526,"longitude":-2.997797,"postcodeStart":"L21 0","postcode":["L21","0HB"]}
{"price":24000,"dateOfTransfer":"1998-04-24T00:00:00","postcodeFull":"L21 0HY","propertyType":"Terraced","oldOrNew":"Established","duration":"Freehold","paon":"27","saon":"","street":"PENDLE DRIVE","locality":"LIVERPOOL","townOrCity":"LIVERPOOL","district":"SEFTON","county":"MERSEYSIDE","ppdCategoryType":"Standard","recordStatus":"Addition","latitude":53.488282,"longitude":-2.994674,"postcodeStart":"L21 0","postcode":["L21","0HY"]}
{"price":58000,"dateOfTransfer":"1998-04-03T00:00:00","postcodeFull":"L21 0EQ","propertyType":"Detached","oldOrNew":"Established","duration":"Freehold","paon":"40","saon":"","street":"KIRKSTONE ROAD WEST","locality":"LIVERPOOL","townOrCity":"LIVERPOOL","district":"SEFTON","county":"MERSEYSIDE","ppdCategoryType":"Standard","recordStatus":"Addition","latitude":53.480313,"longitude":-2.999626,"postcodeStart":"L21 0","postcode":["L21","0EQ"]}
{"price":28500,"dateOfTransfer":"1998-12-18T00:00:00","postcodeFull":"L21 0JD","propertyType":"Terraced","oldOrNew":"Established","duration":"Freehold","paon":"3","saon":"","street":"BLEASDALE WAY","locality":"LIVERPOOL","townOrCity":"LIVERPOOL","district":"SEFTON","county":"MERSEYSIDE","ppdCategoryType":"Standard","recordStatus":"Addition","latitude":53.489355,"longitude":-2.996418,"postcodeStart":"L21 0","postcode":["L21","0JD"]}
{"price":22000,"dateOfTransfer":"1998-12-09T00:00:00","postcodeFull":"L21 0JH","propertyType":"Terraced","oldOrNew":"Established","duration":"Freehold","paon":"209","saon":"","street":"BOWLAND DRIVE","locality":"LIVERPOOL","townOrCity":"LIVERPOOL","district":"SEFTON","county":"MERSEYSIDE","ppdCategoryType":"Standard","recordStatus":"Addition","latitude":53.488978,"longitude":-2.991028,"postcodeStart":"L21 0","postcode":["L21","0JH"]}
{"price":39500,"dateOfTransfer":"1998-01-30T00:00:00","postcodeFull":"L21 0JH","propertyType":"Terraced","oldOrNew":"Established","duration":"Freehold","paon":"281","saon":"","street":"BOWLAND DRIVE","locality":"LIVERPOOL","townOrCity":"LIVERPOOL","district":"SEFTON","county":"MERSEYSIDE","ppdCategoryType":"Standard","recordStatus":"Addition","latitude":53.488978,"longitude":-2.991028,"postcodeStart":"L21 0","postcode":["L21","0JH"]}
{"price":47000,"dateOfTransfer":"1998-04-14T00:00:00","postcodeFull":"L21 0DA","propertyType":"Semi-detached","oldOrNew":"Established","duration":"Freehold","paon":"STELLA MARIS","saon":"","street":"STERRIX LANE","locality":"LIVERPOOL","townOrCity":"LIVERPOOL","district":"SEFTON","county":"MERSEYSIDE","ppdCategoryType":"Standard","recordStatus":"Addition","latitude":53.481813,"longitude":-2.98985,"postcodeStart":"L21 0","postcode":["L21","0DA"]}
{"price":22950,"dateOfTransfer":"1998-08-06T00:00:00","postcodeFull":"L21 0HX","propertyType":"Terraced","oldOrNew":"Established","duration":"Freehold","paon":"87","saon":"","street":"TRAWDEN WAY","locality":"LIVERPOOL","townOrCity":"LIVERPOOL","district":"SEFTON","county":"MERSEYSIDE","ppdCategoryType":"Standard","recordStatus":"Addition","latitude":53.490433,"longitude":-2.993248,"postcodeStart":"L21 0","postcode":["L21","0HX"]}
{"price":20000,"dateOfTransfer":"1998-05-08T00:00:00","postcodeFull":"L21 0DD","propertyType":"Semi-detached","oldOrNew":"Established","duration":"Freehold","paon":"3","saon":"","street":"CEMETERY COTTAGES","locality":"LIVERPOOL","townOrCity":"LIVERPOOL","district":"SEFTON","county":"MERSEYSIDE","ppdCategoryType":"Standard","recordStatus":"Addition","latitude":53.482574,"longitude":-2.994722,"postcodeStart":"L21 0","postcode":["L21","0DD"]}
{"price":51950,"dateOfTransfer":"1998-01-30T00:00:00","postcodeFull":"L21 0EE","propertyType":"Semi-detached","oldOrNew":"Established","duration":"Leasehold","paon":"1","saon":"","street":"PANKHURST ROAD","locality":"LIVERPOOL","townOrCity":"LIVERPOOL","district":"SEFTON","county":"MERSEYSIDE","ppdCategoryType":"Standard","recordStatus":"Addition","latitude":53.479143,"longitude":-2.995425,"postcodeStart":"L21 0","postcode":["L21","0EE"]}
{"price":15000,"dateOfTransfer":"1998-02-17T00:00:00","postcodeFull":"L21 0ET","propertyType":"Terraced","oldOrNew":"Established","duration":"Freehold","paon":"104","saon":"","street":"FOUR ACRE DRIVE","locality":"LIVERPOOL","townOrCity":"LIVERPOOL","district":"SEFTON","county":"MERSEYSIDE","ppdCategoryType":"Standard","recordStatus":"Addition","latitude":53.483522,"longitude":-2.997411,"postcodeStart":"L21 0","postcode":["L21","0ET"]}
{"price":34250,"dateOfTransfer":"1998-09-04T00:00:00","postcodeFull":"L21 0DS","propertyType":"Terraced","oldOrNew":"Established","duration":"Freehold","paon":"60","saon":"","street":"LONSDALE ROAD","locality":"FORD","townOrCity":"LIVERPOOL","district":"SEFTON","county":"MERSEYSIDE","ppdCategoryType":"Standard","recordStatus":"Addition","latitude":53.483951,"longitude":-2.995628,"postcodeStart":"L21 0","postcode":["L21","0DS"]}
{"price":30000,"dateOfTransfer":"1998-02-20T00:00:00","postcodeFull":"L21 0HH","propertyType":"Terraced","oldOrNew":"Established","duration":"Freehold","paon":"15","saon":"","street":"CARR CROFT","locality":"LIVERPOOL","townOrCity":"LIVERPOOL","district":"SEFTON","county":"MERSEYSIDE","ppdCategoryType":"Standard","recordStatus":"Addition","latitude":53.485699,"longitude":-2.996181,"postcodeStart":"L21 0","postcode":["L21","0HH"]}
{"price":32000,"dateOfTransfer":"1998-08-14T00:00:00","postcodeFull":"L21 0JL","propertyType":"Terraced","oldOrNew":"Established","duration":"Freehold","paon":"202","saon":"","street":"BOWLAND DRIVE","locality":"LIVERPOOL","townOrCity":"LIVERPOOL","district":"SEFTON","county":"MERSEYSIDE","ppdCategoryType":"Standard","recordStatus":"Addition","latitude":53.489123,"longitude":-2.991906,"postcodeStart":"L21 0","postcode":["L21","0JL"]}
{"price":25950,"dateOfTransfer":"1998-05-01T00:00:00","postcodeFull":"L21 0JB","propertyType":"Terraced","oldOrNew":"Established","duration":"Freehold","paon":"74","saon":"","street":"BOWLAND DRIVE","locality":"LIVERPOOL","townOrCity":"LIVERPOOL","district":"SEFTON","county":"MERSEYSIDE","ppdCategoryType":"Standard","recordStatus":"Addition","latitude":53.489233,"longitude":-2.995058,"postcodeStart":"L21 0","postcode":["L21","0JB"]}
{"price":56000,"dateOfTransfer":"1998-02-13T00:00:00","postcodeFull":"L21 0EG","propertyType":"Semi-detached","oldOrNew":"Established","duration":"Freehold","paon":"51","saon":"","street":"KIRKSTONE ROAD WEST","locality":"LIVERPOOL","townOrCity":"LIVERPOOL","district":"SEFTON","county":"MERSEYSIDE","ppdCategoryType":"Standard","recordStatus":"Addition","latitude":53.479995,"longitude":-2.999996,"postcodeStart":"L21 0","postcode":["L21","0EG"]}
{"price":56000,"dateOfTransfer":"1998-05-18T00:00:00","postcodeFull":"L21 0EG","propertyType":"Semi-detached","oldOrNew":"Established","duration":"Freehold","paon":"63","saon":"","street":"KIRKSTONE ROAD WEST","locality":"LIVERPOOL","townOrCity":"LIVERPOOL","district":"SEFTON","county":"MERSEYSIDE","ppdCategoryType":"Standard","recordStatus":"Addition","latitude":53.479995,"longitude":-2.999996,"postcodeStart":"L21 0","postcode":["L21","0EG"]}
{"price":27000,"dateOfTransfer":"1998-02-26T00:00:00","postcodeFull":"L21 0HG","propertyType":"Semi-detached","oldOrNew":"Established","duration":"Freehold","paon":"23","saon":"","street":"FORD LANE","locality":"LIVERPOOL","townOrCity":"LIVERPOOL","district":"SEFTON","county":"MERSEYSIDE","ppdCategoryType":"Standard","recordStatus":"Addition","latitude":53.481336,"longitude":-3.000871,"postcodeStart":"L21 0","postcode":["L21","0HG"]}
{"price":22000,"dateOfTransfer":"1998-02-26T00:00:00","postcodeFull":"L21 0ES","propertyType":"Terraced","oldOrNew":"Established","duration":"Freehold","paon":"18","saon":"","street":"FOUR ACRE DRIVE","locality":"LIVERPOOL","townOrCity":"LIVERPOOL","district":"SEFTON","county":"MERSEYSIDE","ppdCategoryType":"Standard","recordStatus":"Addition","latitude":53.482484,"longitude":-2.997914,"postcodeStart":"L21 0","postcode":["L21","0ES"]}
{"price":30500,"dateOfTransfer":"1998-05-18T00:00:00","postcodeFull":"L21 0JJ","propertyType":"Terraced","oldOrNew":"Established","duration":"Freehold","paon":"108","saon":"","street":"BOWLAND DRIVE","locality":"LIVERPOOL","townOrCity":"LIVERPOOL","district":"SEFTON","county":"MERSEYSIDE","ppdCategoryType":"Standard","recordStatus":"Addition","latitude":53.489635,"longitude":-2.993109,"postcodeStart":"L21 0","postcode":["L21","0JJ"]}
{"price":18000,"dateOfTransfer":"1998-07-24T00:00:00","postcodeFull":"L21 0JJ","propertyType":"Terraced","oldOrNew":"Established","duration":"Freehold","paon":"130","saon":"","street":"BOWLAND DRIVE","locality":"LIVERPOOL","townOrCity":"LIVERPOOL","district":"SEFTON","county":"MERSEYSIDE","ppdCategoryType":"Standard","recordStatus":"Addition","latitude":53.489635,"longitude":-2.993109,"postcodeStart":"L21 0","postcode":["L21","0JJ"]}
{"price":37500,"dateOfTransfer":"1998-03-09T00:00:00","postcodeFull":"L21 0DG","propertyType":"Semi-detached","oldOrNew":"Established","duration":"Freehold","paon":"121A","saon":"","street":"GORSEY LANE","locality":"FORD","townOrCity":"LIVERPOOL","district":"SEFTON","county":"MERSEYSIDE","ppdCategoryType":"Standard","recordStatus":"Addition","latitude":53.482804,"longitude":-2.996204,"postcodeStart":"L21 0","postcode":["L21","0DG"]}
{"price":46000,"dateOfTransfer":"1998-08-18T00:00:00","postcodeFull":"L21 0EB","propertyType":"Semi-detached","oldOrNew":"Established","duration":"Leasehold","paon":"10","saon":"","street":"EBENEZER HOWARD ROAD","locality":"LIVERPOOL","townOrCity":"LIVERPOOL","district":"SEFTON","county":"MERSEYSIDE","ppdCategoryType":"Standard","recordStatus":"Addition","latitude":53.479475,"longitude":-2.994468,"postcodeStart":"L21 0","postcode":["L21","0EB"]}
{"price":30750,"dateOfTransfer":"1998-08-28T00:00:00","postcodeFull":"L21 0JL","propertyType":"Terraced","oldOrNew":"Established","duration":"Freehold","paon":"232","saon":"","street":"BOWLAND DRIVE","locality":"LIVERPOOL","townOrCity":"LIVERPOOL","district":"SEFTON","county":"MERSEYSIDE","ppdCategoryType":"Standard","recordStatus":"Addition","latitude":53.489123,"longitude":-2.991906,"postcodeStart":"L21 0","postcode":["L21","0JL"]}
{"price":32500,"dateOfTransfer":"1998-11-27T00:00:00","postcodeFull":"L21 0JA","propertyType":"Terraced","oldOrNew":"Established","duration":"Freehold","paon":"17","saon":"","street":"BOWLAND DRIVE","locality":"LIVERPOOL","townOrCity":"LIVERPOOL","district":"SEFTON","county":"MERSEYSIDE","ppdCategoryType":"Standard","recordStatus":"Addition","latitude":53.48956,"longitude":-2.995579,"postcodeStart":"L21 0","postcode":["L21","0JA"]}
{"price":53500,"dateOfTransfer":"1999-09-24T00:00:00","postcodeFull":"L21 0EG","propertyType":"Semi-detached","oldOrNew":"Established","duration":"Freehold","paon":"35","saon":"","street":"KIRKSTONE ROAD WEST","locality":"","townOrCity":"LIVERPOOL","district":"SEFTON","county":"MERSEYSIDE","ppdCategoryType":"Standard","recordStatus":"Addition","latitude":53.479995,"longitude":-2.999996,"postcodeStart":"L21 0","postcode":["L21","0EG"]}
{"price":35950,"dateOfTransfer":"1999-03-01T00:00:00","postcodeFull":"L21 0HE","propertyType":"Semi-detached","oldOrNew":"Established","duration":"Freehold","paon":"43","saon":"","street":"RYEFIELD LANE","locality":"","townOrCity":"LIVERPOOL","district":"SEFTON","county":"MERSEYSIDE","ppdCategoryType":"Standard","recordStatus":"Addition","latitude":53.485089,"longitude":-2.998141,"postcodeStart":"L21 0","postcode":["L21","0HE"]}
{"price":45000,"dateOfTransfer":"1999-06-30T00:00:00","postcodeFull":"L21 0EQ","propertyType":"Semi-detached","oldOrNew":"Established","duration":"Freehold","paon":"26","saon":"","street":"KIRKSTONE ROAD WEST","locality":"","townOrCity":"LIVERPOOL","district":"SEFTON","county":"MERSEYSIDE","ppdCategoryType":"Standard","recordStatus":"Addition","latitude":53.480313,"longitude":-2.999626,"postcodeStart":"L21 0","postcode":["L21","0EQ"]}
{"price":41250,"dateOfTransfer":"1999-04-29T00:00:00","postcodeFull":"L21 0DG","propertyType":"Terraced","oldOrNew":"Established","duration":"Freehold","paon":"99","saon":"","street":"GORSEY LANE","locality":"FORD","townOrCity":"LIVERPOOL","district":"SEFTON","county":"MERSEYSIDE","ppdCategoryType":"Standard","recordStatus":"Addition","latitude":53.482804,"longitude":-2.996204,"postcodeStart":"L21 0","postcode":["L21","0DG"]}
{"price":18250,"dateOfTransfer":"1999-03-03T00:00:00","postcodeFull":"L21 0HE","propertyType":"Terraced","oldOrNew":"Established","duration":"Freehold","paon":"37","saon":"","street":"RYEFIELD LANE","locality":"","townOrCity":"LIVERPOOL","district":"SEFTON","county":"MERSEYSIDE","ppdCategoryType":"Standard","recordStatus":"Addition","latitude":53.485089,"longitude":-2.998141,"postcodeStart":"L21 0","postcode":["L21","0HE"]}
{"price":49000,"dateOfTransfer":"1999-11-19T00:00:00","postcodeFull":"L21 0EQ","propertyType":"Semi-detached","oldOrNew":"Established","duration":"Freehold","paon":"22","saon":"","street":"KIRKSTONE ROAD WEST","locality":"","townOrCity":"LIVERPOOL","district":"SEFTON","county":"MERSEYSIDE","ppdCategoryType":"Standard","recordStatus":"Addition","latitude":53.480313,"longitude":-2.999626,"postcodeStart":"L21 0","postcode":["L21","0EQ"]}
{"price":59950,"dateOfTransfer":"1999-11-05T00:00:00","postcodeFull":"L21 0DE","propertyType":"Semi-detached","oldOrNew":"Established","duration":"Freehold","paon":"43","saon":"","street":"GORSEY LANE","locality":"FORD","townOrCity":"LIVERPOOL","district":"SEFTON","county":"MERSEYSIDE","ppdCategoryType":"Standard","recordStatus":"Addition","latitude":53.478657,"longitude":-2.996574,"postcodeStart":"L21 0","postcode":["L21","0DE"]}
{"price":46995,"dateOfTransfer":"1999-10-16T00:00:00","postcodeFull":"L21 0EH","propertyType":"Semi-detached","oldOrNew":"Established","duration":"Freehold","paon":"KENMORE COTTAGES","saon":"4","street":"GORSEY LANE","locality":"FORD","townOrCity":"LIVERPOOL","district":"SEFTON","county":"MERSEYSIDE","ppdCategoryType":"Standard","recordStatus":"Addition","latitude":53.487857,"longitude":-2.991756,"postcodeStart":"L21 0","postcode":["L21","0EH"]}
{"price":26995,"dateOfTransfer":"1999-02-26T00:00:00","postcodeFull":"L21 0ET","propertyType":"Semi-detached","oldOrNew":"Established","duration":"Freehold","paon":"78","saon":"","street":"FOUR ACRE DRIVE","locality":"","townOrCity":"LIVERPOOL","district":"SEFTON","county":"MERSEYSIDE","ppdCategoryType":"Standard","recordStatus":"Addition","latitude":53.483522,"longitude":-2.997411,"postcodeStart":"L21 0","postcode":["L21","0ET"]}
{"price":43000,"dateOfTransfer":"1999-03-02T00:00:00","postcodeFull":"L21 0DY","propertyType":"Semi-detached","oldOrNew":"Established","duration":"Leasehold","paon":"25","saon":"","street":"OCTAVIA HILL ROAD","locality":"","townOrCity":"LIVERPOOL","district":"SEFTON","county":"MERSEYSIDE","ppdCategoryType":"Standard","recordStatus":"Addition","latitude":53.478336,"longitude":-2.994155,"postcodeStart":"L21 0","postcode":["L21","0DY"]}
{"price":56500,"dateOfTransfer":"2000-10-31T00:00:00","postcodeFull":"L21 0HU","propertyType":"Semi-detached","oldOrNew":"Established","duration":"Leasehold","paon":"2","saon":"","street":"HOWARD CLOSE","locality":"SEAFORTH","townOrCity":"LIVERPOOL","district":"SEFTON","county":"MERSEYSIDE","ppdCategoryType":"Standard","recordStatus":"Addition","latitude":53.479111,"longitude":-2.993933,"postcodeStart":"L21 0","postcode":["L21","0HU"]}
{"price":18000,"dateOfTransfer":"2000-02-14T00:00:00","postcodeFull":"L21 0JW","propertyType":"Terraced","oldOrNew":"Established","duration":"Freehold","paon":"81","saon":"","street":"NUNSFORD CLOSE","locality":"","townOrCity":"LIVERPOOL","district":"SEFTON","county":"MERSEYSIDE","ppdCategoryType":"Standard","recordStatus":"Addition","latitude":53.481572,"longitude":-2.987631,"postcodeStart":"L21 0","postcode":["L21","0JW"]}
{"price":29000,"dateOfTransfer":"2000-08-04T00:00:00","postcodeFull":"L21 0HA","propertyType":"Terraced","oldOrNew":"Established","duration":"Freehold","paon":"3","saon":"","street":"HEATHVIEW","locality":"","townOrCity":"LIVERPOOL","district":"SEFTON","county":"MERSEYSIDE","ppdCategoryType":"Standard","recordStatus":"Addition","latitude":53.483901,"longitude":-2.9984,"postcodeStart":"L21 0","postcode":["L21","0HA"]}
{"price":69500,"dateOfTransfer":"2000-09-01T00:00:00","postcodeFull":"L21 0DE","propertyType":"Semi-detached","oldOrNew":"Established","duration":"Freehold","paon":"51","saon":"","street":"GORSEY LANE","locality":"FORD","townOrCity":"LIVERPOOL","district":"SEFTON","county":"MERSEYSIDE","ppdCategoryType":"Standard","recordStatus":"Addition","latitude":53.478657,"longitude":-2.996574,"postcodeStart":"L21 0","postcode":["L21","0DE"]}
{"price":30000,"dateOfTransfer":"2000-02-29T00:00:00","postcodeFull":"L21 0ER","propertyType":"Terraced","oldOrNew":"Established","duration":"Freehold","paon":"24","saon":"","street":"CROSS HEY","locality":"FORD","townOrCity":"LIVERPOOL","district":"SEFTON","county":"MERSEYSIDE","ppdCategoryType":"Standard","recordStatus":"Addition","latitude":53.483258,"longitude":-3.000057,"postcodeStart":"L21 0","postcode":["L21","0ER"]}
{"price":29995,"dateOfTransfer":"2000-11-10T00:00:00","postcodeFull":"L21 0HX","propertyType":"Terraced","oldOrNew":"Established","duration":"Freehold","paon":"15","saon":"","street":"TRAWDEN WAY","locality":"","townOrCity":"LIVERPOOL","district":"SEFTON","county":"MERSEYSIDE","ppdCategoryType":"Standard","recordStatus":"Addition","latitude":53.490433,"longitude":-2.993248,"postcodeStart":"L21 0","postcode":["L21","0HX"]}
{"price":32500,"dateOfTransfer":"2000-05-19T00:00:00","postcodeFull":"L21 0HX","propertyType":"Terraced","oldOrNew":"Established","duration":"Freehold","paon":"91","saon":"","street":"TRAWDEN WAY","locality":"","townOrCity":"LIVERPOOL","district":"SEFTON","county":"MERSEYSIDE","ppdCategoryType":"Standard","recordStatus":"Addition","latitude":53.490433,"longitude":-2.993248,"postcodeStart":"L21 0","postcode":["L21","0HX"]}
{"price":32000,"dateOfTransfer":"2000-06-07T00:00:00","postcodeFull":"L21 0DX","propertyType":"Semi-detached","oldOrNew":"Established","duration":"Freehold","paon":"16","saon":"","street":"WILLIAM WALL ROAD","locality":"","townOrCity":"LIVERPOOL","district":"SEFTON","county":"MERSEYSIDE","ppdCategoryType":"Standard","recordStatus":"Addition","latitude":53.480985,"longitude":-2.998768,"postcodeStart":"L21 0","postcode":["L21","0DX"]}
{"price":30000,"dateOfTransfer":"2000-11-30T00:00:00","postcodeFull":"L21 0JA","propertyType":"Terraced","oldOrNew":"Established","duration":"Freehold","paon":"67","saon":"","street":"BOWLAND DRIVE","locality":"","townOrCity":"LIVERPOOL","district":"SEFTON","county":"MERSEYSIDE","ppdCategoryType":"Standard","recordStatus":"Addition","latitude":53.48956,"longitude":-2.995579,"postcodeStart":"L21 0","postcode":["L21","0JA"]}
{"price":19000,"dateOfTransfer":"2000-09-01T00:00:00","postcodeFull":"L21 0JL","propertyType":"Terraced","oldOrNew":"Established","duration":"Freehold","paon":"190","saon":"","street":"BOWLAND DRIVE","locality":"","townOrCity":"LIVERPOOL","district":"SEFTON","county":"MERSEYSIDE","ppdCategoryType":"Standard","recordStatus":"Addition","latitude":53.489123,"longitude":-2.991906,"postcodeStart":"L21 0","postcode":["L21","0JL"]}
{"price":32000,"dateOfTransfer":"2000-07-20T00:00:00","postcodeFull":"L21 0ET","propertyType":"Terraced","oldOrNew":"Established","duration":"Freehold","paon":"104","saon":"","street":"FOUR ACRE DRIVE","locality":"","townOrCity":"LIVERPOOL","district":"SEFTON","county":"MERSEYSIDE","ppdCategoryType":"Standard","recordStatus":"Addition","latitude":53.483522,"longitude":-2.997411,"postcodeStart":"L21 0","postcode":["L21","0ET"]}
{"price":65950,"dateOfTransfer":"2000-02-25T00:00:00","postcodeFull":"L21 0EQ","propertyType":"Semi-detached","oldOrNew":"Established","duration":"Freehold","paon":"38","saon":"","street":"KIRKSTONE ROAD WEST","locality":"","townOrCity":"LIVERPOOL","district":"SEFTON","county":"MERSEYSIDE","ppdCategoryType":"Standard","recordStatus":"Addition","latitude":53.480313,"longitude":-2.999626,"postcodeStart":"L21 0","postcode":["L21","0EQ"]}
{"price":37000,"dateOfTransfer":"2000-10-31T00:00:00","postcodeFull":"L21 0HJ","propertyType":"Semi-detached","oldOrNew":"Established","duration":"Freehold","paon":"31","saon":"","street":"BRIDGE CROFT","locality":"","townOrCity":"LIVERPOOL","district":"SEFTON","county":"MERSEYSIDE","ppdCategoryType":"Standard","recordStatus":"Addition","latitude":53.48533,"longitude":-2.995193,"postcodeStart":"L21 0","postcode":["L21","0HJ"]}
{"price":42000,"dateOfTransfer":"2000-09-22T00:00:00","postcodeFull":"L21 0HJ","propertyType":"Semi-detached","oldOrNew":"Established","duration":"Freehold","paon":"27","saon":"","street":"BRIDGE CROFT","locality":"","townOrCity":"LIVERPOOL","district":"SEFTON","county":"MERSEYSIDE","ppdCategoryType":"Standard","recordStatus":"Addition","latitude":53.48533,"longitude":-2.995193,"postcodeStart":"L21 0","postcode":["L21","0HJ"]}
{"price":33000,"dateOfTransfer":"2000-12-18T00:00:00","postcodeFull":"L21 0JH","propertyType":"Terraced","oldOrNew":"Established","duration":"Freehold","paon":"221","saon":"","street":"BOWLAND DRIVE","locality":"","townOrCity":"LIVERPOOL","district":"SEFTON","county":"MERSEYSIDE","ppdCategoryType":"Standard","recordStatus":"Addition","latitude":53.488978,"longitude":-2.991028,"postcodeStart":"L21 0","postcode":["L21","0JH"]}
{"price":35950,"dateOfTransfer":"2000-09-01T00:00:00","postcodeFull":"L21 0DG","propertyType":"Terraced","oldOrNew":"Established","duration":"Freehold","paon":"103","saon":"","street":"GORSEY LANE","locality":"FORD","townOrCity":"LIVERPOOL","district":"SEFTON","county":"MERSEYSIDE","ppdCategoryType":"Standard","recordStatus":"Addition","latitude":53.482804,"longitude":-2.996204,"postcodeStart":"L21 0","postcode":["L21","0DG"]}
{"price":59950,"dateOfTransfer":"2000-05-19T00:00:00","postcodeFull":"L21 0EG","propertyType":"Semi-detached","oldOrNew":"Established","duration":"Freehold","paon":"9","saon":"","street":"KIRKSTONE ROAD WEST","locality":"","townOrCity":"LIVERPOOL","district":"SEFTON","county":"MERSEYSIDE","ppdCategoryType":"Standard","recordStatus":"Addition","latitude":53.479995,"longitude":-2.999996,"postcodeStart":"L21 0","postcode":["L21","0EG"]}
{"price":20000,"dateOfTransfer":"2000-05-16T00:00:00","postcodeFull":"L21 0JJ","propertyType":"Terraced","oldOrNew":"Established","duration":"Freehold","paon":"78","saon":"","street":"BOWLAND DRIVE","locality":"","townOrCity":"LIVERPOOL","district":"SEFTON","county":"MERSEYSIDE","ppdCategoryType":"Standard","recordStatus":"Addition","latitude":53.489635,"longitude":-2.993109,"postcodeStart":"L21 0","postcode":["L21","0JJ"]}
{"price":19000,"dateOfTransfer":"2000-11-10T00:00:00","postcodeFull":"L21 0JL","propertyType":"Terraced","oldOrNew":"Established","duration":"Freehold","paon":"190","saon":"","street":"BOWLAND DRIVE","locality":"","townOrCity":"LIVERPOOL","district":"SEFTON","county":"MERSEYSIDE","ppdCategoryType":"Standard","recordStatus":"Addition","latitude":53.489123,"longitude":-2.991906,"postcodeStart":"L21 0","postcode":["L21","0JL"]}
{"price":22500,"dateOfTransfer":"2000-11-03T00:00:00","postcodeFull":"L21 0HH","propertyType":"Flat/Maisonette/Townhouse","oldOrNew":"Established","duration":"Freehold","paon":"1","saon":"","street":"CARR CROFT","locality":"","townOrCity":"LIVERPOOL","district":"SEFTON","county":"MERSEYSIDE","ppdCategoryType":"Standard","recordStatus":"Addition","latitude":53.485699,"longitude":-2.996181,"postcodeStart":"L21 0","postcode":["L21","0HH"]}
{"price":37500,"dateOfTransfer":"2000-07-21T00:00:00","postcodeFull":"L21 0EH","propertyType":"Semi-detached","oldOrNew":"Established","duration":"Freehold","paon":"KENMORE COTTAGES","saon":"5","street":"GORSEY LANE","locality":"FORD","townOrCity":"LIVERPOOL","district":"SEFTON","county":"MERSEYSIDE","ppdCategoryType":"Standard","recordStatus":"Addition","latitude":53.487857,"longitude":-2.991756,"postcodeStart":"L21 0","postcode":["L21","0EH"]}
{"price":36000,"dateOfTransfer":"2000-11-10T00:00:00","postcodeFull":"L21 0JL","propertyType":"Terraced","oldOrNew":"Established","duration":"Freehold","paon":"232","saon":"","street":"BOWLAND DRIVE","locality":"","townOrCity":"LIVERPOOL","district":"SEFTON","county":"MERSEYSIDE","ppdCategoryType":"Standard","recordStatus":"Addition","latitude":53.489123,"longitude":-2.991906,"postcodeStart":"L21 0","postcode":["L21","0JL"]}
{"price":29950,"dateOfTransfer":"2001-12-05T00:00:00","postcodeFull":"L21 0JH","propertyType":"Terraced","oldOrNew":"Established","duration":"Freehold","paon":"225","saon":"","street":"BOWLAND DRIVE","locality":"LIVERPOOL","townOrCity":"LIVERPOOL","district":"SEFTON","county":"MERSEYSIDE","ppdCategoryType":"Standard","recordStatus":"Addition","latitude":53.488978,"longitude":-2.991028,"postcodeStart":"L21 0","postcode":["L21","0JH"]}
{"price":32000,"dateOfTransfer":"2001-04-09T00:00:00","postcodeFull":"L21 0JH","propertyType":"Terraced","oldOrNew":"Established","duration":"Freehold","paon":"209","saon":"","street":"BOWLAND DRIVE","locality":"LIVERPOOL","townOrCity":"LIVERPOOL","district":"SEFTON","county":"MERSEYSIDE","ppdCategoryType":"Standard","recordStatus":"Addition","latitude":53.488978,"longitude":-2.991028,"postcodeStart":"L21 0","postcode":["L21","0JH"]}
{"price":20000,"dateOfTransfer":"2001-06-08T00:00:00","postcodeFull":"L21 0HX","propertyType":"Terraced","oldOrNew":"Established","duration":"Freehold","paon":"51","saon":"","street":"TRAWDEN WAY","locality":"LIVERPOOL","townOrCity":"LIVERPOOL","district":"SEFTON","county":"MERSEYSIDE","ppdCategoryType":"Standard","recordStatus":"Addition","latitude":53.490433,"longitude":-2.993248,"postcodeStart":"L21 0","postcode":["L21","0HX"]}
{"price":33000,"dateOfTransfer":"2001-07-27T00:00:00","postcodeFull":"L21 0HT","propertyType":"Semi-detached","oldOrNew":"Established","duration":"Freehold","paon":"144","saon":"","street":"FORD LANE","locality":"LIVERPOOL","townOrCity":"LIVERPOOL","district":"SEFTON","county":"MERSEYSIDE","ppdCategoryType":"Standard","recordStatus":"Addition","latitude":53.485309,"longitude":-2.998704,"postcodeStart":"L21 0","postcode":["L21","0HT"]}
{"price":29500,"dateOfTransfer":"2001-10-25T00:00:00","postcodeFull":"L21 0JB","propertyType":"Terraced","oldOrNew":"Established","duration":"Freehold","paon":"74","saon":"","street":"BOWLAND DRIVE","locality":"LIVERPOOL","townOrCity":"LIVERPOOL","district":"SEFTON","county":"MERSEYSIDE","ppdCategoryType":"Standard","recordStatus":"Addition","latitude":53.489233,"longitude":-2.995058,"postcodeStart":"L21 0","postcode":["L21","0JB"]}
{"price":50000,"dateOfTransfer":"2001-07-31T00:00:00","postcodeFull":"L21 0EG","propertyType":"Semi-detached","oldOrNew":"Established","duration":"Freehold","paon":"41","saon":"","street":"KIRKSTONE ROAD WEST","locality":"LIVERPOOL","townOrCity":"LIVERPOOL","district":"SEFTON","county":"MERSEYSIDE","ppdCategoryType":"Standard","recordStatus":"Addition","latitude":53.479995,"longitude":-2.999996,"postcodeStart":"L21 0","postcode":["L21","0EG"]}
{"price":27000,"dateOfTransfer":"2001-04-27T00:00:00","postcodeFull":"L21 0JE","propertyType":"Terraced","oldOrNew":"Established","duration":"Freehold","paon":"11","saon":"","street":"FULWOOD WAY","locality":"LIVERPOOL","townOrCity":"LIVERPOOL","district":"SEFTON","county":"MERSEYSIDE","ppdCategoryType":"Standard","recordStatus":"Addition","latitude":53.488264,"longitude":-2.995774,"postcodeStart":"L21 0","postcode":["L21","0JE"]}
{"price":24000,"dateOfTransfer":"2001-05-17T00:00:00","postcodeFull":"L21 0JL","propertyType":"Terraced","oldOrNew":"Established","duration":"Freehold","paon":"218","saon":"","street":"BOWLAND DRIVE","locality":"LIVERPOOL","townOrCity":"LIVERPOOL","district":"SEFTON","county":"MERSEYSIDE","ppdCategoryType":"Standard","recordStatus":"Addition","latitude":53.489123,"longitude":-2.991906,"postcodeStart":"L21 0","postcode":["L21","0JL"]}
{"price":18000,"dateOfTransfer":"2001-11-16T00:00:00","postcodeFull":"L21 0ET","propertyType":"Semi-detached","oldOrNew":"Established","duration":"Freehold","paon":"100","saon":"","street":"FOUR ACRE DRIVE","locality":"LIVERPOOL","townOrCity":"LIVERPOOL","district":"SEFTON","county":"MERSEYSIDE","ppdCategoryType":"Standard","recordStatus":"Addition","latitude":53.483522,"longitude":-2.997411,"postcodeStart":"L21 0","postcode":["L21","0ET"]}
{"price":34000,"dateOfTransfer":"2001-06-08T00:00:00","postcodeFull":"L21 0JE","propertyType":"Terraced","oldOrNew":"Established","duration":"Freehold","paon":"5","saon":"","street":"FULWOOD WAY","locality":"LIVERPOOL","townOrCity":"LIVERPOOL","district":"SEFTON","county":"MERSEYSIDE","ppdCategoryType":"Standard","recordStatus":"Addition","latitude":53.488264,"longitude":-2.995774,"postcodeStart":"L21 0","postcode":["L21","0JE"]}
{"price":60000,"dateOfTransfer":"2001-08-17T00:00:00","postcodeFull":"L21 0EQ","propertyType":"Semi-detached","oldOrNew":"Established","duration":"Freehold","paon":"8","saon":"","street":"KIRKSTONE ROAD WEST","locality":"LIVERPOOL","townOrCity":"LIVERPOOL","district":"SEFTON","county":"MERSEYSIDE","ppdCategoryType":"Standard","recordStatus":"Addition","latitude":53.480313,"longitude":-2.999626,"postcodeStart":"L21 0","postcode":["L21","0EQ"]}
{"price":29000,"dateOfTransfer":"2001-11-30T00:00:00","postcodeFull":"L21 0HH","propertyType":"Terraced","oldOrNew":"Established","duration":"Freehold","paon":"8","saon":"","street":"CARR CROFT","locality":"LIVERPOOL","townOrCity":"LIVERPOOL","district":"SEFTON","county":"MERSEYSIDE","ppdCategoryType":"Standard","recordStatus":"Addition","latitude":53.485699,"longitude":-2.996181,"postcodeStart":"L21 0","postcode":["L21","0HH"]}
{"price":34000,"dateOfTransfer":"2001-06-08T00:00:00","postcodeFull":"L21 0EE","propertyType":"Terraced","oldOrNew":"Established","duration":"Freehold","paon":"37","saon":"","street":"PANKHURST ROAD","locality":"LIVERPOOL","townOrCity":"LIVERPOOL","district":"SEFTON","county":"MERSEYSIDE","ppdCategoryType":"Standard","recordStatus":"Addition","latitude":53.479143,"longitude":-2.995425,"postcodeStart":"L21 0","postcode":["L21","0EE"]}
{"price":28000,"dateOfTransfer":"2001-05-24T00:00:00","postcodeFull":"L21 0HG","propertyType":"Terraced","oldOrNew":"Established","duration":"Freehold","paon":"17","saon":"","street":"FORD LANE","locality":"LIVERPOOL","townOrCity":"LIVERPOOL","district":"SEFTON","county":"MERSEYSIDE","ppdCategoryType":"Standard","recordStatus":"Addition","latitude":53.481336,"longitude":-3.000871,"postcodeStart":"L21 0","postcode":["L21","0HG"]}
{"price":32000,"dateOfTransfer":"2001-07-19T00:00:00","postcodeFull":"L21 0HX","propertyType":"Terraced","oldOrNew":"Established","duration":"Freehold","paon":"53","saon":"","street":"TRAWDEN WAY","locality":"LIVERPOOL","townOrCity":"LIVERPOOL","district":"SEFTON","county":"MERSEYSIDE","ppdCategoryType":"Standard","recordStatus":"Addition","latitude":53.490433,"longitude":-2.993248,"postcodeStart":"L21 0","postcode":["L21","0HX"]}
{"price":34500,"dateOfTransfer":"2001-03-16T00:00:00","postcodeFull":"L21 0DQ","propertyType":"Terraced","oldOrNew":"Established","duration":"Freehold","paon":"143","saon":"","street":"GORSEY LANE","locality":"FORD","townOrCity":"LIVERPOOL","district":"SEFTON","county":"MERSEYSIDE","ppdCategoryType":"Standard","recordStatus":"Addition","latitude":53.484883,"longitude":-2.994821,"postcodeStart":"L21 0","postcode":["L21","0DQ"]}
{"price":40000,"dateOfTransfer":"2001-10-19T00:00:00","postcodeFull":"L21 0DQ","propertyType":"Terraced","oldOrNew":"Established","duration":"Freehold","paon":"137","saon":"","street":"GORSEY LANE","locality":"FORD","townOrCity":"LIVERPOOL","district":"SEFTON","county":"MERSEYSIDE","ppdCategoryType":"Standard","recordStatus":"Addition","latitude":53.484883,"longitude":-2.994821,"postcodeStart":"L21 0","postcode":["L21","0DQ"]}
{"price":38000,"dateOfTransfer":"2001-08-31T00:00:00","postcodeFull":"L21 0DD","propertyType":"Semi-detached","oldOrNew":"Established","duration":"Freehold","paon":"12","saon":"","street":"STERRIX LANE","locality":"LIVERPOOL","townOrCity":"LIVERPOOL","district":"SEFTON","county":"MERSEYSIDE","ppdCategoryType":"Standard","recordStatus":"Addition","latitude":53.482574,"longitude":-2.994722,"postcodeStart":"L21 0","postcode":["L21","0DD"]}
{"price":34000,"dateOfTransfer":"2001-08-01T00:00:00","postcodeFull":"L21 0HT","propertyType":"Terraced","oldOrNew":"Established","duration":"Freehold","paon":"120","saon":"","street":"FORD LANE","locality":"LIVERPOOL","townOrCity":"LIVERPOOL","district":"SEFTON","county":"MERSEYSIDE","ppdCategoryType":"Standard","recordStatus":"Addition","latitude":53.485309,"longitude":-2.998704,"postcodeStart":"L21 0","postcode":["L21","0HT"]}
{"price":34000,"dateOfTransfer":"2001-11-22T00:00:00","postcodeFull":"L21 0DR","propertyType":"Semi-detached","oldOrNew":"Established","duration":"Freehold","paon":"38","saon":"","street":"LONSDALE ROAD","locality":"FORD","townOrCity":"LIVERPOOL","district":"SEFTON","county":"MERSEYSIDE","ppdCategoryType":"Standard","recordStatus":"Addition","latitude":53.482792,"longitude":-2.996611,"postcodeStart":"L21 0","postcode":["L21","0DR"]}
{"price":16000,"dateOfTransfer":"2001-10-05T00:00:00","postcodeFull":"L21 0DW","propertyType":"Terraced","oldOrNew":"Established","duration":"Freehold","paon":"18","saon":"","street":"GREEN LANE","locality":"FORD","townOrCity":"LIVERPOOL","district":"SEFTON","county":"MERSEYSIDE","ppdCategoryType":"Standard","recordStatus":"Addition","latitude":53.481987,"longitude":-2.998264,"postcodeStart":"L21 0","postcode":["L21","0DW"]}
{"price":67000,"dateOfTransfer":"2001-07-26T00:00:00","postcodeFull":"L21 0EQ","propertyType":"Semi-detached","oldOrNew":"Established","duration":"Freehold","paon":"46","saon":"","street":"KIRKSTONE ROAD WEST","locality":"LIVERPOOL","townOrCity":"LIVERPOOL","district":"SEFTON","county":"MERSEYSIDE","ppdCategoryType":"Standard","recordStatus":"Addition","latitude":53.480313,"longitude":-2.999626,"postcodeStart":"L21 0","postcode":["L21","0EQ"]}
{"price":47500,"dateOfTransfer":"2001-11-30T00:00:00","postcodeFull":"L21 0DA","propertyType":"Semi-detached","oldOrNew":"Established","duration":"Freehold","paon":"62","saon":"","street":"STERRIX LANE","locality":"LIVERPOOL","townOrCity":"LIVERPOOL","district":"SEFTON","county":"MERSEYSIDE","ppdCategoryType":"Standard","recordStatus":"Addition","latitude":53.481813,"longitude":-2.98985,"postcodeStart":"L21 0","postcode":["L21","0DA"]}
{"price":29500,"dateOfTransfer":"2001-09-07T00:00:00","postcodeFull":"L21 0HP","propertyType":"Terraced","oldOrNew":"Established","duration":"Freehold","paon":"242","saon":"","street":"FORD LANE","locality":"LIVERPOOL","townOrCity":"LIVERPOOL","district":"SEFTON","county":"MERSEYSIDE","ppdCategoryType":"Standard","recordStatus":"Addition","latitude":53.484845,"longitude":-2.995152,"postcodeStart":"L21 0","postcode":["L21","0HP"]}
{"price":29000,"dateOfTransfer":"2001-12-14T00:00:00","postcodeFull":"L21 0DR","propertyType":"Terraced","oldOrNew":"Established","duration":"Freehold","paon":"2","saon":"","street":"LONSDALE ROAD","locality":"FORD","townOrCity":"LIVERPOOL","district":"SEFTON","county":"MERSEYSIDE","ppdCategoryType":"Standard","recordStatus":"Addition","latitude":53.482792,"longitude":-2.996611,"postcodeStart":"L21 0","postcode":["L21","0DR"]}
{"price":28995,"dateOfTransfer":"2001-07-31T00:00:00","postcodeFull":"L21 0JL","propertyType":"Terraced","oldOrNew":"Established","duration":"Freehold","paon":"200","saon":"","street":"BOWLAND DRIVE","locality":"LIVERPOOL","townOrCity":"LIVERPOOL","district":"SEFTON","county":"MERSEYSIDE","ppdCategoryType":"Standard","recordStatus":"Addition","latitude":53.489123,"longitude":-2.991906,"postcodeStart":"L21 0","postcode":["L21","0JL"]}
{"price":31500,"dateOfTransfer":"2001-09-14T00:00:00","postcodeFull":"L21 0HY","propertyType":"Terraced","oldOrNew":"Established","duration":"Freehold","paon":"35","saon":"","street":"PENDLE DRIVE","locality":"LIVERPOOL","townOrCity":"LIVERPOOL","district":"SEFTON","county":"MERSEYSIDE","ppdCategoryType":"Standard","recordStatus":"Addition","latitude":53.488282,"longitude":-2.994674,"postcodeStart":"L21 0","postcode":["L21","0HY"]}
{"price":22500,"dateOfTransfer":"2002-04-03T00:00:00","postcodeFull":"L21 0DU","propertyType":"Terraced","oldOrNew":"Established","duration":"Freehold","paon":"59","saon":"","street":"WILLIAM WALL ROAD","locality":"LIVERPOOL","townOrCity":"LIVERPOOL","district":"SEFTON","county":"MERSEYSIDE","ppdCategoryType":"Standard","recordStatus":"Addition","latitude":53.480579,"longitude":-2.99897,"postcodeStart":"L21 0","postcode":["L21","0DU"]}
{"price":57500,"dateOfTransfer":"2002-05-07T00:00:00","postcodeFull":"L21 0DE","propertyType":"Semi-detached","oldOrNew":"Established","duration":"Freehold","paon":"31","saon":"","street":"GORSEY LANE","locality":"FORD","townOrCity":"LIVERPOOL","district":"SEFTON","county":"MERSEYSIDE","ppdCategoryType":"Standard","recordStatus":"Addition","latitude":53.478657,"longitude":-2.996574,"postcodeStart":"L21 0","postcode":["L21","0DE"]}
{"price":43000,"dateOfTransfer":"2002-02-25T00:00:00","postcodeFull":"L21 0DG","propertyType":"Semi-detached","oldOrNew":"Established","duration":"Freehold","paon":"115","saon":"","street":"GORSEY LANE","locality":"FORD","townOrCity":"LIVERPOOL","district":"SEFTON","county":"MERSEYSIDE","ppdCategoryType":"Standard","recordStatus":"Addition","latitude":53.482804,"longitude":-2.996204,"postcodeStart":"L21 0","postcode":["L21","0DG"]}
{"price":46950,"dateOfTransfer":"2002-11-15T00:00:00","postcodeFull":"L21 0EN","propertyType":"Detached","oldOrNew":"Established","duration":"Freehold","paon":"45","saon":"","street":"FOUR ACRE DRIVE","locality":"LIVERPOOL","townOrCity":"LIVERPOOL","district":"SEFTON","county":"MERSEYSIDE","ppdCategoryType":"Standard","recordStatus":"Addition","latitude":53.482977,"longitude":-2.998077,"postcodeStart":"L21 0","postcode":["L21","0EN"]}
{"price":40000,"dateOfTransfer":"2002-04-16T00:00:00","postcodeFull":"L21 0EZ","propertyType":"Terraced","oldOrNew":"Established","duration":"Freehold","paon":"24","saon":"","street":"OATFIELD LANE","locality":"LIVERPOOL","townOrCity":"LIVERPOOL","district":"SEFTON","county":"MERSEYSIDE","ppdCategoryType":"Standard","recordStatus":"Addition","latitude":53.483081,"longitude":-2.998622,"postcodeStart":"L21 0","postcode":["L21","0EZ"]}
{"price":32000,"dateOfTransfer":"2002-02-22T00:00:00","postcodeFull":"L21 0JD","propertyType":"Terraced","oldOrNew":"Established","duration":"Freehold","paon":"3","saon":"","street":"BLEASDALE WAY","locality":"LIVERPOOL","townOrCity":"LIVERPOOL","district":"SEFTON","county":"MERSEYSIDE","ppdCategoryType":"Standard","recordStatus":"Addition","latitude":53.489355,"longitude":-2.996418,"postcodeStart":"L21 0","postcode":["L21","0JD"]}
{"price":31000,"dateOfTransfer":"2002-09-06T00:00:00","postcodeFull":"L21 0JH","propertyType":"Semi-detached","oldOrNew":"Established","duration":"Freehold","paon":"285","saon":"","street":"BOWLAND DRIVE","locality":"LIVERPOOL","townOrCity":"LIVERPOOL","district":"SEFTON","county":"MERSEYSIDE","ppdCategoryType":"Standard","recordStatus":"Addition","latitude":53.488978,"longitude":-2.991028,"postcodeStart":"L21 0","postcode":["L21","0JH"]}
{"price":31500,"dateOfTransfer":"2002-04-10T00:00:00","postcodeFull":"L21 0JA","propertyType":"Terraced","oldOrNew":"Established","duration":"Freehold","paon":"1","saon":"","street":"BOWLAND DRIVE","locality":"LIVERPOOL","townOrCity":"LIVERPOOL","district":"SEFTON","county":"MERSEYSIDE","ppdCategoryType":"Standard","recordStatus":"Addition","latitude":53.48956,"longitude":-2.995579,"postcodeStart":"L21 0","postcode":["L21","0JA"]}
{"price":30500,"dateOfTransfer":"2002-06-07T00:00:00","postcodeFull":"L21 0JB","propertyType":"Terraced","oldOrNew":"Established","duration":"Freehold","paon":"72","saon":"","street":"BOWLAND DRIVE","locality":"LIVERPOOL","townOrCity":"LIVERPOOL","district":"SEFTON","county":"MERSEYSIDE","ppdCategoryType":"Standard","recordStatus":"Addition","latitude":53.489233,"longitude":-2.995058,"postcodeStart":"L21 0","postcode":["L21","0JB"]}
{"price":26000,"dateOfTransfer":"2002-05-03T00:00:00","postcodeFull":"L21 0HZ","propertyType":"Terraced","oldOrNew":"Established","duration":"Freehold","paon":"32","saon":"","street":"PENDLE DRIVE","locality":"LIVERPOOL","townOrCity":"LIVERPOOL","district":"SEFTON","county":"MERSEYSIDE","ppdCategoryType":"Standard","recordStatus":"Addition","latitude":53.488711,"longitude":-2.993961,"postcodeStart":"L21 0","postcode":["L21","0HZ"]}
{"price":27000,"dateOfTransfer":"2002-06-28T00:00:00","postcodeFull":"L21 0JQ","propertyType":"Terraced","oldOrNew":"Established","duration":"Freehold","paon":"153","saon":"","street":"BOWLAND DRIVE","locality":"LIVERPOOL","townOrCity":"LIVERPOOL","district":"SEFTON","county":"MERSEYSIDE","ppdCategoryType":"Standard","recordStatus":"Addition","latitude":53.490106,"longitude":-2.992652,"postcodeStart":"L21 0","postcode":["L21","0JQ"]}
{"price":31500,"dateOfTransfer":"2002-01-25T00:00:00","postcodeFull":"L21 0JB","propertyType":"Semi-detached","oldOrNew":"Established","duration":"Freehold","paon":"64","saon":"","street":"BOWLAND DRIVE","locality":"LIVERPOOL","townOrCity":"LIVERPOOL","district":"SEFTON","county":"MERSEYSIDE","ppdCategoryType":"Standard","recordStatus":"Addition","latitude":53.489233,"longitude":-2.995058,"postcodeStart":"L21 0","postcode":["L21","0JB"]}
{"price":25000,"dateOfTransfer":"2002-11-25T00:00:00","postcodeFull":"L21 0HZ","propertyType":"Terraced","oldOrNew":"Established","duration":"Freehold","paon":"22","saon":"","street":"PENDLE DRIVE","locality":"LIVERPOOL","townOrCity":"LIVERPOOL","district":"SEFTON","county":"MERSEYSIDE","ppdCategoryType":"Standard","recordStatus":"Addition","latitude":53.488711,"longitude":-2.993961,"postcodeStart":"L21 0","postcode":["L21","0HZ"]}
{"price":19000,"dateOfTransfer":"2002-08-19T00:00:00","postcodeFull":"L21 0JL","propertyType":"Terraced","oldOrNew":"Established","duration":"Freehold","paon":"190","saon":"","street":"BOWLAND DRIVE","locality":"LIVERPOOL","townOrCity":"LIVERPOOL","district":"SEFTON","county":"MERSEYSIDE","ppdCategoryType":"Standard","recordStatus":"Addition","latitude":53.489123,"longitude":-2.991906,"postcodeStart":"L21 0","postcode":["L21","0JL"]}
{"price":28000,"dateOfTransfer":"2002-06-07T00:00:00","postcodeFull":"L21 0HX","propertyType":"Terraced","oldOrNew":"Established","duration":"Freehold","paon":"73","saon":"","street":"TRAWDEN WAY","locality":"LIVERPOOL","townOrCity":"LIVERPOOL","district":"SEFTON","county":"MERSEYSIDE","ppdCategoryType":"Standard","recordStatus":"Addition","latitude":53.490433,"longitude":-2.993248,"postcodeStart":"L21 0","postcode":["L21","0HX"]}
{"price":60000,"dateOfTransfer":"2002-10-14T00:00:00","postcodeFull":"L21 0DA","propertyType":"Semi-detached","oldOrNew":"Established","duration":"Freehold","paon":"LISEUX","saon":"","street":"STERRIX LANE","locality":"LIVERPOOL","townOrCity":"LIVERPOOL","district":"SEFTON","county":"MERSEYSIDE","ppdCategoryType":"Standard","recordStatus":"Addition","latitude":53.481813,"longitude":-2.98985,"postcodeStart":"L21 0","postcode":["L21","0DA"]}
{"price":36000,"dateOfTransfer":"2002-01-11T00:00:00","postcodeFull":"L21 0DR","propertyType":"Terraced","oldOrNew":"Established","duration":"Freehold","paon":"48","saon":"","street":"LONSDALE ROAD","locality":"FORD","townOrCity":"LIVERPOOL","district":"SEFTON","county":"MERSEYSIDE","ppdCategoryType":"Standard","recordStatus":"Addition","latitude":53.482792,"longitude":-2.996611,"postcodeStart":"L21 0","postcode":["L21","0DR"]}
{"price":39950,"dateOfTransfer":"2002-04-12T00:00:00","postcodeFull":"L21 0HN","propertyType":"Terraced","oldOrNew":"Established","duration":"Freehold","paon":"199","saon":"","street":"FORD LANE","locality":"LIVERPOOL","townOrCity":"LIVERPOOL","district":"SEFTON","county":"MERSEYSIDE","ppdCategoryType":"Standard","recordStatus":"Addition","latitude":53.485748,"longitude":-2.99894,"postcodeStart":"L21 0","postcode":["L21","0HN"]}
{"price":49000,"dateOfTransfer":"2002-12-20T00:00:00","postcodeFull":"L21 0DN","propertyType":"Semi-detached","oldOrNew":"Established","duration":"Freehold","paon":"37","saon":"","street":"GREEN LANE","locality":"FORD","townOrCity":"LIVERPOOL","district":"SEFTON","county":"MERSEYSIDE","ppdCategoryType":"Standard","recordStatus":"Addition","latitude":53.481696,"longitude":-2.998649,"postcodeStart":"L21 0","postcode":["L21","0DN"]}
{"price":32000,"dateOfTransfer":"2002-12-12T00:00:00","postcodeFull":"L21 0DR","propertyType":"Terraced","oldOrNew":"Established","duration":"Freehold","paon":"4","saon":"","street":"LONSDALE ROAD","locality":"FORD","townOrCity":"LIVERPOOL","district":"SEFTON","county":"MERSEYSIDE","ppdCategoryType":"Standard","recordStatus":"Addition","latitude":53.482792,"longitude":-2.996611,"postcodeStart":"L21 0","postcode":["L21","0DR"]}
{"price":33000,"dateOfTransfer":"2002-08-02T00:00:00","postcodeFull":"L21 0JD","propertyType":"Terraced","oldOrNew":"Established","duration":"Freehold","paon":"1","saon":"","street":"BLEASDALE WAY","locality":"LIVERPOOL","townOrCity":"LIVERPOOL","district":"SEFTON","county":"MERSEYSIDE","ppdCategoryType":"Standard","recordStatus":"Addition","latitude":53.489355,"longitude":-2.996418,"postcodeStart":"L21 0","postcode":["L21","0JD"]}
{"price":39950,"dateOfTransfer":"2002-12-13T00:00:00","postcodeFull":"L21 0HN","propertyType":"Terraced","oldOrNew":"Established","duration":"Freehold","paon":"201","saon":"","street":"FORD LANE","locality":"LIVERPOOL","townOrCity":"LIVERPOOL","district":"SEFTON","county":"MERSEYSIDE","ppdCategoryType":"Standard","recordStatus":"Addition","latitude":53.485748,"longitude":-2.99894,"postcodeStart":"L21 0","postcode":["L21","0HN"]}
{"price":20000,"dateOfTransfer":"2002-02-06T00:00:00","postcodeFull":"L21 0JH","propertyType":"Terraced","oldOrNew":"Established","duration":"Freehold","paon":"219","saon":"","street":"BOWLAND DRIVE","locality":"LIVERPOOL","townOrCity":"LIVERPOOL","district":"SEFTON","county":"MERSEYSIDE","ppdCategoryType":"Standard","recordStatus":"Addition","latitude":53.488978,"longitude":-2.991028,"postcodeStart":"L21 0","postcode":["L21","0JH"]}
{"price":37500,"dateOfTransfer":"2003-07-31T00:00:00","postcodeFull":"L21 0DU","propertyType":"Terraced","oldOrNew":"Established","duration":"Freehold","paon":"59","saon":"","street":"WILLIAM WALL ROAD","locality":"LIVERPOOL","townOrCity":"LIVERPOOL","district":"SEFTON","county":"MERSEYSIDE","ppdCategoryType":"Standard","recordStatus":"Addition","latitude":53.480579,"longitude":-2.99897,"postcodeStart":"L21 0","postcode":["L21","0DU"]}
{"price":35000,"dateOfTransfer":"2003-05-21T00:00:00","postcodeFull":"L21 0JH","propertyType":"Terraced","oldOrNew":"Established","duration":"Freehold","paon":"221","saon":"","street":"BOWLAND DRIVE","locality":"LIVERPOOL","townOrCity":"LIVERPOOL","district":"SEFTON","county":"MERSEYSIDE","ppdCategoryType":"Standard","recordStatus":"Addition","latitude":53.488978,"longitude":-2.991028,"postcodeStart":"L21 0","postcode":["L21","0JH"]}
{"price":39500,"dateOfTransfer":"2003-10-02T00:00:00","postcodeFull":"L21 0HG","propertyType":"Terraced","oldOrNew":"Established","duration":"Freehold","paon":"17","saon":"","street":"FORD LANE","locality":"LIVERPOOL","townOrCity":"LIVERPOOL","district":"SEFTON","county":"MERSEYSIDE","ppdCategoryType":"Standard","recordStatus":"Addition","latitude":53.481336,"longitude":-3.000871,"postcodeStart":"L21 0","postcode":["L21","0HG"]}
{"price":38500,"dateOfTransfer":"2003-05-30T00:00:00","postcodeFull":"L21 0HZ","propertyType":"Terraced","oldOrNew":"Established","duration":"Freehold","paon":"56","saon":"","street":"PENDLE DRIVE","locality":"LIVERPOOL","townOrCity":"LIVERPOOL","district":"SEFTON","county":"MERSEYSIDE","ppdCategoryType":"Standard","recordStatus":"Addition","latitude":53.488711,"longitude":-2.993961,"postcodeStart":"L21 0","postcode":["L21","0HZ"]}
{"price":45000,"dateOfTransfer":"2003-04-17T00:00:00","postcodeFull":"L21 0JQ","propertyType":"Terraced","oldOrNew":"Established","duration":"Freehold","paon":"109","saon":"","street":"BOWLAND DRIVE","locality":"LIVERPOOL","townOrCity":"LIVERPOOL","district":"SEFTON","county":"MERSEYSIDE","ppdCategoryType":"Standard","recordStatus":"Addition","latitude":53.490106,"longitude":-2.992652,"postcodeStart":"L21 0","postcode":["L21","0JQ"]}
{"price":117519,"dateOfTransfer":"2003-08-08T00:00:00","postcodeFull":"L21 0EG","propertyType":"Semi-detached","oldOrNew":"Established","duration":"Freehold","paon":"37","saon":"","street":"KIRKSTONE ROAD WEST","locality":"LIVERPOOL","townOrCity":"LIVERPOOL","district":"SEFTON","county":"MERSEYSIDE","ppdCategoryType":"Standard","recordStatus":"Addition","latitude":53.479995,"longitude":-2.999996,"postcodeStart":"L21 0","postcode":["L21","0EG"]}
{"price":46000,"dateOfTransfer":"2003-10-24T00:00:00","postcodeFull":"L21 0HY","propertyType":"Terraced","oldOrNew":"Established","duration":"Freehold","paon":"5","saon":"","street":"PENDLE DRIVE","locality":"LIVERPOOL","townOrCity":"LIVERPOOL","district":"SEFTON","county":"MERSEYSIDE","ppdCategoryType":"Standard","recordStatus":"Addition","latitude":53.488282,"longitude":-2.994674,"postcodeStart":"L21 0","postcode":["L21","0HY"]}
{"price":29000,"dateOfTransfer":"2003-03-10T00:00:00","postcodeFull":"L21 0JW","propertyType":"Terraced","oldOrNew":"Established","duration":"Freehold","paon":"5","saon":"","street":"NUNSFORD CLOSE","locality":"LIVERPOOL","townOrCity":"LIVERPOOL","district":"SEFTON","county":"MERSEYSIDE","ppdCategoryType":"Standard","recordStatus":"Addition","latitude":53.481572,"longitude":-2.987631,"postcodeStart":"L21 0","postcode":["L21","0JW"]}
{"price":16640,"dateOfTransfer":"2003-10-28T00:00:00","postcodeFull":"L21 0JB","propertyType":"Terraced","oldOrNew":"Established","duration":"Freehold","paon":"12","saon":"","street":"BOWLAND DRIVE","locality":"LIVERPOOL","townOrCity":"LIVERPOOL","district":"SEFTON","county":"MERSEYSIDE","ppdCategoryType":"Standard","recordStatus":"Addition","latitude":53.489233,"longitude":-2.995058,"postcodeStart":"L21 0","postcode":["L21","0JB"]}
{"price":19750,"dateOfTransfer":"2003-09-17T00:00:00","postcodeFull":"L21 0JJ","propertyType":"Terraced","oldOrNew":"Established","duration":"Freehold","paon":"90","saon":"","street":"BOWLAND DRIVE","locality":"LIVERPOOL","townOrCity":"LIVERPOOL","district":"SEFTON","county":"MERSEYSIDE","ppdCategoryType":"Standard","recordStatus":"Addition","latitude":53.489635,"longitude":-2.993109,"postcodeStart":"L21 0","postcode":["L21","0JJ"]}
{"price":75000,"dateOfTransfer":"2003-08-29T00:00:00","postcodeFull":"L21 0HJ","propertyType":"Semi-detached","oldOrNew":"Established","duration":"Freehold","paon":"16","saon":"","street":"BRIDGE CROFT","locality":"LIVERPOOL","townOrCity":"LIVERPOOL","district":"SEFTON","county":"MERSEYSIDE","ppdCategoryType":"Standard","recordStatus":"Addition","latitude":53.48533,"longitude":-2.995193,"postcodeStart":"L21 0","postcode":["L21","0HJ"]}
{"price":55500,"dateOfTransfer":"2003-08-08T00:00:00","postcodeFull":"L21 0DG","propertyType":"Terraced","oldOrNew":"Established","duration":"Freehold","paon":"109","saon":"","street":"GORSEY LANE","locality":"FORD","townOrCity":"LIVERPOOL","district":"SEFTON","county":"MERSEYSIDE","ppdCategoryType":"Standard","recordStatus":"Addition","latitude":53.482804,"longitude":-2.996204,"postcodeStart":"L21 0","postcode":["L21","0DG"]}
{"price":46000,"dateOfTransfer":"2003-06-09T00:00:00","postcodeFull":"L21 0HX","propertyType":"Terraced","oldOrNew":"Established","duration":"Freehold","paon":"35","saon":"","street":"TRAWDEN WAY","locality":"LIVERPOOL","townOrCity":"LIVERPOOL","district":"SEFTON","county":"MERSEYSIDE","ppdCategoryType":"Standard","recordStatus":"Addition","latitude":53.490433,"longitude":-2.993248,"postcodeStart":"L21 0","postcode":["L21","0HX"]}
{"price":33000,"dateOfTransfer":"2003-04-01T00:00:00","postcodeFull":"L21 0JA","propertyType":"Terraced","oldOrNew":"Established","duration":"Freehold","paon":"37","saon":"","street":"BOWLAND DRIVE","locality":"LIVERPOOL","townOrCity":"LIVERPOOL","district":"SEFTON","county":"MERSEYSIDE","ppdCategoryType":"Standard","recordStatus":"Addition","latitude":53.48956,"longitude":-2.995579,"postcodeStart":"L21 0","postcode":["L21","0JA"]}
{"price":98250,"dateOfTransfer":"2003-06-27T00:00:00","postcodeFull":"L21 0EE","propertyType":"Semi-detached","oldOrNew":"Established","duration":"Leasehold","paon":"1","saon":"","street":"PANKHURST ROAD","locality":"LIVERPOOL","townOrCity":"LIVERPOOL","district":"SEFTON","county":"MERSEYSIDE","ppdCategoryType":"Standard","recordStatus":"Addition","latitude":53.479143,"longitude":-2.995425,"postcodeStart":"L21 0","postcode":["L21","0EE"]}
{"price":39000,"dateOfTransfer":"2003-06-27T00:00:00","postcodeFull":"L21 0HZ","propertyType":"Terraced","oldOrNew":"Established","duration":"Freehold","paon":"64","saon":"","street":"PENDLE DRIVE","locality":"LIVERPOOL","townOrCity":"LIVERPOOL","district":"SEFTON","county":"MERSEYSIDE","ppdCategoryType":"Standard","recordStatus":"Addition","latitude":53.488711,"longitude":-2.993961,"postcodeStart":"L21 0","postcode":["L21","0HZ"]}
{"price":46950,"dateOfTransfer":"2003-11-14T00:00:00","postcodeFull":"L21 0JH","propertyType":"Terraced","oldOrNew":"Established","duration":"Freehold","paon":"273","saon":"","street":"BOWLAND DRIVE","locality":"LIVERPOOL","townOrCity":"LIVERPOOL","district":"SEFTON","county":"MERSEYSIDE","ppdCategoryType":"Standard","recordStatus":"Addition","latitude":53.488978,"longitude":-2.991028,"postcodeStart":"L21 0","postcode":["L21","0JH"]}
{"price":34000,"dateOfTransfer":"2003-10-03T00:00:00","postcodeFull":"L21 0HZ","propertyType":"Terraced","oldOrNew":"Established","duration":"Freehold","paon":"74","saon":"","street":"PENDLE DRIVE","locality":"LIVERPOOL","townOrCity":"LIVERPOOL","district":"SEFTON","county":"MERSEYSIDE","ppdCategoryType":"Standard","recordStatus":"Addition","latitude":53.488711,"longitude":-2.993961,"postcodeStart":"L21 0","postcode":["L21","0HZ"]}
{"price":51000,"dateOfTransfer":"2003-12-18T00:00:00","postcodeFull":"L21 0HX","propertyType":"Terraced","oldOrNew":"Established","duration":"Freehold","paon":"109","saon":"","street":"TRAWDEN WAY","locality":"LIVERPOOL","townOrCity":"LIVERPOOL","district":"SEFTON","county":"MERSEYSIDE","ppdCategoryType":"Standard","recordStatus":"Addition","latitude":53.490433,"longitude":-2.993248,"postcodeStart":"L21 0","postcode":["L21","0HX"]}
{"price":41950,"dateOfTransfer":"2003-08-01T00:00:00","postcodeFull":"L21 0JH","propertyType":"Terraced","oldOrNew":"Established","duration":"Freehold","paon":"223","saon":"","street":"BOWLAND DRIVE","locality":"LIVERPOOL","townOrCity":"LIVERPOOL","district":"SEFTON","county":"MERSEYSIDE","ppdCategoryType":"Standard","recordStatus":"Addition","latitude":53.488978,"longitude":-2.991028,"postcodeStart":"L21 0","postcode":["L21","0JH"]}
{"price":48000,"dateOfTransfer":"2003-09-29T00:00:00","postcodeFull":"L21 0HZ","propertyType":"Terraced","oldOrNew":"Established","duration":"Freehold","paon":"32","saon":"","street":"PENDLE DRIVE","locality":"LIVERPOOL","townOrCity":"LIVERPOOL","district":"SEFTON","county":"MERSEYSIDE","ppdCategoryType":"Standard","recordStatus":"Addition","latitude":53.488711,"longitude":-2.993961,"postcodeStart":"L21 0","postcode":["L21","0HZ"]}
{"price":56300,"dateOfTransfer":"2004-01-30T00:00:00","postcodeFull":"L21 0JQ","propertyType":"Terraced","oldOrNew":"Established","duration":"Freehold","paon":"113","saon":"","street":"BOWLAND DRIVE","locality":"LIVERPOOL","townOrCity":"LIVERPOOL","district":"SEFTON","county":"MERSEYSIDE","ppdCategoryType":"Standard","recordStatus":"Addition","latitude":53.490106,"longitude":-2.992652,"postcodeStart":"L21 0","postcode":["L21","0JQ"]}
{"price":30080,"dateOfTransfer":"2004-10-25T00:00:00","postcodeFull":"L21 0JQ","propertyType":"Terraced","oldOrNew":"Established","duration":"Freehold","paon":"173","saon":"","street":"BOWLAND DRIVE","locality":"LIVERPOOL","townOrCity":"LIVERPOOL","district":"SEFTON","county":"MERSEYSIDE","ppdCategoryType":"Standard","recordStatus":"Addition","latitude":53.490106,"longitude":-2.992652,"postcodeStart":"L21 0","postcode":["L21","0JQ"]}
{"price":76000,"dateOfTransfer":"2004-07-16T00:00:00","postcodeFull":"L21 0HH","propertyType":"Terraced","oldOrNew":"Established","duration":"Freehold","paon":"8","saon":"","street":"CARR CROFT","locality":"LIVERPOOL","townOrCity":"LIVERPOOL","district":"SEFTON","county":"MERSEYSIDE","ppdCategoryType":"Standard","recordStatus":"Addition","latitude":53.485699,"longitude":-2.996181,"postcodeStart":"L21 0","postcode":["L21","0HH"]}
{"price":80000,"dateOfTransfer":"2004-02-20T00:00:00","postcodeFull":"L21 0EY","propertyType":"Semi-detached","oldOrNew":"Established","duration":"Freehold","paon":"53","saon":"","street":"OATFIELD LANE","locality":"LIVERPOOL","townOrCity":"LIVERPOOL","district":"SEFTON","county":"MERSEYSIDE","ppdCategoryType":"Standard","recordStatus":"Addition","latitude":53.482451,"longitude":-2.99948,"postcodeStart":"L21 0","postcode":["L21","0EY"]}
{"price":36000,"dateOfTransfer":"2004-08-23T00:00:00","postcodeFull":"L21 0EN","propertyType":"Flat/Maisonette/Townhouse","oldOrNew":"Established","duration":"Leasehold","paon":"3","saon":"","street":"FOUR ACRE DRIVE","locality":"LIVERPOOL","townOrCity":"LIVERPOOL","district":"SEFTON","county":"MERSEYSIDE","ppdCategoryType":"Standard","recordStatus":"Addition","latitude":53.482977,"longitude":-2.998077,"postcodeStart":"L21 0","postcode":["L21","0EN"]}
{"price":58500,"dateOfTransfer":"2004-03-12T00:00:00","postcodeFull":"L21 0HZ","propertyType":"Terraced","oldOrNew":"Established","duration":"Freehold","paon":"74","saon":"","street":"PENDLE DRIVE","locality":"LIVERPOOL","townOrCity":"LIVERPOOL","district":"SEFTON","county":"MERSEYSIDE","ppdCategoryType":"Standard","recordStatus":"Addition","latitude":53.488711,"longitude":-2.993961,"postcodeStart":"L21 0","postcode":["L21","0HZ"]}
{"price":79000,"dateOfTransfer":"2004-11-26T00:00:00","postcodeFull":"L21 0EN","propertyType":"Terraced","oldOrNew":"Established","duration":"Freehold","paon":"57","saon":"","street":"FOUR ACRE DRIVE","locality":"LIVERPOOL","townOrCity":"LIVERPOOL","district":"SEFTON","county":"MERSEYSIDE","ppdCategoryType":"Standard","recordStatus":"Addition","latitude":53.482977,"longitude":-2.998077,"postcodeStart":"L21 0","postcode":["L21","0EN"]}
{"price":23000,"dateOfTransfer":"2004-04-15T00:00:00","postcodeFull":"L21 0DX","propertyType":"Terraced","oldOrNew":"Established","duration":"Freehold","paon":"14","saon":"","street":"WILLIAM WALL ROAD","locality":"LIVERPOOL","townOrCity":"LIVERPOOL","district":"SEFTON","county":"MERSEYSIDE","ppdCategoryType":"Standard","recordStatus":"Addition","latitude":53.480985,"longitude":-2.998768,"postcodeStart":"L21 0","postcode":["L21","0DX"]}
{"price":45000,"dateOfTransfer":"2004-04-08T00:00:00","postcodeFull":"L21 0JD","propertyType":"Terraced","oldOrNew":"Established","duration":"Freehold","paon":"1","saon":"","street":"BLEASDALE WAY","locality":"LIVERPOOL","townOrCity":"LIVERPOOL","district":"SEFTON","county":"MERSEYSIDE","ppdCategoryType":"Standard","recordStatus":"Addition","latitude":53.489355,"longitude":-2.996418,"postcodeStart":"L21 0","postcode":["L21","0JD"]}
{"price":50000,"dateOfTransfer":"2004-01-14T00:00:00","postcodeFull":"L21 0DF","propertyType":"Semi-detached","oldOrNew":"Established","duration":"Freehold","paon":"91","saon":"","street":"GORSEY LANE","locality":"FORD","townOrCity":"LIVERPOOL","district":"SEFTON","county":"MERSEYSIDE","ppdCategoryType":"Standard","recordStatus":"Addition","latitude":53.481307,"longitude":-2.996877,"postcodeStart":"L21 0","postcode":["L21","0DF"]}
{"price":51000,"dateOfTransfer":"2004-06-25T00:00:00","postcodeFull":"L21 0HX","propertyType":"Terraced","oldOrNew":"Established","duration":"Freehold","paon":"11","saon":"","street":"TRAWDEN WAY","locality":"LIVERPOOL","townOrCity":"LIVERPOOL","district":"SEFTON","county":"MERSEYSIDE","ppdCategoryType":"Standard","recordStatus":"Addition","latitude":53.490433,"longitude":-2.993248,"postcodeStart":"L21 0","postcode":["L21","0HX"]}
{"price":45000,"dateOfTransfer":"2004-06-07T00:00:00","postcodeFull":"L21 0EU","propertyType":"Terraced","oldOrNew":"Established","duration":"Freehold","paon":"7","saon":"","street":"FORD VIEW","locality":"LIVERPOOL","townOrCity":"LIVERPOOL","district":"SEFTON","county":"MERSEYSIDE","ppdCategoryType":"Standard","recordStatus":"Addition","latitude":53.484194,"longitude":-2.999823,"postcodeStart":"L21 0","postcode":["L21","0EU"]}
{"price":26000,"dateOfTransfer":"2004-04-20T00:00:00","postcodeFull":"L21 0JA","propertyType":"Terraced","oldOrNew":"Established","duration":"Freehold","paon":"15","saon":"","street":"BOWLAND DRIVE","locality":"LIVERPOOL","townOrCity":"LIVERPOOL","district":"SEFTON","county":"MERSEYSIDE","ppdCategoryType":"Standard","recordStatus":"Addition","latitude":53.48956,"longitude":-2.995579,"postcodeStart":"L21 0","postcode":["L21","0JA"]}
{"price":78000,"dateOfTransfer":"2004-08-06T00:00:00","postcodeFull":"L21 0JE","propertyType":"Terraced","oldOrNew":"Established","duration":"Freehold","paon":"5","saon":"","street":"FULWOOD WAY","locality":"LIVERPOOL","townOrCity":"LIVERPOOL","district":"SEFTON","county":"MERSEYSIDE","ppdCategoryType":"Standard","recordStatus":"Addition","latitude":53.488264,"longitude":-2.995774,"postcodeStart":"L21 0","postcode":["L21","0JE"]}
{"price":84400,"dateOfTransfer":"2004-09-24T00:00:00","postcodeFull":"L21 0DS","propertyType":"Terraced","oldOrNew":"Established","duration":"Freehold","paon":"60","saon":"","street":"LONSDALE ROAD","locality":"FORD","townOrCity":"LIVERPOOL","district":"SEFTON","county":"MERSEYSIDE","ppdCategoryType":"Standard","recordStatus":"Addition","latitude":53.483951,"longitude":-2.995628,"postcodeStart":"L21 0","postcode":["L21","0DS"]}
{"price":44950,"dateOfTransfer":"2004-01-09T00:00:00","postcodeFull":"L21 0HE","propertyType":"Semi-detached","oldOrNew":"Established","duration":"Freehold","paon":"39","saon":"","street":"RYEFIELD LANE","locality":"LIVERPOOL","townOrCity":"LIVERPOOL","district":"SEFTON","county":"MERSEYSIDE","ppdCategoryType":"Standard","recordStatus":"Addition","latitude":53.485089,"longitude":-2.998141,"postcodeStart":"L21 0","postcode":["L21","0HE"]}
{"price":18900,"dateOfTransfer":"2004-10-11T00:00:00","postcodeFull":"L21 0DT","propertyType":"Semi-detached","oldOrNew":"Established","duration":"Freehold","paon":"27","saon":"","street":"WHEATFIELD VIEW","locality":"LIVERPOOL","townOrCity":"LIVERPOOL","district":"SEFTON","county":"MERSEYSIDE","ppdCategoryType":"Standard","recordStatus":"Addition","latitude":53.481264,"longitude":-2.99876,"postcodeStart":"L21 0","postcode":["L21","0DT"]}
{"price":123000,"dateOfTransfer":"2004-02-27T00:00:00","postcodeFull":"L21 0EQ","propertyType":"Semi-detached","oldOrNew":"Established","duration":"Freehold","paon":"32","saon":"","street":"KIRKSTONE ROAD WEST","locality":"LIVERPOOL","townOrCity":"LIVERPOOL","district":"SEFTON","county":"MERSEYSIDE","ppdCategoryType":"Standard","recordStatus":"Addition","latitude":53.480313,"longitude":-2.999626,"postcodeStart":"L21 0","postcode":["L21","0EQ"]}
{"price":50000,"dateOfTransfer":"2004-06-29T00:00:00","postcodeFull":"L21 0JL","propertyType":"Terraced","oldOrNew":"Established","duration":"Freehold","paon":"234","saon":"","street":"BOWLAND DRIVE","locality":"LIVERPOOL","townOrCity":"LIVERPOOL","district":"SEFTON","county":"MERSEYSIDE","ppdCategoryType":"Standard","recordStatus":"Addition","latitude":53.489123,"longitude":-2.991906,"postcodeStart":"L21 0","postcode":["L21","0JL"]}
{"price":147500,"dateOfTransfer":"2004-05-14T00:00:00","postcodeFull":"L21 0EG","propertyType":"Semi-detached","oldOrNew":"Established","duration":"Freehold","paon":"21","saon":"","street":"KIRKSTONE ROAD WEST","locality":"LIVERPOOL","townOrCity":"LIVERPOOL","district":"SEFTON","county":"MERSEYSIDE","ppdCategoryType":"Standard","recordStatus":"Addition","latitude":53.479995,"longitude":-2.999996,"postcodeStart":"L21 0","postcode":["L21","0EG"]}
{"price":57000,"dateOfTransfer":"2004-07-30T00:00:00","postcodeFull":"L21 0JA","propertyType":"Terraced","oldOrNew":"Established","duration":"Freehold","paon":"41","saon":"","street":"BOWLAND DRIVE","locality":"LIVERPOOL","townOrCity":"LIVERPOOL","district":"SEFTON","county":"MERSEYSIDE","ppdCategoryType":"Standard","recordStatus":"Addition","latitude":53.48956,"longitude":-2.995579,"postcodeStart":"L21 0","postcode":["L21","0JA"]}
{"price":89950,"dateOfTransfer":"2004-10-20T00:00:00","postcodeFull":"L21 0HY","propertyType":"Semi-detached","oldOrNew":"Established","duration":"Freehold","paon":"7","saon":"","street":"PENDLE DRIVE","locality":"LIVERPOOL","townOrCity":"LIVERPOOL","district":"SEFTON","county":"MERSEYSIDE","ppdCategoryType":"Standard","recordStatus":"Addition","latitude":53.488282,"longitude":-2.994674,"postcodeStart":"L21 0","postcode":["L21","0HY"]}
{"price":89950,"dateOfTransfer":"2004-09-24T00:00:00","postcodeFull":"L21 0HJ","propertyType":"Terraced","oldOrNew":"Established","duration":"Freehold","paon":"19","saon":"","street":"BRIDGE CROFT","locality":"LIVERPOOL","townOrCity":"LIVERPOOL","district":"SEFTON","county":"MERSEYSIDE","ppdCategoryType":"Standard","recordStatus":"Addition","latitude":53.48533,"longitude":-2.995193,"postcodeStart":"L21 0","postcode":["L21","0HJ"]}
{"price":59950,"dateOfTransfer":"2004-07-29T00:00:00","postcodeFull":"L21 0HX","propertyType":"Terraced","oldOrNew":"Established","duration":"Freehold","paon":"15","saon":"","street":"TRAWDEN WAY","locality":"LIVERPOOL","townOrCity":"LIVERPOOL","district":"SEFTON","county":"MERSEYSIDE","ppdCategoryType":"Standard","recordStatus":"Addition","latitude":53.490433,"longitude":-2.993248,"postcodeStart":"L21 0","postcode":["L21","0HX"]}
{"price":77000,"dateOfTransfer":"2004-06-04T00:00:00","postcodeFull":"L21 0HT","propertyType":"Terraced","oldOrNew":"Established","duration":"Freehold","paon":"120","saon":"","street":"FORD LANE","locality":"LIVERPOOL","townOrCity":"LIVERPOOL","district":"SEFTON","county":"MERSEYSIDE","ppdCategoryType":"Standard","recordStatus":"Addition","latitude":53.485309,"longitude":-2.998704,"postcodeStart":"L21 0","postcode":["L21","0HT"]}
{"price":66500,"dateOfTransfer":"2004-12-13T00:00:00","postcodeFull":"L21 0JA","propertyType":"Terraced","oldOrNew":"Established","duration":"Freehold","paon":"87","saon":"","street":"BOWLAND DRIVE","locality":"LIVERPOOL","townOrCity":"LIVERPOOL","district":"SEFTON","county":"MERSEYSIDE","ppdCategoryType":"Standard","recordStatus":"Addition","latitude":53.48956,"longitude":-2.995579,"postcodeStart":"L21 0","postcode":["L21","0JA"]}
{"price":88500,"dateOfTransfer":"2005-06-22T00:00:00","postcodeFull":"L21 0JJ","propertyType":"Terraced","oldOrNew":"Established","duration":"Freehold","paon":"108","saon":"","street":"BOWLAND DRIVE","locality":"LIVERPOOL","townOrCity":"LIVERPOOL","district":"SEFTON","county":"MERSEYSIDE","ppdCategoryType":"Standard","recordStatus":"Addition","latitude":53.489635,"longitude":-2.993109,"postcodeStart":"L21 0","postcode":["L21","0JJ"]}
{"price":65000,"dateOfTransfer":"2005-06-01T00:00:00","postcodeFull":"L21 0JD","propertyType":"Terraced","oldOrNew":"Established","duration":"Freehold","paon":"21","saon":"","street":"BLEASDALE WAY","locality":"LIVERPOOL","townOrCity":"LIVERPOOL","district":"SEFTON","county":"MERSEYSIDE","ppdCategoryType":"Standard","recordStatus":"Addition","latitude":53.489355,"longitude":-2.996418,"postcodeStart":"L21 0","postcode":["L21","0JD"]}
{"price":95000,"dateOfTransfer":"2005-08-12T00:00:00","postcodeFull":"L21 0EN","propertyType":"Terraced","oldOrNew":"Established","duration":"Freehold","paon":"21","saon":"","street":"FOUR ACRE DRIVE","locality":"LIVERPOOL","townOrCity":"LIVERPOOL","district":"SEFTON","county":"MERSEYSIDE","ppdCategoryType":"Standard","recordStatus":"Addition","latitude":53.482977,"longitude":-2.998077,"postcodeStart":"L21 0","postcode":["L21","0EN"]}
{"price":96500,"dateOfTransfer":"2005-09-12T00:00:00","postcodeFull":"L21 0EZ","propertyType":"Terraced","oldOrNew":"Established","duration":"Freehold","paon":"40","saon":"","street":"OATFIELD LANE","locality":"LIVERPOOL","townOrCity":"LIVERPOOL","district":"SEFTON","county":"MERSEYSIDE","ppdCategoryType":"Standard","recordStatus":"Addition","latitude":53.483081,"longitude":-2.998622,"postcodeStart":"L21 0","postcode":["L21","0EZ"]}
{"price":58000,"dateOfTransfer":"2005-08-16T00:00:00","postcodeFull":"L21 0HZ","propertyType":"Terraced","oldOrNew":"Established","duration":"Freehold","paon":"64","saon":"","street":"PENDLE DRIVE","locality":"LIVERPOOL","townOrCity":"LIVERPOOL","district":"SEFTON","county":"MERSEYSIDE","ppdCategoryType":"Standard","recordStatus":"Addition","latitude":53.488711,"longitude":-2.993961,"postcodeStart":"L21 0","postcode":["L21","0HZ"]}
{"price":89000,"dateOfTransfer":"2005-04-01T00:00:00","postcodeFull":"L21 0DW","propertyType":"Semi-detached","oldOrNew":"Established","duration":"Freehold","paon":"22","saon":"","street":"GREEN LANE","locality":"FORD","townOrCity":"LIVERPOOL","district":"SEFTON","county":"MERSEYSIDE","ppdCategoryType":"Standard","recordStatus":"Addition","latitude":53.481987,"longitude":-2.998264,"postcodeStart":"L21 0","postcode":["L21","0DW"]}
{"price":85000,"dateOfTransfer":"2005-10-28T00:00:00","postcodeFull":"L21 0HJ","propertyType":"Terraced","oldOrNew":"Established","duration":"Freehold","paon":"15","saon":"","street":"BRIDGE CROFT","locality":"LIVERPOOL","townOrCity":"LIVERPOOL","district":"SEFTON","county":"MERSEYSIDE","ppdCategoryType":"Standard","recordStatus":"Addition","latitude":53.48533,"longitude":-2.995193,"postcodeStart":"L21 0","postcode":["L21","0HJ"]}
{"price":89000,"dateOfTransfer":"2005-08-12T00:00:00","postcodeFull":"L21 0HP","propertyType":"Terraced","oldOrNew":"Established","duration":"Freehold","paon":"309","saon":"","street":"FORD LANE","locality":"LIVERPOOL","townOrCity":"LIVERPOOL","district":"SEFTON","county":"MERSEYSIDE","ppdCategoryType":"Standard","recordStatus":"Addition","latitude":53.484845,"longitude":-2.995152,"postcodeStart":"L21 0","postcode":["L21","0HP"]}
{"price":93000,"dateOfTransfer":"2005-08-12T00:00:00","postcodeFull":"L21 0HF","propertyType":"Semi-detached","oldOrNew":"Established","duration":"Freehold","paon":"30","saon":"","street":"RYEFIELD LANE","locality":"LIVERPOOL","townOrCity":"LIVERPOOL","district":"SEFTON","county":"MERSEYSIDE","ppdCategoryType":"Standard","recordStatus":"Addition","latitude":53.484694,"longitude":-2.998147,"postcodeStart":"L21 0","postcode":["L21","0HF"]}
{"price":129950,"dateOfTransfer":"2005-10-21T00:00:00","postcodeFull":"L21 0EF","propertyType":"Semi-detached","oldOrNew":"Established","duration":"Leasehold","paon":"4","saon":"","street":"PANKHURST ROAD","locality":"LIVERPOOL","townOrCity":"LIVERPOOL","district":"SEFTON","county":"MERSEYSIDE","ppdCategoryType":"Standard","recordStatus":"Addition","latitude":53.479166,"longitude":-2.994898,"postcodeStart":"L21 0","postcode":["L21","0EF"]}
{"price":71000,"dateOfTransfer":"2005-05-04T00:00:00","postcodeFull":"L21 0HX","propertyType":"Terraced","oldOrNew":"Established","duration":"Freehold","paon":"9","saon":"","street":"TRAWDEN WAY","locality":"LIVERPOOL","townOrCity":"LIVERPOOL","district":"SEFTON","county":"MERSEYSIDE","ppdCategoryType":"Standard","recordStatus":"Addition","latitude":53.490433,"longitude":-2.993248,"postcodeStart":"L21 0","postcode":["L21","0HX"]}
{"price":140000,"dateOfTransfer":"2005-10-21T00:00:00","postcodeFull":"L21 0EG","propertyType":"Terraced","oldOrNew":"Established","duration":"Freehold","paon":"45","saon":"","street":"KIRKSTONE ROAD WEST","locality":"LIVERPOOL","townOrCity":"LIVERPOOL","district":"SEFTON","county":"MERSEYSIDE","ppdCategoryType":"Standard","recordStatus":"Addition","latitude":53.479995,"longitude":-2.999996,"postcodeStart":"L21 0","postcode":["L21","0EG"]}
{"price":85950,"dateOfTransfer":"2005-10-24T00:00:00","postcodeFull":"L21 0HE","propertyType":"Terraced","oldOrNew":"Established","duration":"Freehold","paon":"45","saon":"","street":"RYEFIELD LANE","locality":"LIVERPOOL","townOrCity":"LIVERPOOL","district":"SEFTON","county":"MERSEYSIDE","ppdCategoryType":"Standard","recordStatus":"Addition","latitude":53.485089,"longitude":-2.998141,"postcodeStart":"L21 0","postcode":["L21","0HE"]}
{"price":54000,"dateOfTransfer":"2005-02-24T00:00:00","postcodeFull":"L21 0JJ","propertyType":"Terraced","oldOrNew":"Established","duration":"Freehold","paon":"90","saon":"","street":"BOWLAND DRIVE","locality":"LIVERPOOL","townOrCity":"LIVERPOOL","district":"SEFTON","county":"MERSEYSIDE","ppdCategoryType":"Standard","recordStatus":"Addition","latitude":53.489635,"longitude":-2.993109,"postcodeStart":"L21 0","postcode":["L21","0JJ"]}
{"price":130000,"dateOfTransfer":"2005-02-18T00:00:00","postcodeFull":"L21 0EQ","propertyType":"Semi-detached","oldOrNew":"Established","duration":"Freehold","paon":"42","saon":"","street":"KIRKSTONE ROAD WEST","locality":"LIVERPOOL","townOrCity":"LIVERPOOL","district":"SEFTON","county":"MERSEYSIDE","ppdCategoryType":"Standard","recordStatus":"Addition","latitude":53.480313,"longitude":-2.999626,"postcodeStart":"L21 0","postcode":["L21","0EQ"]}
{"price":89000,"dateOfTransfer":"2005-06-24T00:00:00","postcodeFull":"L21 0HA","propertyType":"Terraced","oldOrNew":"Established","duration":"Freehold","paon":"2","saon":"","street":"HEATHVIEW","locality":"LIVERPOOL","townOrCity":"LIVERPOOL","district":"SEFTON","county":"MERSEYSIDE","ppdCategoryType":"Standard","recordStatus":"Addition","latitude":53.483901,"longitude":-2.9984,"postcodeStart":"L21 0","postcode":["L21","0HA"]}
{"price":48000,"dateOfTransfer":"2005-12-02T00:00:00","postcodeFull":"L21 0EN","propertyType":"Flat/Maisonette/Townhouse","oldOrNew":"Established","duration":"Leasehold","paon":"3","saon":"","street":"FOUR ACRE DRIVE","locality":"LIVERPOOL","townOrCity":"LIVERPOOL","district":"SEFTON","county":"MERSEYSIDE","ppdCategoryType":"Standard","recordStatus":"Addition","latitude":53.482977,"longitude":-2.998077,"postcodeStart":"L21 0","postcode":["L21","0EN"]}
{"price":103950,"dateOfTransfer":"2006-12-20T00:00:00","postcodeFull":"L21 0DQ","propertyType":"Semi-detached","oldOrNew":"Established","duration":"Freehold","paon":"143","saon":"","street":"GORSEY LANE","locality":"FORD","townOrCity":"LIVERPOOL","district":"SEFTON","county":"MERSEYSIDE","ppdCategoryType":"Standard","recordStatus":"Addition","latitude":53.484883,"longitude":-2.994821,"postcodeStart":"L21 0","postcode":["L21","0DQ"]}
{"price":146000,"dateOfTransfer":"2006-08-17T00:00:00","postcodeFull":"L21 0DE","propertyType":"Semi-detached","oldOrNew":"Established","duration":"Freehold","paon":"53","saon":"","street":"GORSEY LANE","locality":"FORD","townOrCity":"LIVERPOOL","district":"SEFTON","county":"MERSEYSIDE","ppdCategoryType":"Standard","recordStatus":"Addition","latitude":53.478657,"longitude":-2.996574,"postcodeStart":"L21 0","postcode":["L21","0DE"]}
{"price":75000,"dateOfTransfer":"2006-03-03T00:00:00","postcodeFull":"L21 0JH","propertyType":"Terraced","oldOrNew":"Established","duration":"Freehold","paon":"209","saon":"","street":"BOWLAND DRIVE","locality":"LIVERPOOL","townOrCity":"LIVERPOOL","district":"SEFTON","county":"MERSEYSIDE","ppdCategoryType":"Standard","recordStatus":"Addition","latitude":53.488978,"longitude":-2.991028,"postcodeStart":"L21 0","postcode":["L21","0JH"]}
{"price":100000,"dateOfTransfer":"2006-04-07T00:00:00","postcodeFull":"L21 0DQ","propertyType":"Terraced","oldOrNew":"Established","duration":"Freehold","paon":"137","saon":"","street":"GORSEY LANE","locality":"FORD","townOrCity":"LIVERPOOL","district":"SEFTON","county":"MERSEYSIDE","ppdCategoryType":"Standard","recordStatus":"Addition","latitude":53.484883,"longitude":-2.994821,"postcodeStart":"L21 0","postcode":["L21","0DQ"]}
{"price":82000,"dateOfTransfer":"2006-12-01T00:00:00","postcodeFull":"L21 0JE","propertyType":"Terraced","oldOrNew":"Established","duration":"Freehold","paon":"47","saon":"","street":"FULWOOD WAY","locality":"LIVERPOOL","townOrCity":"LIVERPOOL","district":"SEFTON","county":"MERSEYSIDE","ppdCategoryType":"Standard","recordStatus":"Addition","latitude":53.488264,"longitude":-2.995774,"postcodeStart":"L21 0","postcode":["L21","0JE"]}
{"price":90000,"dateOfTransfer":"2006-10-13T00:00:00","postcodeFull":"L21 0JH","propertyType":"Semi-detached","oldOrNew":"Established","duration":"Freehold","paon":"283","saon":"","street":"BOWLAND DRIVE","locality":"LIVERPOOL","townOrCity":"LIVERPOOL","district":"SEFTON","county":"MERSEYSIDE","ppdCategoryType":"Standard","recordStatus":"Addition","latitude":53.488978,"longitude":-2.991028,"postcodeStart":"L21 0","postcode":["L21","0JH"]}
{"price":85000,"dateOfTransfer":"2006-10-23T00:00:00","postcodeFull":"L21 0HX","propertyType":"Terraced","oldOrNew":"Established","duration":"Freehold","paon":"59","saon":"","street":"TRAWDEN WAY","locality":"LIVERPOOL","townOrCity":"LIVERPOOL","district":"SEFTON","county":"MERSEYSIDE","ppdCategoryType":"Standard","recordStatus":"Addition","latitude":53.490433,"longitude":-2.993248,"postcodeStart":"L21 0","postcode":["L21","0HX"]}
{"price":141000,"dateOfTransfer":"2006-03-08T00:00:00","postcodeFull":"L21 0HN","propertyType":"Semi-detached","oldOrNew":"Established","duration":"Freehold","paon":"217","saon":"","street":"FORD LANE","locality":"LIVERPOOL","townOrCity":"LIVERPOOL","district":"SEFTON","county":"MERSEYSIDE","ppdCategoryType":"Standard","recordStatus":"Addition","latitude":53.485748,"longitude":-2.99894,"postcodeStart":"L21 0","postcode":["L21","0HN"]}
{"price":78000,"dateOfTransfer":"2006-09-29T00:00:00","postcodeFull":"L21 0HX","propertyType":"Terraced","oldOrNew":"Established","duration":"Freehold","paon":"101","saon":"","street":"TRAWDEN WAY","locality":"LIVERPOOL","townOrCity":"LIVERPOOL","district":"SEFTON","county":"MERSEYSIDE","ppdCategoryType":"Standard","recordStatus":"Addition","latitude":53.490433,"longitude":-2.993248,"postcodeStart":"L21 0","postcode":["L21","0HX"]}
{"price":90000,"dateOfTransfer":"2006-10-27T00:00:00","postcodeFull":"L21 0DG","propertyType":"Semi-detached","oldOrNew":"Established","duration":"Freehold","paon":"119","saon":"","street":"GORSEY LANE","locality":"FORD","townOrCity":"LIVERPOOL","district":"SEFTON","county":"MERSEYSIDE","ppdCategoryType":"Standard","recordStatus":"Addition","latitude":53.482804,"longitude":-2.996204,"postcodeStart":"L21 0","postcode":["L21","0DG"]}
{"price":89000,"dateOfTransfer":"2006-03-21T00:00:00","postcodeFull":"L21 0HX","propertyType":"Terraced","oldOrNew":"Established","duration":"Freehold","paon":"35","saon":"","street":"TRAWDEN WAY","locality":"LIVERPOOL","townOrCity":"LIVERPOOL","district":"SEFTON","county":"MERSEYSIDE","ppdCategoryType":"Standard","recordStatus":"Addition","latitude":53.490433,"longitude":-2.993248,"postcodeStart":"L21 0","postcode":["L21","0HX"]}
{"price":68000,"dateOfTransfer":"2006-10-20T00:00:00","postcodeFull":"L21 0DU","propertyType":"Terraced","oldOrNew":"Established","duration":"Freehold","paon":"63","saon":"","street":"WILLIAM WALL ROAD","locality":"LIVERPOOL","townOrCity":"LIVERPOOL","district":"SEFTON","county":"MERSEYSIDE","ppdCategoryType":"Standard","recordStatus":"Addition","latitude":53.480579,"longitude":-2.99897,"postcodeStart":"L21 0","postcode":["L21","0DU"]}
{"price":72000,"dateOfTransfer":"2006-08-09T00:00:00","postcodeFull":"L21 0JJ","propertyType":"Terraced","oldOrNew":"Established","duration":"Freehold","paon":"78","saon":"","street":"BOWLAND DRIVE","locality":"LIVERPOOL","townOrCity":"LIVERPOOL","district":"SEFTON","county":"MERSEYSIDE","ppdCategoryType":"Standard","recordStatus":"Addition","latitude":53.489635,"longitude":-2.993109,"postcodeStart":"L21 0","postcode":["L21","0JJ"]}
{"price":108250,"dateOfTransfer":"2006-09-08T00:00:00","postcodeFull":"L21 0DU","propertyType":"Semi-detached","oldOrNew":"Established","duration":"Freehold","paon":"65","saon":"","street":"WILLIAM WALL ROAD","locality":"LIVERPOOL","townOrCity":"LIVERPOOL","district":"SEFTON","county":"MERSEYSIDE","ppdCategoryType":"Standard","recordStatus":"Addition","latitude":53.480579,"longitude":-2.99897,"postcodeStart":"L21 0","postcode":["L21","0DU"]}
{"price":75000,"dateOfTransfer":"2006-11-24T00:00:00","postcodeFull":"L21 0JL","propertyType":"Terraced","oldOrNew":"Established","duration":"Freehold","paon":"250","saon":"","street":"BOWLAND DRIVE","locality":"LIVERPOOL","townOrCity":"LIVERPOOL","district":"SEFTON","county":"MERSEYSIDE","ppdCategoryType":"Standard","recordStatus":"Addition","latitude":53.489123,"longitude":-2.991906,"postcodeStart":"L21 0","postcode":["L21","0JL"]}
{"price":84790,"dateOfTransfer":"2006-10-11T00:00:00","postcodeFull":"L21 0DX","propertyType":"Terraced","oldOrNew":"Established","duration":"Freehold","paon":"50","saon":"","street":"WILLIAM WALL ROAD","locality":"LIVERPOOL","townOrCity":"LIVERPOOL","district":"SEFTON","county":"MERSEYSIDE","ppdCategoryType":"Standard","recordStatus":"Addition","latitude":53.480985,"longitude":-2.998768,"postcodeStart":"L21 0","postcode":["L21","0DX"]}
{"price":85000,"dateOfTransfer":"2006-01-20T00:00:00","postcodeFull":"L21 0HX","propertyType":"Terraced","oldOrNew":"Established","duration":"Freehold","paon":"39","saon":"","street":"TRAWDEN WAY","locality":"LIVERPOOL","townOrCity":"LIVERPOOL","district":"SEFTON","county":"MERSEYSIDE","ppdCategoryType":"Standard","recordStatus":"Addition","latitude":53.490433,"longitude":-2.993248,"postcodeStart":"L21 0","postcode":["L21","0HX"]}
{"price":79995,"dateOfTransfer":"2006-02-16T00:00:00","postcodeFull":"L21 0JQ","propertyType":"Terraced","oldOrNew":"Established","duration":"Freehold","paon":"175","saon":"","street":"BOWLAND DRIVE","locality":"LIVERPOOL","townOrCity":"LIVERPOOL","district":"SEFTON","county":"MERSEYSIDE","ppdCategoryType":"Standard","recordStatus":"Addition","latitude":53.490106,"longitude":-2.992652,"postcodeStart":"L21 0","postcode":["L21","0JQ"]}
{"price":84000,"dateOfTransfer":"2006-08-25T00:00:00","postcodeFull":"L21 0HX","propertyType":"Terraced","oldOrNew":"Established","duration":"Freehold","paon":"91","saon":"","street":"TRAWDEN WAY","locality":"LIVERPOOL","townOrCity":"LIVERPOOL","district":"SEFTON","county":"MERSEYSIDE","ppdCategoryType":"Standard","recordStatus":"Addition","latitude":53.490433,"longitude":-2.993248,"postcodeStart":"L21 0","postcode":["L21","0HX"]}
{"price":131500,"dateOfTransfer":"2006-12-18T00:00:00","postcodeFull":"L21 0DJ","propertyType":"Semi-detached","oldOrNew":"Established","duration":"Leasehold","paon":"26","saon":"","street":"GORSEY LANE","locality":"FORD","townOrCity":"LIVERPOOL","district":"SEFTON","county":"MERSEYSIDE","ppdCategoryType":"Standard","recordStatus":"Addition","latitude":53.479482,"longitude":-2.995795,"postcodeStart":"L21 0","postcode":["L21","0DJ"]}
{"price":90000,"dateOfTransfer":"2006-07-07T00:00:00","postcodeFull":"L21 0HH","propertyType":"Terraced","oldOrNew":"Established","duration":"Freehold","paon":"5","saon":"","street":"CARR CROFT","locality":"LIVERPOOL","townOrCity":"LIVERPOOL","district":"SEFTON","county":"MERSEYSIDE","ppdCategoryType":"Standard","recordStatus":"Addition","latitude":53.485699,"longitude":-2.996181,"postcodeStart":"L21 0","postcode":["L21","0HH"]}
