{"price":58250,"dateOfTransfer":"1995-02-28T00:00:00","postcodeFull":"L37 4HD","propertyType":"Semi-detached","oldOrNew":"Established","duration":"Freehold","paon":"32","saon":"","street":"BUCKFAST DRIVE","locality":"LIVERPOOL","townOrCity":"LIVERPOOL","district":"SEFTON","county":"MERSEYSIDE","ppdCategoryType":"Standard","recordStatus":"Addition","latitude":53.554098,"longitude":-3.04733,"postcodeStart":"L37 4","postcode":["L37","4HD"]}
{"price":59500,"dateOfTransfer":"1995-09-06T00:00:00","postcodeFull":"L37 4EN","propertyType":"Semi-detached","oldOrNew":"Established","duration":"Freehold","paon":"39","saon":"","street":"REDGATE","locality":"LIVERPOOL","townOrCity":"LIVERPOOL","district":"SEFTON","county":"MERSEYSIDE","ppdCategoryType":"Standard","recordStatus":"Addition","latitude":53.552634,"longitude":-3.05235,"postcodeStart":"L37 4","postcode":["L37","4EN"]}
{"price":150000,"dateOfTransfer":"1995-06-02T00:00:00","postcodeFull":"L37 4HR","propertyType":"Detached","oldOrNew":"Established","duration":"Freehold","paon":"2","saon":"","street":"ASHURST COURT","locality":"LIVERPOOL","townOrCity":"LIVERPOOL","district":"SEFTON","county":"MERSEYSIDE","ppdCategoryType":"Standard","recordStatus":"Addition","latitude":53.554425,"longitude":-3.066297,"postcodeStart":"L37 4","postcode":["L37","4HR"]}
{"price":99950,"dateOfTransfer":"1995-07-28T00:00:00","postcodeFull":"L37 4BG","propertyType":"Detached","oldOrNew":"Established","duration":"Freehold","paon":"50","saon":"","street":"PHILLIPS LANE","locality":"LIVERPOOL","townOrCity":"LIVERPOOL","district":"SEFTON","county":"MERSEYSIDE","ppdCategoryType":"Standard","recordStatus":"Addition","latitude":53.552704,"longitude":-3.062677,"postcodeStart":"L37 4","postcode":["L37","4BG"]}
{"price":155995,"dateOfTransfer":"1995-06-21T00:00:00","postcodeFull":"L37 4JP","propertyType":"Detached","oldOrNew":"New build","duration":"Freehold","paon":"30","saon":"","street":"HAREBELL CLOSE","locality":"LIVERPOOL","townOrCity":"LIVERPOOL","district":"SEFTON","county":"MERSEYSIDE","ppdCategoryType":"Standard","recordStatus":"Addition","latitude":53.549575,"longitude":-3.060742,"postcodeStart":"L37 4","postcode":["L37","4JP"]}
{"price":105000,"dateOfTransfer":"1995-07-21T00:00:00","postcodeFull":"L37 4JF","propertyType":"Detached","oldOrNew":"Established","duration":"Freehold","paon":"2","saon":"","street":"HAWTHORNE CRESCENT","locality":"FORMBY","townOrCity":"LIVERPOOL","district":"SEFTON","county":"MERSEYSIDE","ppdCategoryType":"Standard","recordStatus":"Addition","latitude":53.553684,"longitude":-3.053508,"postcodeStart":"L37 4","postcode":["L37","4JF"]}
{"price":52500,"dateOfTransfer":"1995-08-31T00:00:00","postcodeFull":"L37 4EU","propertyType":"Semi-detached","oldOrNew":"Established","duration":"Freehold","paon":"4","saon":"","street":"FRIARS WALK","locality":"FORMBY","townOrCity":"LIVERPOOL","district":"SEFTON","county":"MERSEYSIDE","ppdCategoryType":"Standard","recordStatus":"Addition","latitude":53.551919,"longitude":-3.04874,"postcodeStart":"L37 4","postcode":["L37","4EU"]}
{"price":225000,"dateOfTransfer":"1995-10-07T00:00:00","postcodeFull":"L37 4AY","propertyType":"Detached","oldOrNew":"Established","duration":"Freehold","paon":"15","saon":"","street":"PHILLIPS LANE","locality":"LIVERPOOL","townOrCity":"LIVERPOOL","district":"SEFTON","county":"MERSEYSIDE","ppdCategoryType":"Standard","recordStatus":"Addition","latitude":53.553407,"longitude":-3.06046,"postcodeStart":"L37 4","postcode":["L37","4AY"]}
{"price":76000,"dateOfTransfer":"1995-05-31T00:00:00","postcodeFull":"L37 4BX","propertyType":"Detached","oldOrNew":"Established","duration":"Freehold","paon":"23","saon":"","street":"DICKINSON ROAD","locality":"LIVERPOOL","townOrCity":"LIVERPOOL","district":"SEFTON","county":"MERSEYSIDE","ppdCategoryType":"Standard","recordStatus":"Addition","latitude":53.552415,"longitude":-3.059633,"postcodeStart":"L37 4","postcode":["L37","4BX"]}
{"price":52000,"dateOfTransfer":"1995-03-31T00:00:00","postcodeFull":"L37 4ES","propertyType":"Semi-detached","oldOrNew":"Established","duration":"Freehold","paon":"11","saon":"","street":"CORONATION AVENUE","locality":"FORMBY","townOrCity":"LIVERPOOL","district":"SEFTON","county":"MERSEYSIDE","ppdCategoryType":"Standard","recordStatus":"Addition","latitude":53.551949,"longitude":-3.055548,"postcodeStart":"L37 4","postcode":["L37","4ES"]}
{"price":59950,"dateOfTransfer":"1995-08-29T00:00:00","postcodeFull":"L37 4EL","propertyType":"Semi-detached","oldOrNew":"Established","duration":"Freehold","paon":"6","saon":"","street":"SEAFIELD","locality":"FORMBY","townOrCity":"LIVERPOOL","district":"SEFTON","county":"MERSEYSIDE","ppdCategoryType":"Standard","recordStatus":"Addition","latitude":53.553281,"longitude":-3.05131,"postcodeStart":"L37 4","postcode":["L37","4EL"]}
{"price":96000,"dateOfTransfer":"1995-03-31T00:00:00","postcodeFull":"L37 4JF","propertyType":"Detached","oldOrNew":"Established","duration":"Freehold","paon":"10","saon":"","street":"HAWTHORNE CRESCENT","locality":"FORMBY","townOrCity":"LIVERPOOL","district":"SEFTON","county":"MERSEYSIDE","ppdCategoryType":"Standard","recordStatus":"Addition","latitude":53.553684,"longitude":-3.053508,"postcodeStart":"L37 4","postcode":["L37","4JF"]}
{"price":92000,"dateOfTransfer":"1995-08-24T00:00:00","postcodeFull":"L37 4DQ","propertyType":"Detached","oldOrNew":"Established","duration":"Leasehold","paon":"140","saon":"","street":"RAVEN MEOLS LANE","locality":"LIVERPOOL","townOrCity":"LIVERPOOL","district":"SEFTON","county":"MERSEYSIDE","ppdCategoryType":"Standard","recordStatus":"Addition","latitude":53.550663,"longitude":-3.05772,"postcodeStart":"L37 4","postcode":["L37","4DQ"]}
{"price":134995,"dateOfTransfer":"1995-11-03T00:00:00","postcodeFull":"L37 4JP","propertyType":"Detached","oldOrNew":"New build","duration":"Freehold","paon":"28","saon":"","street":"HAREBELL CLOSE","locality":"LIVERPOOL","townOrCity":"LIVERPOOL","district":"SEFTON","county":"MERSEYSIDE","ppdCategoryType":"Standard","recordStatus":"Addition","latitude":53.549575,"longitude":-3.060742,"postcodeStart":"L37 4","postcode":["L37","4JP"]}
{"price":126995,"dateOfTransfer":"1995-05-31T00:00:00","postcodeFull":"L37 4JP","propertyType":"Detached","oldOrNew":"New build","duration":"Freehold","paon":"17","saon":"","street":"HAREBELL CLOSE","locality":"LIVERPOOL","townOrCity":"LIVERPOOL","district":"SEFTON","county":"MERSEYSIDE","ppdCategoryType":"Standard","recordStatus":"Addition","latitude":53.549575,"longitude":-3.060742,"postcodeStart":"L37 4","postcode":["L37","4JP"]}
{"price":79500,"dateOfTransfer":"1995-08-11T00:00:00","postcodeFull":"L37 4ES","propertyType":"Semi-detached","oldOrNew":"Established","duration":"Freehold","paon":"4","saon":"","street":"CORONATION AVENUE","locality":"FORMBY","townOrCity":"LIVERPOOL","district":"SEFTON","county":"MERSEYSIDE","ppdCategoryType":"Standard","recordStatus":"Addition","latitude":53.551949,"longitude":-3.055548,"postcodeStart":"L37 4","postcode":["L37","4ES"]}
{"price":53500,"dateOfTransfer":"1995-09-21T00:00:00","postcodeFull":"L37 4EP","propertyType":"Semi-detached","oldOrNew":"Established","duration":"Freehold","paon":"83","saon":"","street":"REDGATE","locality":"LIVERPOOL","townOrCity":"LIVERPOOL","district":"SEFTON","county":"MERSEYSIDE","ppdCategoryType":"Standard","recordStatus":"Addition","latitude":53.553307,"longitude":-3.049333,"postcodeStart":"L37 4","postcode":["L37","4EP"]}
{"price":50500,"dateOfTransfer":"1995-08-31T00:00:00","postcodeFull":"L37 4EP","propertyType":"Semi-detached","oldOrNew":"Established","duration":"Freehold","paon":"79","saon":"","street":"REDGATE","locality":"LIVERPOOL","townOrCity":"LIVERPOOL","district":"SEFTON","county":"MERSEYSIDE","ppdCategoryType":"Standard","recordStatus":"Addition","latitude":53.553307,"longitude":-3.049333,"postcodeStart":"L37 4","postcode":["L37","4EP"]}
{"price":52500,"dateOfTransfer":"1995-01-16T00:00:00","postcodeFull":"L37 4HE","propertyType":"Semi-detached","oldOrNew":"Established","duration":"Freehold","paon":"51","saon":"","street":"FOUNTAINS WAY","locality":"FORMBY","townOrCity":"LIVERPOOL","district":"SEFTON","county":"MERSEYSIDE","ppdCategoryType":"Standard","recordStatus":"Addition","latitude":53.551511,"longitude":-3.050179,"postcodeStart":"L37 4","postcode":["L37","4HE"]}
{"price":110000,"dateOfTransfer":"1995-01-30T00:00:00","postcodeFull":"L37 4AX","propertyType":"Detached","oldOrNew":"Established","duration":"Freehold","paon":"12","saon":"","street":"DUKES WAY","locality":"LIVERPOOL","townOrCity":"LIVERPOOL","district":"SEFTON","county":"MERSEYSIDE","ppdCategoryType":"Standard","recordStatus":"Addition","latitude":53.554848,"longitude":-3.065161,"postcodeStart":"L37 4","postcode":["L37","4AX"]}
{"price":71000,"dateOfTransfer":"1995-01-27T00:00:00","postcodeFull":"L37 4EY","propertyType":"Semi-detached","oldOrNew":"Established","duration":"Freehold","paon":"7","saon":"","street":"CHEAPSIDE","locality":"FORMBY","townOrCity":"LIVERPOOL","district":"SEFTON","county":"MERSEYSIDE","ppdCategoryType":"Standard","recordStatus":"Addition","latitude":53.551546,"longitude":-3.054421,"postcodeStart":"L37 4","postcode":["L37","4EY"]}
{"price":58000,"dateOfTransfer":"1995-03-17T00:00:00","postcodeFull":"L37 4EL","propertyType":"Semi-detached","oldOrNew":"Established","duration":"Freehold","paon":"11","saon":"","street":"SEAFIELD","locality":"FORMBY","townOrCity":"LIVERPOOL","district":"SEFTON","county":"MERSEYSIDE","ppdCategoryType":"Standard","recordStatus":"Addition","latitude":53.553281,"longitude":-3.05131,"postcodeStart":"L37 4","postcode":["L37","4EL"]}
{"price":47500,"dateOfTransfer":"1995-03-06T00:00:00","postcodeFull":"L37 4DE","propertyType":"Semi-detached","oldOrNew":"Established","duration":"Freehold","paon":"121","saon":"","street":"RAVEN MEOLS LANE","locality":"FORMBY","townOrCity":"LIVERPOOL","district":"SEFTON","county":"MERSEYSIDE","ppdCategoryType":"Standard","recordStatus":"Addition","latitude":53.551085,"longitude":-3.057715,"postcodeStart":"L37 4","postcode":["L37","4DE"]}
{"price":58000,"dateOfTransfer":"1995-02-17T00:00:00","postcodeFull":"L37 4HB","propertyType":"Semi-detached","oldOrNew":"Established","duration":"Freehold","paon":"16","saon":"","street":"REDGATE DRIVE","locality":"LIVERPOOL","townOrCity":"LIVERPOOL","district":"SEFTON","county":"MERSEYSIDE","ppdCategoryType":"Standard","recordStatus":"Addition","latitude":53.552858,"longitude":-3.048326,"postcodeStart":"L37 4","postcode":["L37","4HB"]}
{"price":57700,"dateOfTransfer":"1995-01-16T00:00:00","postcodeFull":"L37 4ER","propertyType":"Terraced","oldOrNew":"Established","duration":"Freehold","paon":"5","saon":"","street":"THIRLMERE AVENUE","locality":"FORMBY","townOrCity":"LIVERPOOL","district":"SEFTON","county":"MERSEYSIDE","ppdCategoryType":"Standard","recordStatus":"Addition","latitude":53.55089,"longitude":-3.054405,"postcodeStart":"L37 4","postcode":["L37","4ER"]}
{"price":65000,"dateOfTransfer":"1995-11-17T00:00:00","postcodeFull":"L37 4AA","propertyType":"Semi-detached","oldOrNew":"Established","duration":"Freehold","paon":"24","saon":"","street":"FORMBY STREET","locality":"FORMBY","townOrCity":"LIVERPOOL","district":"SEFTON","county":"MERSEYSIDE","ppdCategoryType":"Standard","recordStatus":"Addition","latitude":53.551931,"longitude":-3.069767,"postcodeStart":"L37 4","postcode":["L37","4AA"]}
{"price":133000,"dateOfTransfer":"1995-11-24T00:00:00","postcodeFull":"L37 4JP","propertyType":"Detached","oldOrNew":"New build","duration":"Freehold","paon":"26","saon":"","street":"HAREBELL CLOSE","locality":"LIVERPOOL","townOrCity":"LIVERPOOL","district":"SEFTON","county":"MERSEYSIDE","ppdCategoryType":"Standard","recordStatus":"Addition","latitude":53.549575,"longitude":-3.060742,"postcodeStart":"L37 4","postcode":["L37","4JP"]}
{"price":67550,"dateOfTransfer":"1995-10-31T00:00:00","postcodeFull":"L37 4FB","propertyType":"Flat/Maisonette/Townhouse","oldOrNew":"Established","duration":"Leasehold","paon":"33","saon":"","street":"YORK MANOR","locality":"LIVERPOOL","townOrCity":"LIVERPOOL","district":"SEFTON","county":"MERSEYSIDE","ppdCategoryType":"Standard","recordStatus":"Addition","latitude":53.556136,"longitude":-3.058624,"postcodeStart":"L37 4","postcode":["L37","4FB"]}
{"price":60000,"dateOfTransfer":"1995-06-23T00:00:00","postcodeFull":"L37 4DD","propertyType":"Semi-detached","oldOrNew":"Established","duration":"Leasehold","paon":"105","saon":"","street":"RAVEN MEOLS LANE","locality":"FORMBY","townOrCity":"LIVERPOOL","district":"SEFTON","county":"MERSEYSIDE","ppdCategoryType":"Standard","recordStatus":"Addition","latitude":53.551144,"longitude":-3.061264,"postcodeStart":"L37 4","postcode":["L37","4DD"]}
{"price":137500,"dateOfTransfer":"1995-01-27T00:00:00","postcodeFull":"L37 4JP","propertyType":"Detached","oldOrNew":"New build","duration":"Freehold","paon":"40","saon":"","street":"HAREBELL CLOSE","locality":"LIVERPOOL","townOrCity":"LIVERPOOL","district":"SEFTON","county":"MERSEYSIDE","ppdCategoryType":"Standard","recordStatus":"Addition","latitude":53.549575,"longitude":-3.060742,"postcodeStart":"L37 4","postcode":["L37","4JP"]}
{"price":51000,"dateOfTransfer":"1995-09-14T00:00:00","postcodeFull":"L37 4DE","propertyType":"Semi-detached","oldOrNew":"Established","duration":"Freehold","paon":"119","saon":"","street":"RAVEN MEOLS LANE","locality":"FORMBY","townOrCity":"LIVERPOOL","district":"SEFTON","county":"MERSEYSIDE","ppdCategoryType":"Standard","recordStatus":"Addition","latitude":53.551085,"longitude":-3.057715,"postcodeStart":"L37 4","postcode":["L37","4DE"]}
{"price":70250,"dateOfTransfer":"1995-01-10T00:00:00","postcodeFull":"L37 4FB","propertyType":"Flat/Maisonette/Townhouse","oldOrNew":"Established","duration":"Leasehold","paon":"9","saon":"","street":"YORK MANOR","locality":"LIVERPOOL","townOrCity":"LIVERPOOL","district":"SEFTON","county":"MERSEYSIDE","ppdCategoryType":"Standard","recordStatus":"Addition","latitude":53.556136,"longitude":-3.058624,"postcodeStart":"L37 4","postcode":["L37","4FB"]}
{"price":75000,"dateOfTransfer":"1995-10-20T00:00:00","postcodeFull":"L37 4JP","propertyType":"Semi-detached","oldOrNew":"Established","duration":"Freehold","paon":"24","saon":"","street":"HAREBELL CLOSE","locality":"LIVERPOOL","townOrCity":"LIVERPOOL","district":"SEFTON","county":"MERSEYSIDE","ppdCategoryType":"Standard","recordStatus":"Addition","latitude":53.549575,"longitude":-3.060742,"postcodeStart":"L37 4","postcode":["L37","4JP"]}
{"price":38500,"dateOfTransfer":"1995-04-20T00:00:00","postcodeFull":"L37 4ER","propertyType":"Semi-detached","oldOrNew":"Established","duration":"Freehold","paon":"6","saon":"","street":"THIRLMERE AVENUE","locality":"FORMBY","townOrCity":"LIVERPOOL","district":"SEFTON","county":"MERSEYSIDE","ppdCategoryType":"Standard","recordStatus":"Addition","latitude":53.55089,"longitude":-3.054405,"postcodeStart":"L37 4","postcode":["L37","4ER"]}
{"price":52000,"dateOfTransfer":"1995-05-01T00:00:00","postcodeFull":"L37 4HH","propertyType":"Semi-detached","oldOrNew":"Established","duration":"Freehold","paon":"4","saon":"","street":"BATTLE WAY","locality":"FORMBY","townOrCity":"LIVERPOOL","district":"SEFTON","county":"MERSEYSIDE","ppdCategoryType":"Standard","recordStatus":"Addition","latitude":53.554674,"longitude":-3.047238,"postcodeStart":"L37 4","postcode":["L37","4HH"]}
{"price":200000,"dateOfTransfer":"1995-10-16T00:00:00","postcodeFull":"L37 4HT","propertyType":"Detached","oldOrNew":"New build","duration":"Freehold","paon":"5","saon":"","street":"MEADOWCROFT","locality":"FORMBY","townOrCity":"LIVERPOOL","district":"SEFTON","county":"MERSEYSIDE","ppdCategoryType":"Standard","recordStatus":"Addition","latitude":53.553885,"longitude":-3.060216,"postcodeStart":"L37 4","postcode":["L37","4HT"]}
{"price":113800,"dateOfTransfer":"1995-02-20T00:00:00","postcodeFull":"L37 4HY","propertyType":"Detached","oldOrNew":"Established","duration":"Freehold","paon":"1","saon":"","street":"RAVENSCROFT","locality":"FORMBY","townOrCity":"LIVERPOOL","district":"SEFTON","county":"MERSEYSIDE","ppdCategoryType":"Standard","recordStatus":"Addition","latitude":53.551769,"longitude":-3.064706,"postcodeStart":"L37 4","postcode":["L37","4HY"]}
{"price":145000,"dateOfTransfer":"1995-04-06T00:00:00","postcodeFull":"L37 4AY","propertyType":"Detached","oldOrNew":"New build","duration":"Freehold","paon":"11","saon":"","street":"PHILLIPS LANE","locality":"LIVERPOOL","townOrCity":"LIVERPOOL","district":"SEFTON","county":"MERSEYSIDE","ppdCategoryType":"Standard","recordStatus":"Addition","latitude":53.553407,"longitude":-3.06046,"postcodeStart":"L37 4","postcode":["L37","4AY"]}
{"price":73000,"dateOfTransfer":"1995-09-29T00:00:00","postcodeFull":"L37 4DG","propertyType":"Semi-detached","oldOrNew":"Established","duration":"Leasehold","paon":"92","saon":"","street":"RAVEN MEOLS LANE","locality":"FORMBY","townOrCity":"LIVERPOOL","district":"SEFTON","county":"MERSEYSIDE","ppdCategoryType":"Standard","recordStatus":"Addition","latitude":53.550943,"longitude":-3.063599,"postcodeStart":"L37 4","postcode":["L37","4DG"]}
{"price":75000,"dateOfTransfer":"1995-04-06T00:00:00","postcodeFull":"L37 4HL","propertyType":"Semi-detached","oldOrNew":"Established","duration":"Freehold","paon":"4","saon":"","street":"KIRKSTALL DRIVE","locality":"LIVERPOOL","townOrCity":"LIVERPOOL","district":"SEFTON","county":"MERSEYSIDE","ppdCategoryType":"Standard","recordStatus":"Addition","latitude":53.552657,"longitude":-3.0466,"postcodeStart":"L37 4","postcode":["L37","4HL"]}
{"price":140000,"dateOfTransfer":"1995-07-21T00:00:00","postcodeFull":"L37 4BU","propertyType":"Detached","oldOrNew":"Established","duration":"Freehold","paon":"19","saon":"","street":"BIRKEY LANE","locality":"FORMBY","townOrCity":"LIVERPOOL","district":"SEFTON","county":"MERSEYSIDE","ppdCategoryType":"Standard","recordStatus":"Addition","latitude":53.552035,"longitude":-3.058173,"postcodeStart":"L37 4","postcode":["L37","4BU"]}
{"price":160000,"dateOfTransfer":"1995-08-25T00:00:00","postcodeFull":"L37 4JP","propertyType":"Detached","oldOrNew":"New build","duration":"Freehold","paon":"42","saon":"","street":"HAREBELL CLOSE","locality":"LIVERPOOL","townOrCity":"LIVERPOOL","district":"SEFTON","county":"MERSEYSIDE","ppdCategoryType":"Standard","recordStatus":"Addition","latitude":53.549575,"longitude":-3.060742,"postcodeStart":"L37 4","postcode":["L37","4JP"]}
{"price":80000,"dateOfTransfer":"1995-11-29T00:00:00","postcodeFull":"L37 4BL","propertyType":"Detached","oldOrNew":"Established","duration":"Freehold","paon":"26","saon":"","street":"CROSS GREEN","locality":"FORMBY","townOrCity":"LIVERPOOL","district":"SEFTON","county":"MERSEYSIDE","ppdCategoryType":"Standard","recordStatus":"Addition","latitude":53.554239,"longitude":-3.056783,"postcodeStart":"L37 4","postcode":["L37","4BL"]}
{"price":60000,"dateOfTransfer":"1996-03-22T00:00:00","postcodeFull":"L37 4EQ","propertyType":"Semi-detached","oldOrNew":"Established","duration":"Freehold","paon":"24","saon":"","street":"DITCHFIELD","locality":"FORMBY","townOrCity":"LIVERPOOL","district":"SEFTON","county":"MERSEYSIDE","ppdCategoryType":"Standard","recordStatus":"Addition","latitude":53.553757,"longitude":-3.052393,"postcodeStart":"L37 4","postcode":["L37","4EQ"]}
{"price":63000,"dateOfTransfer":"1996-12-10T00:00:00","postcodeFull":"L37 4AA","propertyType":"Semi-detached","oldOrNew":"Established","duration":"Leasehold","paon":"17","saon":"","street":"FORMBY STREET","locality":"FORMBY","townOrCity":"LIVERPOOL","district":"SEFTON","county":"MERSEYSIDE","ppdCategoryType":"Standard","recordStatus":"Addition","latitude":53.551931,"longitude":-3.069767,"postcodeStart":"L37 4","postcode":["L37","4AA"]}
{"price":70000,"dateOfTransfer":"1996-03-27T00:00:00","postcodeFull":"L37 4FB","propertyType":"Detached","oldOrNew":"Established","duration":"Leasehold","paon":"23","saon":"","street":"YORK MANOR","locality":"LIVERPOOL","townOrCity":"LIVERPOOL","district":"SEFTON","county":"MERSEYSIDE","ppdCategoryType":"Standard","recordStatus":"Addition","latitude":53.556136,"longitude":-3.058624,"postcodeStart":"L37 4","postcode":["L37","4FB"]}
{"price":55000,"dateOfTransfer":"1996-07-28T00:00:00","postcodeFull":"L37 4EQ","propertyType":"Semi-detached","oldOrNew":"Established","duration":"Freehold","paon":"23","saon":"","street":"DITCHFIELD","locality":"FORMBY","townOrCity":"LIVERPOOL","district":"SEFTON","county":"MERSEYSIDE","ppdCategoryType":"Standard","recordStatus":"Addition","latitude":53.553757,"longitude":-3.052393,"postcodeStart":"L37 4","postcode":["L37","4EQ"]}
{"price":56000,"dateOfTransfer":"1996-06-28T00:00:00","postcodeFull":"L37 4ER","propertyType":"Terraced","oldOrNew":"Established","duration":"Freehold","paon":"2","saon":"","street":"THIRLMERE AVENUE","locality":"FORMBY","townOrCity":"LIVERPOOL","district":"SEFTON","county":"MERSEYSIDE","ppdCategoryType":"Standard","recordStatus":"Addition","latitude":53.55089,"longitude":-3.054405,"postcodeStart":"L37 4","postcode":["L37","4ER"]}
{"price":56000,"dateOfTransfer":"1996-04-12T00:00:00","postcodeFull":"L37 4HE","propertyType":"Semi-detached","oldOrNew":"Established","duration":"Freehold","paon":"5","saon":"","street":"FOUNTAINS WAY","locality":"FORMBY","townOrCity":"LIVERPOOL","district":"SEFTON","county":"MERSEYSIDE","ppdCategoryType":"Standard","recordStatus":"Addition","latitude":53.551511,"longitude":-3.050179,"postcodeStart":"L37 4","postcode":["L37","4HE"]}
{"price":25000,"dateOfTransfer":"1996-10-30T00:00:00","postcodeFull":"L37 4ES","propertyType":"Semi-detached","oldOrNew":"Established","duration":"Freehold","paon":"2","saon":"","street":"CORONATION AVENUE","locality":"FORMBY","townOrCity":"LIVERPOOL","district":"SEFTON","county":"MERSEYSIDE","ppdCategoryType":"Standard","recordStatus":"Addition","latitude":53.551949,"longitude":-3.055548,"postcodeStart":"L37 4","postcode":["L37","4ES"]}
{"price":87950,"dateOfTransfer":"1996-08-28T00:00:00","postcodeFull":"L37 4AA","propertyType":"Semi-detached","oldOrNew":"Established","duration":"Freehold","paon":"14","saon":"","street":"FORMBY STREET","locality":"FORMBY","townOrCity":"LIVERPOOL","district":"SEFTON","county":"MERSEYSIDE","ppdCategoryType":"Standard","recordStatus":"Addition","latitude":53.551931,"longitude":-3.069767,"postcodeStart":"L37 4","postcode":["L37","4AA"]}
{"price":72750,"dateOfTransfer":"1996-09-17T00:00:00","postcodeFull":"L37 4DQ","propertyType":"Semi-detached","oldOrNew":"Established","duration":"Leasehold","paon":"142","saon":"","street":"RAVEN MEOLS LANE","locality":"LIVERPOOL","townOrCity":"LIVERPOOL","district":"SEFTON","county":"MERSEYSIDE","ppdCategoryType":"Standard","recordStatus":"Addition","latitude":53.550663,"longitude":-3.05772,"postcodeStart":"L37 4","postcode":["L37","4DQ"]}
{"price":130000,"dateOfTransfer":"1996-09-03T00:00:00","postcodeFull":"L37 4AR","propertyType":"Detached","oldOrNew":"Established","duration":"Freehold","paon":"85","saon":"","street":"DUKE STREET","locality":"FORMBY","townOrCity":"LIVERPOOL","district":"SEFTON","county":"MERSEYSIDE","ppdCategoryType":"Standard","recordStatus":"Addition","latitude":53.554688,"longitude":-3.05972,"postcodeStart":"L37 4","postcode":["L37","4AR"]}
{"price":76000,"dateOfTransfer":"1996-04-29T00:00:00","postcodeFull":"L37 4DG","propertyType":"Semi-detached","oldOrNew":"Established","duration":"Leasehold","paon":"54","saon":"","street":"RAVEN MEOLS LANE","locality":"FORMBY","townOrCity":"LIVERPOOL","district":"SEFTON","county":"MERSEYSIDE","ppdCategoryType":"Standard","recordStatus":"Addition","latitude":53.550943,"longitude":-3.063599,"postcodeStart":"L37 4","postcode":["L37","4DG"]}
{"price":67200,"dateOfTransfer":"1996-03-29T00:00:00","postcodeFull":"L37 4BU","propertyType":"Semi-detached","oldOrNew":"Established","duration":"Freehold","paon":"1","saon":"","street":"BIRKEY LANE","locality":"FORMBY","townOrCity":"LIVERPOOL","district":"SEFTON","county":"MERSEYSIDE","ppdCategoryType":"Standard","recordStatus":"Addition","latitude":53.552035,"longitude":-3.058173,"postcodeStart":"L37 4","postcode":["L37","4BU"]}
{"price":42000,"dateOfTransfer":"1996-06-13T00:00:00","postcodeFull":"L37 4AA","propertyType":"Semi-detached","oldOrNew":"Established","duration":"Freehold","paon":"18","saon":"","street":"FORMBY STREET","locality":"FORMBY","townOrCity":"LIVERPOOL","district":"SEFTON","county":"MERSEYSIDE","ppdCategoryType":"Standard","recordStatus":"Addition","latitude":53.551931,"longitude":-3.069767,"postcodeStart":"L37 4","postcode":["L37","4AA"]}
{"price":62000,"dateOfTransfer":"1996-04-23T00:00:00","postcodeFull":"L37 4AX","propertyType":"Semi-detached","oldOrNew":"Established","duration":"Freehold","paon":"4","saon":"","street":"DUKES WAY","locality":"LIVERPOOL","townOrCity":"LIVERPOOL","district":"SEFTON","county":"MERSEYSIDE","ppdCategoryType":"Standard","recordStatus":"Addition","latitude":53.554848,"longitude":-3.065161,"postcodeStart":"L37 4","postcode":["L37","4AX"]}
{"price":57750,"dateOfTransfer":"1996-10-03T00:00:00","postcodeFull":"L37 4BS","propertyType":"Flat/Maisonette/Townhouse","oldOrNew":"Established","duration":"Leasehold","paon":"HAVEN LODGE, 10B","saon":"","street":"LIVERPOOL ROAD","locality":"FORMBY","townOrCity":"LIVERPOOL","district":"SEFTON","county":"MERSEYSIDE","ppdCategoryType":"Standard","recordStatus":"Addition","latitude":53.552866,"longitude":-3.057549,"postcodeStart":"L37 4","postcode":["L37","4BS"]}
{"price":95000,"dateOfTransfer":"1996-07-29T00:00:00","postcodeFull":"L37 4EG","propertyType":"Detached","oldOrNew":"Established","duration":"Freehold","paon":"THE STABLES","saon":"","street":"FORMBY FIELDS","locality":"LIVERPOOL","townOrCity":"LIVERPOOL","district":"SEFTON","county":"MERSEYSIDE","ppdCategoryType":"Standard","recordStatus":"Addition","latitude":53.552714,"longitude":-3.054405,"postcodeStart":"L37 4","postcode":["L37","4EG"]}
{"price":66950,"dateOfTransfer":"1996-07-02T00:00:00","postcodeFull":"L37 4ET","propertyType":"Semi-detached","oldOrNew":"Established","duration":"Freehold","paon":"17","saon":"","street":"CROWN CLOSE","locality":"LIVERPOOL","townOrCity":"LIVERPOOL","district":"SEFTON","county":"MERSEYSIDE","ppdCategoryType":"Standard","recordStatus":"Addition","latitude":53.552538,"longitude":-3.055035,"postcodeStart":"L37 4","postcode":["L37","4ET"]}
{"price":33000,"dateOfTransfer":"1996-08-09T00:00:00","postcodeFull":"L37 4ER","propertyType":"Semi-detached","oldOrNew":"Established","duration":"Freehold","paon":"4","saon":"","street":"THIRLMERE AVENUE","locality":"FORMBY","townOrCity":"LIVERPOOL","district":"SEFTON","county":"MERSEYSIDE","ppdCategoryType":"Standard","recordStatus":"Addition","latitude":53.55089,"longitude":-3.054405,"postcodeStart":"L37 4","postcode":["L37","4ER"]}
{"price":57000,"dateOfTransfer":"1996-09-25T00:00:00","postcodeFull":"L37 4HX","propertyType":"Semi-detached","oldOrNew":"Established","duration":"Freehold","paon":"10","saon":"","street":"GLENDALE WAY","locality":"FORMBY","townOrCity":"LIVERPOOL","district":"SEFTON","county":"MERSEYSIDE","ppdCategoryType":"Standard","recordStatus":"Addition","latitude":53.551615,"longitude":-3.061849,"postcodeStart":"L37 4","postcode":["L37","4HX"]}
{"price":153000,"dateOfTransfer":"1996-05-10T00:00:00","postcodeFull":"L37 4JP","propertyType":"Detached","oldOrNew":"Established","duration":"Freehold","paon":"32","saon":"","street":"HAREBELL CLOSE","locality":"LIVERPOOL","townOrCity":"LIVERPOOL","district":"SEFTON","county":"MERSEYSIDE","ppdCategoryType":"Standard","recordStatus":"Addition","latitude":53.549575,"longitude":-3.060742,"postcodeStart":"L37 4","postcode":["L37","4JP"]}
{"price":155500,"dateOfTransfer":"1996-10-30T00:00:00","postcodeFull":"L37 4JP","propertyType":"Detached","oldOrNew":"Established","duration":"Freehold","paon":"12","saon":"","street":"HAREBELL CLOSE","locality":"LIVERPOOL","townOrCity":"LIVERPOOL","district":"SEFTON","county":"MERSEYSIDE","ppdCategoryType":"Standard","recordStatus":"Addition","latitude":53.549575,"longitude":-3.060742,"postcodeStart":"L37 4","postcode":["L37","4JP"]}
{"price":175000,"dateOfTransfer":"1996-12-02T00:00:00","postcodeFull":"L37 4AY","propertyType":"Detached","oldOrNew":"Established","duration":"Freehold","paon":"15","saon":"","street":"PHILLIPS LANE","locality":"LIVERPOOL","townOrCity":"LIVERPOOL","district":"SEFTON","county":"MERSEYSIDE","ppdCategoryType":"Standard","recordStatus":"Addition","latitude":53.553407,"longitude":-3.06046,"postcodeStart":"L37 4","postcode":["L37","4AY"]}
{"price":88450,"dateOfTransfer":"1996-01-03T00:00:00","postcodeFull":"L37 4AZ","propertyType":"Detached","oldOrNew":"Established","duration":"Freehold","paon":"32","saon":"","street":"PHILLIPS LANE","locality":"LIVERPOOL","townOrCity":"LIVERPOOL","district":"SEFTON","county":"MERSEYSIDE","ppdCategoryType":"Standard","recordStatus":"Addition","latitude":53.552286,"longitude":-3.065232,"postcodeStart":"L37 4","postcode":["L37","4AZ"]}
{"price":153000,"dateOfTransfer":"1996-10-25T00:00:00","postcodeFull":"L37 4JP","propertyType":"Detached","oldOrNew":"Established","duration":"Freehold","paon":"5","saon":"","street":"HAREBELL CLOSE","locality":"LIVERPOOL","townOrCity":"LIVERPOOL","district":"SEFTON","county":"MERSEYSIDE","ppdCategoryType":"Standard","recordStatus":"Addition","latitude":53.549575,"longitude":-3.060742,"postcodeStart":"L37 4","postcode":["L37","4JP"]}
{"price":80000,"dateOfTransfer":"1996-08-16T00:00:00","postcodeFull":"L37 4AD","propertyType":"Detached","oldOrNew":"Established","duration":"Freehold","paon":"14","saon":"","street":"CROPTON ROAD","locality":"LIVERPOOL","townOrCity":"LIVERPOOL","district":"SEFTON","county":"MERSEYSIDE","ppdCategoryType":"Standard","recordStatus":"Addition","latitude":53.555725,"longitude":-3.060533,"postcodeStart":"L37 4","postcode":["L37","4AD"]}
{"price":72500,"dateOfTransfer":"1996-12-20T00:00:00","postcodeFull":"L37 4BY","propertyType":"Semi-detached","oldOrNew":"Established","duration":"Freehold","paon":"1","saon":"","street":"RAVEN MEOLS LANE","locality":"FORMBY","townOrCity":"LIVERPOOL","district":"SEFTON","county":"MERSEYSIDE","ppdCategoryType":"Standard","recordStatus":"Addition","latitude":53.551371,"longitude":-3.067971,"postcodeStart":"L37 4","postcode":["L37","4BY"]}
{"price":120000,"dateOfTransfer":"1996-12-19T00:00:00","postcodeFull":"L37 4AZ","propertyType":"Detached","oldOrNew":"Established","duration":"Freehold","paon":"18","saon":"","street":"PHILLIPS LANE","locality":"LIVERPOOL","townOrCity":"LIVERPOOL","district":"SEFTON","county":"MERSEYSIDE","ppdCategoryType":"Standard","recordStatus":"Addition","latitude":53.552286,"longitude":-3.065232,"postcodeStart":"L37 4","postcode":["L37","4AZ"]}
{"price":82500,"dateOfTransfer":"1996-10-28T00:00:00","postcodeFull":"L37 4BE","propertyType":"Semi-detached","oldOrNew":"Established","duration":"Freehold","paon":"1","saon":"","street":"TYRERS CLOSE","locality":"FORMBY","townOrCity":"LIVERPOOL","district":"SEFTON","county":"MERSEYSIDE","ppdCategoryType":"Standard","recordStatus":"Addition","latitude":53.55231,"longitude":-3.061459,"postcodeStart":"L37 4","postcode":["L37","4BE"]}
{"price":59995,"dateOfTransfer":"1996-07-22T00:00:00","postcodeFull":"L37 4HE","propertyType":"Semi-detached","oldOrNew":"Established","duration":"Freehold","paon":"11","saon":"","street":"FOUNTAINS WAY","locality":"FORMBY","townOrCity":"LIVERPOOL","district":"SEFTON","county":"MERSEYSIDE","ppdCategoryType":"Standard","recordStatus":"Addition","latitude":53.551511,"longitude":-3.050179,"postcodeStart":"L37 4","postcode":["L37","4HE"]}
{"price":67950,"dateOfTransfer":"1996-11-19T00:00:00","postcodeFull":"L37 4BT","propertyType":"Semi-detached","oldOrNew":"Established","duration":"Freehold","paon":"2","saon":"","street":"LYTLES CLOSE","locality":"LIVERPOOL","townOrCity":"LIVERPOOL","district":"SEFTON","county":"MERSEYSIDE","ppdCategoryType":"Standard","recordStatus":"Addition","latitude":53.553208,"longitude":-3.056485,"postcodeStart":"L37 4","postcode":["L37","4BT"]}
{"price":85000,"dateOfTransfer":"1996-06-28T00:00:00","postcodeFull":"L37 4HT","propertyType":"Detached","oldOrNew":"New build","duration":"Freehold","paon":"6","saon":"","street":"MEADOWCROFT","locality":"FORMBY","townOrCity":"LIVERPOOL","district":"SEFTON","county":"MERSEYSIDE","ppdCategoryType":"Standard","recordStatus":"Addition","latitude":53.553885,"longitude":-3.060216,"postcodeStart":"L37 4","postcode":["L37","4HT"]}
{"price":60000,"dateOfTransfer":"1996-08-22T00:00:00","postcodeFull":"L37 4DB","propertyType":"Semi-detached","oldOrNew":"Established","duration":"Freehold","paon":"10","saon":"","street":"NORBURN CRESCENT","locality":"LIVERPOOL","townOrCity":"LIVERPOOL","district":"SEFTON","county":"MERSEYSIDE","ppdCategoryType":"Standard","recordStatus":"Addition","latitude":53.55254,"longitude":-3.058674,"postcodeStart":"L37 4","postcode":["L37","4DB"]}
{"price":140000,"dateOfTransfer":"1996-01-11T00:00:00","postcodeFull":"L37 4DE","propertyType":"Detached","oldOrNew":"Established","duration":"Freehold","paon":"141","saon":"","street":"RAVEN MEOLS LANE","locality":"LIVERPOOL","townOrCity":"LIVERPOOL","district":"SEFTON","county":"MERSEYSIDE","ppdCategoryType":"Standard","recordStatus":"Addition","latitude":53.551085,"longitude":-3.057715,"postcodeStart":"L37 4","postcode":["L37","4DE"]}
{"price":49950,"dateOfTransfer":"1996-10-17T00:00:00","postcodeFull":"L37 4ES","propertyType":"Semi-detached","oldOrNew":"Established","duration":"Freehold","paon":"7","saon":"","street":"CORONATION AVENUE","locality":"FORMBY","townOrCity":"LIVERPOOL","district":"SEFTON","county":"MERSEYSIDE","ppdCategoryType":"Standard","recordStatus":"Addition","latitude":53.551949,"longitude":-3.055548,"postcodeStart":"L37 4","postcode":["L37","4ES"]}
{"price":55950,"dateOfTransfer":"1996-12-18T00:00:00","postcodeFull":"L37 4EP","propertyType":"Semi-detached","oldOrNew":"Established","duration":"Freehold","paon":"81","saon":"","street":"REDGATE","locality":"LIVERPOOL","townOrCity":"LIVERPOOL","district":"SEFTON","county":"MERSEYSIDE","ppdCategoryType":"Standard","recordStatus":"Addition","latitude":53.553307,"longitude":-3.049333,"postcodeStart":"L37 4","postcode":["L37","4EP"]}
{"price":85000,"dateOfTransfer":"1996-11-06T00:00:00","postcodeFull":"L37 4AN","propertyType":"Detached","oldOrNew":"Established","duration":"Freehold","paon":"29","saon":"","street":"DUKE STREET","locality":"FORMBY","townOrCity":"LIVERPOOL","district":"SEFTON","county":"MERSEYSIDE","ppdCategoryType":"Standard","recordStatus":"Addition","latitude":53.554049,"longitude":-3.066859,"postcodeStart":"L37 4","postcode":["L37","4AN"]}
{"price":156675,"dateOfTransfer":"1996-07-18T00:00:00","postcodeFull":"L37 4JP","propertyType":"Detached","oldOrNew":"Established","duration":"Freehold","paon":"12","saon":"","street":"HAREBELL CLOSE","locality":"LIVERPOOL","townOrCity":"LIVERPOOL","district":"SEFTON","county":"MERSEYSIDE","ppdCategoryType":"Standard","recordStatus":"Addition","latitude":53.549575,"longitude":-3.060742,"postcodeStart":"L37 4","postcode":["L37","4JP"]}
{"price":47175,"dateOfTransfer":"1996-06-14T00:00:00","postcodeFull":"L37 4AA","propertyType":"Semi-detached","oldOrNew":"Established","duration":"Freehold","paon":"25","saon":"","street":"FORMBY STREET","locality":"FORMBY","townOrCity":"LIVERPOOL","district":"SEFTON","county":"MERSEYSIDE","ppdCategoryType":"Standard","recordStatus":"Addition","latitude":53.551931,"longitude":-3.069767,"postcodeStart":"L37 4","postcode":["L37","4AA"]}
{"price":55000,"dateOfTransfer":"1996-12-10T00:00:00","postcodeFull":"L37 4HB","propertyType":"Semi-detached","oldOrNew":"Established","duration":"Freehold","paon":"3","saon":"","street":"REDGATE DRIVE","locality":"LIVERPOOL","townOrCity":"LIVERPOOL","district":"SEFTON","county":"MERSEYSIDE","ppdCategoryType":"Standard","recordStatus":"Addition","latitude":53.552858,"longitude":-3.048326,"postcodeStart":"L37 4","postcode":["L37","4HB"]}
{"price":76000,"dateOfTransfer":"1996-05-10T00:00:00","postcodeFull":"L37 4EY","propertyType":"Detached","oldOrNew":"Established","duration":"Freehold","paon":"2","saon":"","street":"CHEAPSIDE","locality":"FORMBY","townOrCity":"LIVERPOOL","district":"SEFTON","county":"MERSEYSIDE","ppdCategoryType":"Standard","recordStatus":"Addition","latitude":53.551546,"longitude":-3.054421,"postcodeStart":"L37 4","postcode":["L37","4EY"]}
{"price":55000,"dateOfTransfer":"1996-01-08T00:00:00","postcodeFull":"L37 4HJ","propertyType":"Semi-detached","oldOrNew":"Established","duration":"Freehold","paon":"17","saon":"","street":"CARTMEL DRIVE","locality":"FORMBY","townOrCity":"LIVERPOOL","district":"SEFTON","county":"MERSEYSIDE","ppdCategoryType":"Standard","recordStatus":"Addition","latitude":53.553544,"longitude":-3.046908,"postcodeStart":"L37 4","postcode":["L37","4HJ"]}
{"price":64000,"dateOfTransfer":"1996-04-23T00:00:00","postcodeFull":"L37 4FB","propertyType":"Flat/Maisonette/Townhouse","oldOrNew":"Established","duration":"Leasehold","paon":"15","saon":"","street":"YORK MANOR","locality":"LIVERPOOL","townOrCity":"LIVERPOOL","district":"SEFTON","county":"MERSEYSIDE","ppdCategoryType":"Standard","recordStatus":"Addition","latitude":53.556136,"longitude":-3.058624,"postcodeStart":"L37 4","postcode":["L37","4FB"]}
{"price":72000,"dateOfTransfer":"1996-09-09T00:00:00","postcodeFull":"L37 4HA","propertyType":"Detached","oldOrNew":"Established","duration":"Freehold","paon":"5","saon":"","street":"CLOISTER GREEN","locality":"FORMBY","townOrCity":"LIVERPOOL","district":"SEFTON","county":"MERSEYSIDE","ppdCategoryType":"Standard","recordStatus":"Addition","latitude":53.552335,"longitude":-3.049475,"postcodeStart":"L37 4","postcode":["L37","4HA"]}
{"price":59500,"dateOfTransfer":"1996-03-29T00:00:00","postcodeFull":"L37 4HF","propertyType":"Semi-detached","oldOrNew":"Established","duration":"Freehold","paon":"2","saon":"","street":"FOUNTAINS WAY","locality":"FORMBY","townOrCity":"LIVERPOOL","district":"SEFTON","county":"MERSEYSIDE","ppdCategoryType":"Standard","recordStatus":"Addition","latitude":53.552025,"longitude":-3.049995,"postcodeStart":"L37 4","postcode":["L37","4HF"]}
{"price":70000,"dateOfTransfer":"1996-05-10T00:00:00","postcodeFull":"L37 4JP","propertyType":"Semi-detached","oldOrNew":"Established","duration":"Freehold","paon":"31","saon":"","street":"HAREBELL CLOSE","locality":"LIVERPOOL","townOrCity":"LIVERPOOL","district":"SEFTON","county":"MERSEYSIDE","ppdCategoryType":"Standard","recordStatus":"Addition","latitude":53.549575,"longitude":-3.060742,"postcodeStart":"L37 4","postcode":["L37","4JP"]}
{"price":136000,"dateOfTransfer":"1996-02-15T00:00:00","postcodeFull":"L37 4JP","propertyType":"Detached","oldOrNew":"New build","duration":"Freehold","paon":"44","saon":"","street":"HAREBELL CLOSE","locality":"LIVERPOOL","townOrCity":"LIVERPOOL","district":"SEFTON","county":"MERSEYSIDE","ppdCategoryType":"Standard","recordStatus":"Addition","latitude":53.549575,"longitude":-3.060742,"postcodeStart":"L37 4","postcode":["L37","4JP"]}
{"price":85000,"dateOfTransfer":"1996-03-29T00:00:00","postcodeFull":"L37 4EG","propertyType":"Semi-detached","oldOrNew":"Established","duration":"Freehold","paon":"11","saon":"","street":"FORMBY FIELDS","locality":"LIVERPOOL","townOrCity":"LIVERPOOL","district":"SEFTON","county":"MERSEYSIDE","ppdCategoryType":"Standard","recordStatus":"Addition","latitude":53.552714,"longitude":-3.054405,"postcodeStart":"L37 4","postcode":["L37","4EG"]}
{"price":69950,"dateOfTransfer":"1996-11-08T00:00:00","postcodeFull":"L37 4EP","propertyType":"Semi-detached","oldOrNew":"Established","duration":"Freehold","paon":"77","saon":"","street":"REDGATE","locality":"LIVERPOOL","townOrCity":"LIVERPOOL","district":"SEFTON","county":"MERSEYSIDE","ppdCategoryType":"Standard","recordStatus":"Addition","latitude":53.553307,"longitude":-3.049333,"postcodeStart":"L37 4","postcode":["L37","4EP"]}
{"price":67000,"dateOfTransfer":"1996-12-06T00:00:00","postcodeFull":"L37 4JF","propertyType":"Detached","oldOrNew":"Established","duration":"Freehold","paon":"11","saon":"","street":"HAWTHORNE CRESCENT","locality":"FORMBY","townOrCity":"LIVERPOOL","district":"SEFTON","county":"MERSEYSIDE","ppdCategoryType":"Standard","recordStatus":"Addition","latitude":53.553684,"longitude":-3.053508,"postcodeStart":"L37 4","postcode":["L37","4JF"]}
{"price":79000,"dateOfTransfer":"1996-11-12T00:00:00","postcodeFull":"L37 4DE","propertyType":"Semi-detached","oldOrNew":"Established","duration":"Freehold","paon":"125","saon":"","street":"RAVEN MEOLS LANE","locality":"FORMBY","townOrCity":"LIVERPOOL","district":"SEFTON","county":"MERSEYSIDE","ppdCategoryType":"Standard","recordStatus":"Addition","latitude":53.551085,"longitude":-3.057715,"postcodeStart":"L37 4","postcode":["L37","4DE"]}
{"price":119000,"dateOfTransfer":"1996-06-28T00:00:00","postcodeFull":"L37 4AX","propertyType":"Detached","oldOrNew":"Established","duration":"Freehold","paon":"12","saon":"","street":"DUKES WAY","locality":"LIVERPOOL","townOrCity":"LIVERPOOL","district":"SEFTON","county":"MERSEYSIDE","ppdCategoryType":"Standard","recordStatus":"Addition","latitude":53.554848,"longitude":-3.065161,"postcodeStart":"L37 4","postcode":["L37","4AX"]}
{"price":79999,"dateOfTransfer":"1996-02-29T00:00:00","postcodeFull":"L37 4DG","propertyType":"Semi-detached","oldOrNew":"Established","duration":"Freehold","paon":"80","saon":"","street":"RAVEN MEOLS LANE","locality":"FORMBY","townOrCity":"LIVERPOOL","district":"SEFTON","county":"MERSEYSIDE","ppdCategoryType":"Standard","recordStatus":"Addition","latitude":53.550943,"longitude":-3.063599,"postcodeStart":"L37 4","postcode":["L37","4DG"]}
{"price":58000,"dateOfTransfer":"1996-02-07T00:00:00","postcodeFull":"L37 4EQ","propertyType":"Semi-detached","oldOrNew":"Established","duration":"Freehold","paon":"22","saon":"","street":"DITCHFIELD","locality":"FORMBY","townOrCity":"LIVERPOOL","district":"SEFTON","county":"MERSEYSIDE","ppdCategoryType":"Standard","recordStatus":"Addition","latitude":53.553757,"longitude":-3.052393,"postcodeStart":"L37 4","postcode":["L37","4EQ"]}
{"price":149500,"dateOfTransfer":"1996-03-11T00:00:00","postcodeFull":"L37 4AD","propertyType":"Detached","oldOrNew":"Established","duration":"Leasehold","paon":"9","saon":"","street":"CROPTON ROAD","locality":"LIVERPOOL","townOrCity":"LIVERPOOL","district":"SEFTON","county":"MERSEYSIDE","ppdCategoryType":"Standard","recordStatus":"Addition","latitude":53.555725,"longitude":-3.060533,"postcodeStart":"L37 4","postcode":["L37","4AD"]}
{"price":53000,"dateOfTransfer":"1996-12-12T00:00:00","postcodeFull":"L37 4AP","propertyType":"Semi-detached","oldOrNew":"Established","duration":"Freehold","paon":"31A","saon":"","street":"DUKE STREET","locality":"FORMBY","townOrCity":"LIVERPOOL","district":"SEFTON","county":"MERSEYSIDE","ppdCategoryType":"Standard","recordStatus":"Addition","latitude":53.554323,"longitude":-3.063424,"postcodeStart":"L37 4","postcode":["L37","4AP"]}
{"price":62500,"dateOfTransfer":"1996-06-28T00:00:00","postcodeFull":"L37 4ES","propertyType":"Semi-detached","oldOrNew":"Established","duration":"Freehold","paon":"11","saon":"","street":"CORONATION AVENUE","locality":"FORMBY","townOrCity":"LIVERPOOL","district":"SEFTON","county":"MERSEYSIDE","ppdCategoryType":"Standard","recordStatus":"Addition","latitude":53.551949,"longitude":-3.055548,"postcodeStart":"L37 4","postcode":["L37","4ES"]}
{"price":80000,"dateOfTransfer":"1996-10-31T00:00:00","postcodeFull":"L37 4DA","propertyType":"Detached","oldOrNew":"Established","duration":"Freehold","paon":"5A","saon":"","street":"DICKINSON CLOSE","locality":"FORMBY","townOrCity":"LIVERPOOL","district":"SEFTON","county":"MERSEYSIDE","ppdCategoryType":"Standard","recordStatus":"Addition","latitude":53.55169,"longitude":-3.060447,"postcodeStart":"L37 4","postcode":["L37","4DA"]}
{"price":46000,"dateOfTransfer":"1997-01-08T00:00:00","postcodeFull":"L37 4EP","propertyType":"Semi-detached","oldOrNew":"Established","duration":"Freehold","paon":"63","saon":"","street":"REDGATE","locality":"LIVERPOOL","townOrCity":"LIVERPOOL","district":"SEFTON","county":"MERSEYSIDE","ppdCategoryType":"Standard","recordStatus":"Addition","latitude":53.553307,"longitude":-3.049333,"postcodeStart":"L37 4","postcode":["L37","4EP"]}
{"price":66500,"dateOfTransfer":"1997-02-18T00:00:00","postcodeFull":"L37 4FB","propertyType":"Flat/Maisonette/Townhouse","oldOrNew":"Established","duration":"Leasehold","paon":"39","saon":"","street":"YORK MANOR","locality":"LIVERPOOL","townOrCity":"LIVERPOOL","district":"SEFTON","county":"MERSEYSIDE","ppdCategoryType":"Standard","recordStatus":"Addition","latitude":53.556136,"longitude":-3.058624,"postcodeStart":"L37 4","postcode":["L37","4FB"]}
{"price":120000,"dateOfTransfer":"1997-04-17T00:00:00","postcodeFull":"L37 4DF","propertyType":"Detached","oldOrNew":"Established","duration":"Freehold","paon":"28","saon":"","street":"RAVEN MEOLS LANE","locality":"FORMBY","townOrCity":"LIVERPOOL","district":"SEFTON","county":"MERSEYSIDE","ppdCategoryType":"Standard","recordStatus":"Addition","latitude":53.55087,"longitude":-3.068744,"postcodeStart":"L37 4","postcode":["L37","4DF"]}
{"price":165000,"dateOfTransfer":"1997-06-06T00:00:00","postcodeFull":"L37 4JP","propertyType":"Detached","oldOrNew":"Established","duration":"Freehold","paon":"20","saon":"","street":"HAREBELL CLOSE","locality":"LIVERPOOL","townOrCity":"LIVERPOOL","district":"SEFTON","county":"MERSEYSIDE","ppdCategoryType":"Standard","recordStatus":"Addition","latitude":53.549575,"longitude":-3.060742,"postcodeStart":"L37 4","postcode":["L37","4JP"]}
{"price":149000,"dateOfTransfer":"1997-01-03T00:00:00","postcodeFull":"L37 4BG","propertyType":"Detached","oldOrNew":"Established","duration":"Freehold","paon":"52","saon":"","street":"PHILLIPS LANE","locality":"LIVERPOOL","townOrCity":"LIVERPOOL","district":"SEFTON","county":"MERSEYSIDE","ppdCategoryType":"Standard","recordStatus":"Addition","latitude":53.552704,"longitude":-3.062677,"postcodeStart":"L37 4","postcode":["L37","4BG"]}
{"price":44500,"dateOfTransfer":"1997-10-31T00:00:00","postcodeFull":"L37 4EY","propertyType":"Terraced","oldOrNew":"Established","duration":"Freehold","paon":"28","saon":"","street":"CHEAPSIDE","locality":"FORMBY","townOrCity":"LIVERPOOL","district":"SEFTON","county":"MERSEYSIDE","ppdCategoryType":"Standard","recordStatus":"Addition","latitude":53.551546,"longitude":-3.054421,"postcodeStart":"L37 4","postcode":["L37","4EY"]}
{"price":64000,"dateOfTransfer":"1997-02-24T00:00:00","postcodeFull":"L37 4AP","propertyType":"Semi-detached","oldOrNew":"Established","duration":"Freehold","paon":"37","saon":"","street":"DUKE STREET","locality":"FORMBY","townOrCity":"LIVERPOOL","district":"SEFTON","county":"MERSEYSIDE","ppdCategoryType":"Standard","recordStatus":"Addition","latitude":53.554323,"longitude":-3.063424,"postcodeStart":"L37 4","postcode":["L37","4AP"]}
{"price":69950,"dateOfTransfer":"1997-12-08T00:00:00","postcodeFull":"L37 4HG","propertyType":"Semi-detached","oldOrNew":"Established","duration":"Freehold","paon":"147","saon":"","street":"ALT ROAD","locality":"FORMBY","townOrCity":"LIVERPOOL","district":"SEFTON","county":"MERSEYSIDE","ppdCategoryType":"Standard","recordStatus":"Addition","latitude":53.55287,"longitude":-3.047918,"postcodeStart":"L37 4","postcode":["L37","4HG"]}
{"price":84500,"dateOfTransfer":"1997-06-30T00:00:00","postcodeFull":"L37 4BE","propertyType":"Semi-detached","oldOrNew":"Established","duration":"Freehold","paon":"4","saon":"","street":"TYRERS CLOSE","locality":"FORMBY","townOrCity":"LIVERPOOL","district":"SEFTON","county":"MERSEYSIDE","ppdCategoryType":"Standard","recordStatus":"Addition","latitude":53.55231,"longitude":-3.061459,"postcodeStart":"L37 4","postcode":["L37","4BE"]}
{"price":63000,"dateOfTransfer":"1997-04-22T00:00:00","postcodeFull":"L37 4HD","propertyType":"Semi-detached","oldOrNew":"Established","duration":"Freehold","paon":"40","saon":"","street":"BUCKFAST DRIVE","locality":"LIVERPOOL","townOrCity":"LIVERPOOL","district":"SEFTON","county":"MERSEYSIDE","ppdCategoryType":"Standard","recordStatus":"Addition","latitude":53.554098,"longitude":-3.04733,"postcodeStart":"L37 4","postcode":["L37","4HD"]}
{"price":82000,"dateOfTransfer":"1997-07-21T00:00:00","postcodeFull":"L37 4AX","propertyType":"Semi-detached","oldOrNew":"Established","duration":"Freehold","paon":"7","saon":"","street":"DUKES WAY","locality":"LIVERPOOL","townOrCity":"LIVERPOOL","district":"SEFTON","county":"MERSEYSIDE","ppdCategoryType":"Standard","recordStatus":"Addition","latitude":53.554848,"longitude":-3.065161,"postcodeStart":"L37 4","postcode":["L37","4AX"]}
{"price":68950,"dateOfTransfer":"1997-11-04T00:00:00","postcodeFull":"L37 4HD","propertyType":"Semi-detached","oldOrNew":"Established","duration":"Freehold","paon":"6","saon":"","street":"BUCKFAST DRIVE","locality":"LIVERPOOL","townOrCity":"LIVERPOOL","district":"SEFTON","county":"MERSEYSIDE","ppdCategoryType":"Standard","recordStatus":"Addition","latitude":53.554098,"longitude":-3.04733,"postcodeStart":"L37 4","postcode":["L37","4HD"]}
{"price":72950,"dateOfTransfer":"1997-10-30T00:00:00","postcodeFull":"L37 4EU","propertyType":"Semi-detached","oldOrNew":"Established","duration":"Freehold","paon":"17","saon":"","street":"FRIARS WALK","locality":"FORMBY","townOrCity":"LIVERPOOL","district":"SEFTON","county":"MERSEYSIDE","ppdCategoryType":"Standard","recordStatus":"Addition","latitude":53.551919,"longitude":-3.04874,"postcodeStart":"L37 4","postcode":["L37","4EU"]}
{"price":59500,"dateOfTransfer":"1997-02-27T00:00:00","postcodeFull":"L37 4BQ","propertyType":"Flat/Maisonette/Townhouse","oldOrNew":"Established","duration":"Leasehold","paon":"CONIFER COURT","saon":"9","street":"PHILLIPS LANE","locality":"LIVERPOOL","townOrCity":"LIVERPOOL","district":"SEFTON","county":"MERSEYSIDE","ppdCategoryType":"Standard","recordStatus":"Addition","latitude":53.553366,"longitude":-3.058935,"postcodeStart":"L37 4","postcode":["L37","4BQ"]}
{"price":68950,"dateOfTransfer":"1997-11-03T00:00:00","postcodeFull":"L37 4EL","propertyType":"Semi-detached","oldOrNew":"Established","duration":"Freehold","paon":"7","saon":"","street":"SEAFIELD","locality":"FORMBY","townOrCity":"LIVERPOOL","district":"SEFTON","county":"MERSEYSIDE","ppdCategoryType":"Standard","recordStatus":"Addition","latitude":53.553281,"longitude":-3.05131,"postcodeStart":"L37 4","postcode":["L37","4EL"]}
{"price":74000,"dateOfTransfer":"1997-12-19T00:00:00","postcodeFull":"L37 4HE","propertyType":"Semi-detached","oldOrNew":"Established","duration":"Freehold","paon":"3","saon":"","street":"FOUNTAINS WAY","locality":"FORMBY","townOrCity":"LIVERPOOL","district":"SEFTON","county":"MERSEYSIDE","ppdCategoryType":"Standard","recordStatus":"Addition","latitude":53.551511,"longitude":-3.050179,"postcodeStart":"L37 4","postcode":["L37","4HE"]}
{"price":68450,"dateOfTransfer":"1997-10-27T00:00:00","postcodeFull":"L37 4DA","propertyType":"Semi-detached","oldOrNew":"Established","duration":"Freehold","paon":"2","saon":"","street":"DICKINSON CLOSE","locality":"FORMBY","townOrCity":"LIVERPOOL","district":"SEFTON","county":"MERSEYSIDE","ppdCategoryType":"Standard","recordStatus":"Addition","latitude":53.55169,"longitude":-3.060447,"postcodeStart":"L37 4","postcode":["L37","4DA"]}
{"price":81000,"dateOfTransfer":"1997-01-20T00:00:00","postcodeFull":"L37 4BS","propertyType":"Detached","oldOrNew":"Established","duration":"Freehold","paon":"6","saon":"","street":"LIVERPOOL ROAD","locality":"FORMBY","townOrCity":"LIVERPOOL","district":"SEFTON","county":"MERSEYSIDE","ppdCategoryType":"Standard","recordStatus":"Addition","latitude":53.552866,"longitude":-3.057549,"postcodeStart":"L37 4","postcode":["L37","4BS"]}
{"price":75000,"dateOfTransfer":"1997-10-28T00:00:00","postcodeFull":"L37 4EW","propertyType":"Detached","oldOrNew":"Established","duration":"Freehold","paon":"16","saon":"","street":"REDGATE","locality":"LIVERPOOL","townOrCity":"LIVERPOOL","district":"SEFTON","county":"MERSEYSIDE","ppdCategoryType":"Standard","recordStatus":"Addition","latitude":53.552694,"longitude":-3.05054,"postcodeStart":"L37 4","postcode":["L37","4EW"]}
{"price":73500,"dateOfTransfer":"1997-09-19T00:00:00","postcodeFull":"L37 4ES","propertyType":"Semi-detached","oldOrNew":"Established","duration":"Freehold","paon":"15","saon":"","street":"CORONATION AVENUE","locality":"FORMBY","townOrCity":"LIVERPOOL","district":"SEFTON","county":"MERSEYSIDE","ppdCategoryType":"Standard","recordStatus":"Addition","latitude":53.551949,"longitude":-3.055548,"postcodeStart":"L37 4","postcode":["L37","4ES"]}
{"price":71500,"dateOfTransfer":"1997-03-07T00:00:00","postcodeFull":"L37 4FB","propertyType":"Flat/Maisonette/Townhouse","oldOrNew":"Established","duration":"Leasehold","paon":"20","saon":"","street":"YORK MANOR","locality":"LIVERPOOL","townOrCity":"LIVERPOOL","district":"SEFTON","county":"MERSEYSIDE","ppdCategoryType":"Standard","recordStatus":"Addition","latitude":53.556136,"longitude":-3.058624,"postcodeStart":"L37 4","postcode":["L37","4FB"]}
{"price":54000,"dateOfTransfer":"1997-02-19T00:00:00","postcodeFull":"L37 4BY","propertyType":"Flat/Maisonette/Townhouse","oldOrNew":"Established","duration":"Leasehold","paon":"RAVEN MEOLS LODGE","saon":"33D","street":"RAVEN MEOLS LANE","locality":"FORMBY","townOrCity":"LIVERPOOL","district":"SEFTON","county":"MERSEYSIDE","ppdCategoryType":"Standard","recordStatus":"Addition","latitude":53.551371,"longitude":-3.067971,"postcodeStart":"L37 4","postcode":["L37","4BY"]}
{"price":65000,"dateOfTransfer":"1997-12-01T00:00:00","postcodeFull":"L37 4FB","propertyType":"Flat/Maisonette/Townhouse","oldOrNew":"Established","duration":"Leasehold","paon":"12","saon":"","street":"YORK MANOR","locality":"LIVERPOOL","townOrCity":"LIVERPOOL","district":"SEFTON","county":"MERSEYSIDE","ppdCategoryType":"Standard","recordStatus":"Addition","latitude":53.556136,"longitude":-3.058624,"postcodeStart":"L37 4","postcode":["L37","4FB"]}
{"price":56500,"dateOfTransfer":"1997-03-21T00:00:00","postcodeFull":"L37 4AG","propertyType":"Semi-detached","oldOrNew":"Established","duration":"Leasehold","paon":"19","saon":"","street":"THREE TUNS LANE","locality":"LIVERPOOL","townOrCity":"LIVERPOOL","district":"SEFTON","county":"MERSEYSIDE","ppdCategoryType":"Standard","recordStatus":"Addition","latitude":53.555117,"longitude":-3.058991,"postcodeStart":"L37 4","postcode":["L37","4AG"]}
{"price":65000,"dateOfTransfer":"1997-11-28T00:00:00","postcodeFull":"L37 4HE","propertyType":"Semi-detached","oldOrNew":"Established","duration":"Freehold","paon":"39","saon":"","street":"FOUNTAINS WAY","locality":"FORMBY","townOrCity":"LIVERPOOL","district":"SEFTON","county":"MERSEYSIDE","ppdCategoryType":"Standard","recordStatus":"Addition","latitude":53.551511,"longitude":-3.050179,"postcodeStart":"L37 4","postcode":["L37","4HE"]}
{"price":82000,"dateOfTransfer":"1997-01-23T00:00:00","postcodeFull":"L37 4BX","propertyType":"Flat/Maisonette/Townhouse","oldOrNew":"Established","duration":"Leasehold","paon":"18","saon":"","street":"DICKINSON ROAD","locality":"LIVERPOOL","townOrCity":"LIVERPOOL","district":"SEFTON","county":"MERSEYSIDE","ppdCategoryType":"Standard","recordStatus":"Addition","latitude":53.552415,"longitude":-3.059633,"postcodeStart":"L37 4","postcode":["L37","4BX"]}
{"price":35000,"dateOfTransfer":"1997-03-07T00:00:00","postcodeFull":"L37 4EZ","propertyType":"Semi-detached","oldOrNew":"Established","duration":"Freehold","paon":"19","saon":"","street":"CHEAPSIDE","locality":"FORMBY","townOrCity":"LIVERPOOL","district":"SEFTON","county":"MERSEYSIDE","ppdCategoryType":"Standard","recordStatus":"Addition","latitude":53.552006,"longitude":-3.054206,"postcodeStart":"L37 4","postcode":["L37","4EZ"]}
{"price":63000,"dateOfTransfer":"1997-11-28T00:00:00","postcodeFull":"L37 4FB","propertyType":"Flat/Maisonette/Townhouse","oldOrNew":"Established","duration":"Leasehold","paon":"14","saon":"","street":"YORK MANOR","locality":"LIVERPOOL","townOrCity":"LIVERPOOL","district":"SEFTON","county":"MERSEYSIDE","ppdCategoryType":"Standard","recordStatus":"Addition","latitude":53.556136,"longitude":-3.058624,"postcodeStart":"L37 4","postcode":["L37","4FB"]}
{"price":84000,"dateOfTransfer":"1997-11-28T00:00:00","postcodeFull":"L37 4DH","propertyType":"Semi-detached","oldOrNew":"Established","duration":"Freehold","paon":"17","saon":"","street":"WALKER CLOSE","locality":"FORMBY","townOrCity":"LIVERPOOL","district":"SEFTON","county":"MERSEYSIDE","ppdCategoryType":"Standard","recordStatus":"Addition","latitude":53.551775,"longitude":-3.063031,"postcodeStart":"L37 4","postcode":["L37","4DH"]}
{"price":82500,"dateOfTransfer":"1997-04-17T00:00:00","postcodeFull":"L37 4BQ","propertyType":"Flat/Maisonette/Townhouse","oldOrNew":"Established","duration":"Leasehold","paon":"CONIFER COURT","saon":"2","street":"PHILLIPS LANE","locality":"LIVERPOOL","townOrCity":"LIVERPOOL","district":"SEFTON","county":"MERSEYSIDE","ppdCategoryType":"Standard","recordStatus":"Addition","latitude":53.553366,"longitude":-3.058935,"postcodeStart":"L37 4","postcode":["L37","4BQ"]}
{"price":81500,"dateOfTransfer":"1997-08-28T00:00:00","postcodeFull":"L37 4BE","propertyType":"Semi-detached","oldOrNew":"Established","duration":"Freehold","paon":"11","saon":"","street":"TYRERS CLOSE","locality":"FORMBY","townOrCity":"LIVERPOOL","district":"SEFTON","county":"MERSEYSIDE","ppdCategoryType":"Standard","recordStatus":"Addition","latitude":53.55231,"longitude":-3.061459,"postcodeStart":"L37 4","postcode":["L37","4BE"]}
{"price":68500,"dateOfTransfer":"1997-04-30T00:00:00","postcodeFull":"L37 4EL","propertyType":"Semi-detached","oldOrNew":"Established","duration":"Freehold","paon":"8","saon":"","street":"SEAFIELD","locality":"FORMBY","townOrCity":"LIVERPOOL","district":"SEFTON","county":"MERSEYSIDE","ppdCategoryType":"Standard","recordStatus":"Addition","latitude":53.553281,"longitude":-3.05131,"postcodeStart":"L37 4","postcode":["L37","4EL"]}
{"price":83000,"dateOfTransfer":"1997-09-08T00:00:00","postcodeFull":"L37 4DH","propertyType":"Semi-detached","oldOrNew":"Established","duration":"Freehold","paon":"14","saon":"","street":"WALKER CLOSE","locality":"FORMBY","townOrCity":"LIVERPOOL","district":"SEFTON","county":"MERSEYSIDE","ppdCategoryType":"Standard","recordStatus":"Addition","latitude":53.551775,"longitude":-3.063031,"postcodeStart":"L37 4","postcode":["L37","4DH"]}
{"price":55000,"dateOfTransfer":"1997-02-27T00:00:00","postcodeFull":"L37 4HJ","propertyType":"Semi-detached","oldOrNew":"Established","duration":"Freehold","paon":"22","saon":"","street":"CARTMEL DRIVE","locality":"FORMBY","townOrCity":"LIVERPOOL","district":"SEFTON","county":"MERSEYSIDE","ppdCategoryType":"Standard","recordStatus":"Addition","latitude":53.553544,"longitude":-3.046908,"postcodeStart":"L37 4","postcode":["L37","4HJ"]}
{"price":73500,"dateOfTransfer":"1997-10-31T00:00:00","postcodeFull":"L37 4AX","propertyType":"Semi-detached","oldOrNew":"Established","duration":"Freehold","paon":"4","saon":"","street":"DUKES WAY","locality":"LIVERPOOL","townOrCity":"LIVERPOOL","district":"SEFTON","county":"MERSEYSIDE","ppdCategoryType":"Standard","recordStatus":"Addition","latitude":53.554848,"longitude":-3.065161,"postcodeStart":"L37 4","postcode":["L37","4AX"]}
{"price":156500,"dateOfTransfer":"1997-04-09T00:00:00","postcodeFull":"L37 4JP","propertyType":"Detached","oldOrNew":"Established","duration":"Freehold","paon":"40","saon":"","street":"HAREBELL CLOSE","locality":"LIVERPOOL","townOrCity":"LIVERPOOL","district":"SEFTON","county":"MERSEYSIDE","ppdCategoryType":"Standard","recordStatus":"Addition","latitude":53.549575,"longitude":-3.060742,"postcodeStart":"L37 4","postcode":["L37","4JP"]}
{"price":107000,"dateOfTransfer":"1997-08-22T00:00:00","postcodeFull":"L37 4AT","propertyType":"Detached","oldOrNew":"Established","duration":"Leasehold","paon":"52","saon":"","street":"DUKE STREET","locality":"FORMBY","townOrCity":"LIVERPOOL","district":"SEFTON","county":"MERSEYSIDE","ppdCategoryType":"Standard","recordStatus":"Addition","latitude":53.55432,"longitude":-3.058593,"postcodeStart":"L37 4","postcode":["L37","4AT"]}
{"price":71000,"dateOfTransfer":"1997-09-26T00:00:00","postcodeFull":"L37 4AA","propertyType":"Semi-detached","oldOrNew":"Established","duration":"Freehold","paon":"20","saon":"","street":"FORMBY STREET","locality":"FORMBY","townOrCity":"LIVERPOOL","district":"SEFTON","county":"MERSEYSIDE","ppdCategoryType":"Standard","recordStatus":"Addition","latitude":53.551931,"longitude":-3.069767,"postcodeStart":"L37 4","postcode":["L37","4AA"]}
{"price":115000,"dateOfTransfer":"1997-09-19T00:00:00","postcodeFull":"L37 4AT","propertyType":"Detached","oldOrNew":"Established","duration":"Freehold","paon":"34","saon":"","street":"DUKE STREET","locality":"FORMBY","townOrCity":"LIVERPOOL","district":"SEFTON","county":"MERSEYSIDE","ppdCategoryType":"Standard","recordStatus":"Addition","latitude":53.55432,"longitude":-3.058593,"postcodeStart":"L37 4","postcode":["L37","4AT"]}
{"price":68700,"dateOfTransfer":"1997-06-27T00:00:00","postcodeFull":"L37 4DB","propertyType":"Semi-detached","oldOrNew":"Established","duration":"Freehold","paon":"16","saon":"","street":"NORBURN CRESCENT","locality":"LIVERPOOL","townOrCity":"LIVERPOOL","district":"SEFTON","county":"MERSEYSIDE","ppdCategoryType":"Standard","recordStatus":"Addition","latitude":53.55254,"longitude":-3.058674,"postcodeStart":"L37 4","postcode":["L37","4DB"]}
{"price":89950,"dateOfTransfer":"1997-07-04T00:00:00","postcodeFull":"L37 4BX","propertyType":"Detached","oldOrNew":"Established","duration":"Freehold","paon":"19","saon":"","street":"DICKINSON ROAD","locality":"LIVERPOOL","townOrCity":"LIVERPOOL","district":"SEFTON","county":"MERSEYSIDE","ppdCategoryType":"Standard","recordStatus":"Addition","latitude":53.552415,"longitude":-3.059633,"postcodeStart":"L37 4","postcode":["L37","4BX"]}
{"price":58000,"dateOfTransfer":"1997-07-31T00:00:00","postcodeFull":"L37 4HD","propertyType":"Semi-detached","oldOrNew":"Established","duration":"Freehold","paon":"24","saon":"","street":"BUCKFAST DRIVE","locality":"LIVERPOOL","townOrCity":"LIVERPOOL","district":"SEFTON","county":"MERSEYSIDE","ppdCategoryType":"Standard","recordStatus":"Addition","latitude":53.554098,"longitude":-3.04733,"postcodeStart":"L37 4","postcode":["L37","4HD"]}
{"price":28000,"dateOfTransfer":"1997-03-17T00:00:00","postcodeFull":"L37 4AL","propertyType":"Semi-detached","oldOrNew":"Established","duration":"Freehold","paon":"3","saon":"","street":"DUKE STREET","locality":"FORMBY","townOrCity":"LIVERPOOL","district":"SEFTON","county":"MERSEYSIDE","ppdCategoryType":"Standard","recordStatus":"Addition","latitude":53.553297,"longitude":-3.069572,"postcodeStart":"L37 4","postcode":["L37","4AL"]}
{"price":52500,"dateOfTransfer":"1997-10-31T00:00:00","postcodeFull":"L37 4HJ","propertyType":"Semi-detached","oldOrNew":"Established","duration":"Freehold","paon":"10","saon":"","street":"CARTMEL DRIVE","locality":"FORMBY","townOrCity":"LIVERPOOL","district":"SEFTON","county":"MERSEYSIDE","ppdCategoryType":"Standard","recordStatus":"Addition","latitude":53.553544,"longitude":-3.046908,"postcodeStart":"L37 4","postcode":["L37","4HJ"]}
{"price":82500,"dateOfTransfer":"1997-03-14T00:00:00","postcodeFull":"L37 4DD","propertyType":"Semi-detached","oldOrNew":"Established","duration":"Freehold","paon":"71","saon":"","street":"RAVEN MEOLS LANE","locality":"FORMBY","townOrCity":"LIVERPOOL","district":"SEFTON","county":"MERSEYSIDE","ppdCategoryType":"Standard","recordStatus":"Addition","latitude":53.551144,"longitude":-3.061264,"postcodeStart":"L37 4","postcode":["L37","4DD"]}
{"price":67950,"dateOfTransfer":"1997-06-06T00:00:00","postcodeFull":"L37 4BT","propertyType":"Semi-detached","oldOrNew":"Established","duration":"Freehold","paon":"18","saon":"","street":"LYTLES CLOSE","locality":"LIVERPOOL","townOrCity":"LIVERPOOL","district":"SEFTON","county":"MERSEYSIDE","ppdCategoryType":"Standard","recordStatus":"Addition","latitude":53.553208,"longitude":-3.056485,"postcodeStart":"L37 4","postcode":["L37","4BT"]}
{"price":46000,"dateOfTransfer":"1997-02-28T00:00:00","postcodeFull":"L37 4BY","propertyType":"Flat/Maisonette/Townhouse","oldOrNew":"Established","duration":"Leasehold","paon":"RAVEN MEOLS LODGE","saon":"33A","street":"RAVEN MEOLS LANE","locality":"FORMBY","townOrCity":"LIVERPOOL","district":"SEFTON","county":"MERSEYSIDE","ppdCategoryType":"Standard","recordStatus":"Addition","latitude":53.551371,"longitude":-3.067971,"postcodeStart":"L37 4","postcode":["L37","4BY"]}
{"price":62000,"dateOfTransfer":"1997-05-16T00:00:00","postcodeFull":"L37 4EN","propertyType":"Semi-detached","oldOrNew":"Established","duration":"Freehold","paon":"27","saon":"","street":"REDGATE","locality":"LIVERPOOL","townOrCity":"LIVERPOOL","district":"SEFTON","county":"MERSEYSIDE","ppdCategoryType":"Standard","recordStatus":"Addition","latitude":53.552634,"longitude":-3.05235,"postcodeStart":"L37 4","postcode":["L37","4EN"]}
{"price":79000,"dateOfTransfer":"1997-04-11T00:00:00","postcodeFull":"L37 4BN","propertyType":"Detached","oldOrNew":"Established","duration":"Freehold","paon":"13","saon":"","street":"LIVERPOOL ROAD","locality":"FORMBY","townOrCity":"LIVERPOOL","district":"SEFTON","county":"MERSEYSIDE","ppdCategoryType":"Standard","recordStatus":"Addition","latitude":53.553088,"longitude":-3.056845,"postcodeStart":"L37 4","postcode":["L37","4BN"]}
{"price":20000,"dateOfTransfer":"1997-07-01T00:00:00","postcodeFull":"L37 4EH","propertyType":"Semi-detached","oldOrNew":"Established","duration":"Freehold","paon":"6","saon":"","street":"MARSHALLSAY","locality":"FORMBY","townOrCity":"LIVERPOOL","district":"SEFTON","county":"MERSEYSIDE","ppdCategoryType":"Standard","recordStatus":"Addition","latitude":53.553009,"longitude":-3.052601,"postcodeStart":"L37 4","postcode":["L37","4EH"]}
{"price":60000,"dateOfTransfer":"1997-04-11T00:00:00","postcodeFull":"L37 4AT","propertyType":"Detached","oldOrNew":"Established","duration":"Freehold","paon":"18","saon":"","street":"DUKE STREET","locality":"FORMBY","townOrCity":"LIVERPOOL","district":"SEFTON","county":"MERSEYSIDE","ppdCategoryType":"Standard","recordStatus":"Addition","latitude":53.55432,"longitude":-3.058593,"postcodeStart":"L37 4","postcode":["L37","4AT"]}
{"price":75000,"dateOfTransfer":"1997-06-16T00:00:00","postcodeFull":"L37 4EY","propertyType":"Semi-detached","oldOrNew":"Established","duration":"Freehold","paon":"9","saon":"","street":"CHEAPSIDE","locality":"FORMBY","townOrCity":"LIVERPOOL","district":"SEFTON","county":"MERSEYSIDE","ppdCategoryType":"Standard","recordStatus":"Addition","latitude":53.551546,"longitude":-3.054421,"postcodeStart":"L37 4","postcode":["L37","4EY"]}
{"price":57000,"dateOfTransfer":"1997-04-30T00:00:00","postcodeFull":"L37 4ES","propertyType":"Semi-detached","oldOrNew":"Established","duration":"Freehold","paon":"6","saon":"","street":"CORONATION AVENUE","locality":"FORMBY","townOrCity":"LIVERPOOL","district":"SEFTON","county":"MERSEYSIDE","ppdCategoryType":"Standard","recordStatus":"Addition","latitude":53.551949,"longitude":-3.055548,"postcodeStart":"L37 4","postcode":["L37","4ES"]}
{"price":86000,"dateOfTransfer":"1997-12-08T00:00:00","postcodeFull":"L37 4JG","propertyType":"Detached","oldOrNew":"Established","duration":"Freehold","paon":"3","saon":"","street":"THE NURSERIES","locality":"FORMBY","townOrCity":"LIVERPOOL","district":"SEFTON","county":"MERSEYSIDE","ppdCategoryType":"Standard","recordStatus":"Addition","latitude":53.553098,"longitude":-3.054777,"postcodeStart":"L37 4","postcode":["L37","4JG"]}
{"price":70000,"dateOfTransfer":"1997-11-13T00:00:00","postcodeFull":"L37 4HF","propertyType":"Semi-detached","oldOrNew":"Established","duration":"Freehold","paon":"32","saon":"","street":"FOUNTAINS WAY","locality":"FORMBY","townOrCity":"LIVERPOOL","district":"SEFTON","county":"MERSEYSIDE","ppdCategoryType":"Standard","recordStatus":"Addition","latitude":53.552025,"longitude":-3.049995,"postcodeStart":"L37 4","postcode":["L37","4HF"]}
{"price":70000,"dateOfTransfer":"1998-07-27T00:00:00","postcodeFull":"L37 4ES","propertyType":"Semi-detached","oldOrNew":"Established","duration":"Freehold","paon":"6","saon":"","street":"CORONATION AVENUE","locality":"FORMBY","townOrCity":"LIVERPOOL","district":"SEFTON","county":"MERSEYSIDE","ppdCategoryType":"Standard","recordStatus":"Addition","latitude":53.551949,"longitude":-3.055548,"postcodeStart":"L37 4","postcode":["L37","4ES"]}
{"price":75000,"dateOfTransfer":"1998-09-11T00:00:00","postcodeFull":"L37 4BR","propertyType":"Detached","oldOrNew":"Established","duration":"Leasehold","paon":"23","saon":"","street":"LIVERPOOL ROAD","locality":"FORMBY","townOrCity":"LIVERPOOL","district":"SEFTON","county":"MERSEYSIDE","ppdCategoryType":"Standard","recordStatus":"Addition","latitude":53.551444,"longitude":-3.055807,"postcodeStart":"L37 4","postcode":["L37","4BR"]}
{"price":58000,"dateOfTransfer":"1998-08-28T00:00:00","postcodeFull":"L37 4HX","propertyType":"Semi-detached","oldOrNew":"Established","duration":"Freehold","paon":"7","saon":"","street":"GLENDALE WAY","locality":"FORMBY","townOrCity":"LIVERPOOL","district":"SEFTON","county":"MERSEYSIDE","ppdCategoryType":"Standard","recordStatus":"Addition","latitude":53.551615,"longitude":-3.061849,"postcodeStart":"L37 4","postcode":["L37","4HX"]}
{"price":86950,"dateOfTransfer":"1998-08-27T00:00:00","postcodeFull":"L37 4DD","propertyType":"Semi-detached","oldOrNew":"Established","duration":"Freehold","paon":"85","saon":"","street":"RAVEN MEOLS LANE","locality":"FORMBY","townOrCity":"LIVERPOOL","district":"SEFTON","county":"MERSEYSIDE","ppdCategoryType":"Standard","recordStatus":"Addition","latitude":53.551144,"longitude":-3.061264,"postcodeStart":"L37 4","postcode":["L37","4DD"]}
{"price":71800,"dateOfTransfer":"1998-02-10T00:00:00","postcodeFull":"L37 4FB","propertyType":"Flat/Maisonette/Townhouse","oldOrNew":"Established","duration":"Leasehold","paon":"22","saon":"","street":"YORK MANOR","locality":"LIVERPOOL","townOrCity":"LIVERPOOL","district":"SEFTON","county":"MERSEYSIDE","ppdCategoryType":"Standard","recordStatus":"Addition","latitude":53.556136,"longitude":-3.058624,"postcodeStart":"L37 4","postcode":["L37","4FB"]}
{"price":47950,"dateOfTransfer":"1998-11-24T00:00:00","postcodeFull":"L37 4BP","propertyType":"Flat/Maisonette/Townhouse","oldOrNew":"New build","duration":"Leasehold","paon":"19","saon":"","street":"CROSS GREEN CLOSE","locality":"LIVERPOOL","townOrCity":"LIVERPOOL","district":"SEFTON","county":"MERSEYSIDE","ppdCategoryType":"Standard","recordStatus":"Addition","latitude":53.553912,"longitude":-3.056216,"postcodeStart":"L37 4","postcode":["L37","4BP"]}
{"price":75995,"dateOfTransfer":"1998-07-10T00:00:00","postcodeFull":"L37 4FB","propertyType":"Flat/Maisonette/Townhouse","oldOrNew":"Established","duration":"Leasehold","paon":"19","saon":"","street":"YORK MANOR","locality":"LIVERPOOL","townOrCity":"LIVERPOOL","district":"SEFTON","county":"MERSEYSIDE","ppdCategoryType":"Standard","recordStatus":"Addition","latitude":53.556136,"longitude":-3.058624,"postcodeStart":"L37 4","postcode":["L37","4FB"]}
{"price":65000,"dateOfTransfer":"1998-12-07T00:00:00","postcodeFull":"L37 4HX","propertyType":"Semi-detached","oldOrNew":"Established","duration":"Freehold","paon":"4","saon":"","street":"GLENDALE WAY","locality":"FORMBY","townOrCity":"LIVERPOOL","district":"SEFTON","county":"MERSEYSIDE","ppdCategoryType":"Standard","recordStatus":"Addition","latitude":53.551615,"longitude":-3.061849,"postcodeStart":"L37 4","postcode":["L37","4HX"]}
{"price":105000,"dateOfTransfer":"1998-12-11T00:00:00","postcodeFull":"L37 4AT","propertyType":"Detached","oldOrNew":"Established","duration":"Leasehold","paon":"54","saon":"","street":"DUKE STREET","locality":"FORMBY","townOrCity":"LIVERPOOL","district":"SEFTON","county":"MERSEYSIDE","ppdCategoryType":"Standard","recordStatus":"Addition","latitude":53.55432,"longitude":-3.058593,"postcodeStart":"L37 4","postcode":["L37","4AT"]}
{"price":72000,"dateOfTransfer":"1998-05-20T00:00:00","postcodeFull":"L37 4FB","propertyType":"Flat/Maisonette/Townhouse","oldOrNew":"Established","duration":"Leasehold","paon":"22","saon":"","street":"YORK MANOR","locality":"LIVERPOOL","townOrCity":"LIVERPOOL","district":"SEFTON","county":"MERSEYSIDE","ppdCategoryType":"Standard","recordStatus":"Addition","latitude":53.556136,"longitude":-3.058624,"postcodeStart":"L37 4","postcode":["L37","4FB"]}
{"price":169000,"dateOfTransfer":"1998-02-06T00:00:00","postcodeFull":"L37 4BN","propertyType":"Detached","oldOrNew":"Established","duration":"Freehold","paon":"3","saon":"","street":"LIVERPOOL ROAD","locality":"FORMBY","townOrCity":"LIVERPOOL","district":"SEFTON","county":"MERSEYSIDE","ppdCategoryType":"Standard","recordStatus":"Addition","latitude":53.553088,"longitude":-3.056845,"postcodeStart":"L37 4","postcode":["L37","4BN"]}
{"price":84000,"dateOfTransfer":"1998-06-18T00:00:00","postcodeFull":"L37 4DH","propertyType":"Semi-detached","oldOrNew":"Established","duration":"Freehold","paon":"16","saon":"","street":"WALKER CLOSE","locality":"FORMBY","townOrCity":"LIVERPOOL","district":"SEFTON","county":"MERSEYSIDE","ppdCategoryType":"Standard","recordStatus":"Addition","latitude":53.551775,"longitude":-3.063031,"postcodeStart":"L37 4","postcode":["L37","4DH"]}
{"price":49000,"dateOfTransfer":"1998-01-16T00:00:00","postcodeFull":"L37 4BY","propertyType":"Flat/Maisonette/Townhouse","oldOrNew":"Established","duration":"Leasehold","paon":"RAVEN MEOLS LODGE","saon":"33A","street":"RAVEN MEOLS LANE","locality":"FORMBY","townOrCity":"LIVERPOOL","district":"SEFTON","county":"MERSEYSIDE","ppdCategoryType":"Standard","recordStatus":"Addition","latitude":53.551371,"longitude":-3.067971,"postcodeStart":"L37 4","postcode":["L37","4BY"]}
{"price":70000,"dateOfTransfer":"1998-03-27T00:00:00","postcodeFull":"L37 4HF","propertyType":"Semi-detached","oldOrNew":"Established","duration":"Freehold","paon":"20","saon":"","street":"FOUNTAINS WAY","locality":"FORMBY","townOrCity":"LIVERPOOL","district":"SEFTON","county":"MERSEYSIDE","ppdCategoryType":"Standard","recordStatus":"Addition","latitude":53.552025,"longitude":-3.049995,"postcodeStart":"L37 4","postcode":["L37","4HF"]}
{"price":57500,"dateOfTransfer":"1998-03-31T00:00:00","postcodeFull":"L37 4BY","propertyType":"Flat/Maisonette/Townhouse","oldOrNew":"Established","duration":"Leasehold","paon":"RAVEN MEOLS LODGE","saon":"33B","street":"RAVEN MEOLS LANE","locality":"FORMBY","townOrCity":"LIVERPOOL","district":"SEFTON","county":"MERSEYSIDE","ppdCategoryType":"Standard","recordStatus":"Addition","latitude":53.551371,"longitude":-3.067971,"postcodeStart":"L37 4","postcode":["L37","4BY"]}
{"price":68500,"dateOfTransfer":"1998-06-19T00:00:00","postcodeFull":"L37 4DB","propertyType":"Semi-detached","oldOrNew":"Established","duration":"Freehold","paon":"13","saon":"","street":"NORBURN CRESCENT","locality":"LIVERPOOL","townOrCity":"LIVERPOOL","district":"SEFTON","county":"MERSEYSIDE","ppdCategoryType":"Standard","recordStatus":"Addition","latitude":53.55254,"longitude":-3.058674,"postcodeStart":"L37 4","postcode":["L37","4DB"]}
{"price":80000,"dateOfTransfer":"1998-03-13T00:00:00","postcodeFull":"L37 4BT","propertyType":"Semi-detached","oldOrNew":"Established","duration":"Freehold","paon":"7","saon":"","street":"LYTLES CLOSE","locality":"LIVERPOOL","townOrCity":"LIVERPOOL","district":"SEFTON","county":"MERSEYSIDE","ppdCategoryType":"Standard","recordStatus":"Addition","latitude":53.553208,"longitude":-3.056485,"postcodeStart":"L37 4","postcode":["L37","4BT"]}
{"price":79950,"dateOfTransfer":"1998-05-01T00:00:00","postcodeFull":"L37 4AT","propertyType":"Detached","oldOrNew":"Established","duration":"Freehold","paon":"26","saon":"","street":"DUKE STREET","locality":"FORMBY","townOrCity":"LIVERPOOL","district":"SEFTON","county":"MERSEYSIDE","ppdCategoryType":"Standard","recordStatus":"Addition","latitude":53.55432,"longitude":-3.058593,"postcodeStart":"L37 4","postcode":["L37","4AT"]}
{"price":84000,"dateOfTransfer":"1998-07-31T00:00:00","postcodeFull":"L37 4HA","propertyType":"Detached","oldOrNew":"Established","duration":"Freehold","paon":"5","saon":"","street":"CLOISTER GREEN","locality":"FORMBY","townOrCity":"LIVERPOOL","district":"SEFTON","county":"MERSEYSIDE","ppdCategoryType":"Standard","recordStatus":"Addition","latitude":53.552335,"longitude":-3.049475,"postcodeStart":"L37 4","postcode":["L37","4HA"]}
{"price":45000,"dateOfTransfer":"1998-06-26T00:00:00","postcodeFull":"L37 4BP","propertyType":"Flat/Maisonette/Townhouse","oldOrNew":"Established","duration":"Leasehold","paon":"21","saon":"","street":"CROSS GREEN CLOSE","locality":"LIVERPOOL","townOrCity":"LIVERPOOL","district":"SEFTON","county":"MERSEYSIDE","ppdCategoryType":"Standard","recordStatus":"Addition","latitude":53.553912,"longitude":-3.056216,"postcodeStart":"L37 4","postcode":["L37","4BP"]}
{"price":59995,"dateOfTransfer":"1998-03-17T00:00:00","postcodeFull":"L37 4EN","propertyType":"Semi-detached","oldOrNew":"Established","duration":"Freehold","paon":"43","saon":"","street":"REDGATE","locality":"LIVERPOOL","townOrCity":"LIVERPOOL","district":"SEFTON","county":"MERSEYSIDE","ppdCategoryType":"Standard","recordStatus":"Addition","latitude":53.552634,"longitude":-3.05235,"postcodeStart":"L37 4","postcode":["L37","4EN"]}
{"price":46000,"dateOfTransfer":"1998-12-09T00:00:00","postcodeFull":"L37 4BP","propertyType":"Flat/Maisonette/Townhouse","oldOrNew":"Established","duration":"Leasehold","paon":"7","saon":"","street":"CROSS GREEN CLOSE","locality":"LIVERPOOL","townOrCity":"LIVERPOOL","district":"SEFTON","county":"MERSEYSIDE","ppdCategoryType":"Standard","recordStatus":"Addition","latitude":53.553912,"longitude":-3.056216,"postcodeStart":"L37 4","postcode":["L37","4BP"]}
{"price":46550,"dateOfTransfer":"1998-12-11T00:00:00","postcodeFull":"L37 4BP","propertyType":"Flat/Maisonette/Townhouse","oldOrNew":"New build","duration":"Leasehold","paon":"18","saon":"","street":"CROSS GREEN CLOSE","locality":"LIVERPOOL","townOrCity":"LIVERPOOL","district":"SEFTON","county":"MERSEYSIDE","ppdCategoryType":"Standard","recordStatus":"Addition","latitude":53.553912,"longitude":-3.056216,"postcodeStart":"L37 4","postcode":["L37","4BP"]}
{"price":40000,"dateOfTransfer":"1998-03-24T00:00:00","postcodeFull":"L37 4DE","propertyType":"Semi-detached","oldOrNew":"Established","duration":"Freehold","paon":"123","saon":"","street":"RAVEN MEOLS LANE","locality":"FORMBY","townOrCity":"LIVERPOOL","district":"SEFTON","county":"MERSEYSIDE","ppdCategoryType":"Standard","recordStatus":"Addition","latitude":53.551085,"longitude":-3.057715,"postcodeStart":"L37 4","postcode":["L37","4DE"]}
{"price":75950,"dateOfTransfer":"1998-06-22T00:00:00","postcodeFull":"L37 4BQ","propertyType":"Flat/Maisonette/Townhouse","oldOrNew":"Established","duration":"Leasehold","paon":"CONIFER COURT","saon":"4","street":"PHILLIPS LANE","locality":"LIVERPOOL","townOrCity":"LIVERPOOL","district":"SEFTON","county":"MERSEYSIDE","ppdCategoryType":"Standard","recordStatus":"Addition","latitude":53.553366,"longitude":-3.058935,"postcodeStart":"L37 4","postcode":["L37","4BQ"]}
{"price":130000,"dateOfTransfer":"1998-08-20T00:00:00","postcodeFull":"L37 4AT","propertyType":"Detached","oldOrNew":"Established","duration":"Freehold","paon":"48A","saon":"","street":"DUKE STREET","locality":"FORMBY","townOrCity":"LIVERPOOL","district":"SEFTON","county":"MERSEYSIDE","ppdCategoryType":"Standard","recordStatus":"Addition","latitude":53.55432,"longitude":-3.058593,"postcodeStart":"L37 4","postcode":["L37","4AT"]}
{"price":78000,"dateOfTransfer":"1998-08-14T00:00:00","postcodeFull":"L37 4FB","propertyType":"Flat/Maisonette/Townhouse","oldOrNew":"Established","duration":"Leasehold","paon":"18","saon":"","street":"YORK MANOR","locality":"LIVERPOOL","townOrCity":"LIVERPOOL","district":"SEFTON","county":"MERSEYSIDE","ppdCategoryType":"Standard","recordStatus":"Addition","latitude":53.556136,"longitude":-3.058624,"postcodeStart":"L37 4","postcode":["L37","4FB"]}
{"price":71950,"dateOfTransfer":"1998-11-05T00:00:00","postcodeFull":"L37 4EU","propertyType":"Semi-detached","oldOrNew":"Established","duration":"Freehold","paon":"1","saon":"","street":"FRIARS WALK","locality":"FORMBY","townOrCity":"LIVERPOOL","district":"SEFTON","county":"MERSEYSIDE","ppdCategoryType":"Standard","recordStatus":"Addition","latitude":53.551919,"longitude":-3.04874,"postcodeStart":"L37 4","postcode":["L37","4EU"]}
{"price":137000,"dateOfTransfer":"1998-06-18T00:00:00","postcodeFull":"L37 4AY","propertyType":"Detached","oldOrNew":"Established","duration":"Freehold","paon":"7","saon":"","street":"PHILLIPS LANE","locality":"LIVERPOOL","townOrCity":"LIVERPOOL","district":"SEFTON","county":"MERSEYSIDE","ppdCategoryType":"Standard","recordStatus":"Addition","latitude":53.553407,"longitude":-3.06046,"postcodeStart":"L37 4","postcode":["L37","4AY"]}
{"price":59950,"dateOfTransfer":"1998-05-22T00:00:00","postcodeFull":"L37 4HJ","propertyType":"Semi-detached","oldOrNew":"Established","duration":"Freehold","paon":"7","saon":"","street":"CARTMEL DRIVE","locality":"FORMBY","townOrCity":"LIVERPOOL","district":"SEFTON","county":"MERSEYSIDE","ppdCategoryType":"Standard","recordStatus":"Addition","latitude":53.553544,"longitude":-3.046908,"postcodeStart":"L37 4","postcode":["L37","4HJ"]}
{"price":108000,"dateOfTransfer":"1998-07-09T00:00:00","postcodeFull":"L37 4DE","propertyType":"Detached","oldOrNew":"Established","duration":"Leasehold","paon":"147","saon":"","street":"RAVEN MEOLS LANE","locality":"LIVERPOOL","townOrCity":"LIVERPOOL","district":"SEFTON","county":"MERSEYSIDE","ppdCategoryType":"Standard","recordStatus":"Addition","latitude":53.551085,"longitude":-3.057715,"postcodeStart":"L37 4","postcode":["L37","4DE"]}
{"price":69000,"dateOfTransfer":"1998-04-29T00:00:00","postcodeFull":"L37 4FB","propertyType":"Flat/Maisonette/Townhouse","oldOrNew":"Established","duration":"Leasehold","paon":"3","saon":"","street":"YORK MANOR","locality":"LIVERPOOL","townOrCity":"LIVERPOOL","district":"SEFTON","county":"MERSEYSIDE","ppdCategoryType":"Standard","recordStatus":"Addition","latitude":53.556136,"longitude":-3.058624,"postcodeStart":"L37 4","postcode":["L37","4FB"]}
{"price":50000,"dateOfTransfer":"1998-04-30T00:00:00","postcodeFull":"L37 4EZ","propertyType":"Semi-detached","oldOrNew":"Established","duration":"Freehold","paon":"19","saon":"","street":"CHEAPSIDE","locality":"FORMBY","townOrCity":"LIVERPOOL","district":"SEFTON","county":"MERSEYSIDE","ppdCategoryType":"Standard","recordStatus":"Addition","latitude":53.552006,"longitude":-3.054206,"postcodeStart":"L37 4","postcode":["L37","4EZ"]}
{"price":79950,"dateOfTransfer":"1998-10-02T00:00:00","postcodeFull":"L37 4JF","propertyType":"Detached","oldOrNew":"Established","duration":"Freehold","paon":"9","saon":"","street":"HAWTHORNE CRESCENT","locality":"FORMBY","townOrCity":"LIVERPOOL","district":"SEFTON","county":"MERSEYSIDE","ppdCategoryType":"Standard","recordStatus":"Addition","latitude":53.553684,"longitude":-3.053508,"postcodeStart":"L37 4","postcode":["L37","4JF"]}
{"price":73000,"dateOfTransfer":"1998-07-24T00:00:00","postcodeFull":"L37 4EG","propertyType":"Semi-detached","oldOrNew":"Established","duration":"Freehold","paon":"12","saon":"","street":"FORMBY FIELDS","locality":"LIVERPOOL","townOrCity":"LIVERPOOL","district":"SEFTON","county":"MERSEYSIDE","ppdCategoryType":"Standard","recordStatus":"Addition","latitude":53.552714,"longitude":-3.054405,"postcodeStart":"L37 4","postcode":["L37","4EG"]}
{"price":132000,"dateOfTransfer":"1998-05-28T00:00:00","postcodeFull":"L37 4BB","propertyType":"Semi-detached","oldOrNew":"Established","duration":"Freehold","paon":"11","saon":"","street":"KINGS ROAD","locality":"FORMBY","townOrCity":"LIVERPOOL","district":"SEFTON","county":"MERSEYSIDE","ppdCategoryType":"Standard","recordStatus":"Addition","latitude":53.551905,"longitude":-3.067638,"postcodeStart":"L37 4","postcode":["L37","4BB"]}
{"price":64000,"dateOfTransfer":"1998-10-28T00:00:00","postcodeFull":"L37 4BR","propertyType":"Semi-detached","oldOrNew":"Established","duration":"Freehold","paon":"37","saon":"","street":"LIVERPOOL ROAD","locality":"FORMBY","townOrCity":"LIVERPOOL","district":"SEFTON","county":"MERSEYSIDE","ppdCategoryType":"Standard","recordStatus":"Addition","latitude":53.551444,"longitude":-3.055807,"postcodeStart":"L37 4","postcode":["L37","4BR"]}
{"price":74000,"dateOfTransfer":"1998-04-03T00:00:00","postcodeFull":"L37 4BU","propertyType":"Semi-detached","oldOrNew":"Established","duration":"Freehold","paon":"7","saon":"","street":"BIRKEY LANE","locality":"FORMBY","townOrCity":"LIVERPOOL","district":"SEFTON","county":"MERSEYSIDE","ppdCategoryType":"Standard","recordStatus":"Addition","latitude":53.552035,"longitude":-3.058173,"postcodeStart":"L37 4","postcode":["L37","4BU"]}
{"price":97500,"dateOfTransfer":"1998-08-07T00:00:00","postcodeFull":"L37 4DJ","propertyType":"Detached","oldOrNew":"Established","duration":"Freehold","paon":"11","saon":"","street":"MEOLS CLOSE","locality":"FORMBY","townOrCity":"LIVERPOOL","district":"SEFTON","county":"MERSEYSIDE","ppdCategoryType":"Standard","recordStatus":"Addition","latitude":53.551929,"longitude":-3.068952,"postcodeStart":"L37 4","postcode":["L37","4DJ"]}
{"price":89000,"dateOfTransfer":"1998-06-19T00:00:00","postcodeFull":"L37 4BZ","propertyType":"Semi-detached","oldOrNew":"Established","duration":"Freehold","paon":"53","saon":"","street":"RAVEN MEOLS LANE","locality":"FORMBY","townOrCity":"LIVERPOOL","district":"SEFTON","county":"MERSEYSIDE","ppdCategoryType":"Standard","recordStatus":"Addition","latitude":53.551379,"longitude":-3.065059,"postcodeStart":"L37 4","postcode":["L37","4BZ"]}
{"price":155000,"dateOfTransfer":"1998-09-21T00:00:00","postcodeFull":"L37 4AB","propertyType":"Detached","oldOrNew":"Established","duration":"Freehold","paon":"SHAMROCK COTTAGE","saon":"","street":"ELBOW LANE","locality":"LIVERPOOL","townOrCity":"LIVERPOOL","district":"SEFTON","county":"MERSEYSIDE","ppdCategoryType":"Standard","recordStatus":"Addition","latitude":53.555519,"longitude":-3.062491,"postcodeStart":"L37 4","postcode":["L37","4AB"]}
{"price":40000,"dateOfTransfer":"1998-04-24T00:00:00","postcodeFull":"L37 4AG","propertyType":"Terraced","oldOrNew":"Established","duration":"Leasehold","paon":"15","saon":"","street":"THREE TUNS LANE","locality":"LIVERPOOL","townOrCity":"LIVERPOOL","district":"SEFTON","county":"MERSEYSIDE","ppdCategoryType":"Standard","recordStatus":"Addition","latitude":53.555117,"longitude":-3.058991,"postcodeStart":"L37 4","postcode":["L37","4AG"]}
{"price":89000,"dateOfTransfer":"1998-01-22T00:00:00","postcodeFull":"L37 4DD","propertyType":"Semi-detached","oldOrNew":"Established","duration":"Freehold","paon":"65","saon":"","street":"RAVEN MEOLS LANE","locality":"FORMBY","townOrCity":"LIVERPOOL","district":"SEFTON","county":"MERSEYSIDE","ppdCategoryType":"Standard","recordStatus":"Addition","latitude":53.551144,"longitude":-3.061264,"postcodeStart":"L37 4","postcode":["L37","4DD"]}
{"price":108000,"dateOfTransfer":"1998-12-18T00:00:00","postcodeFull":"L37 4BY","propertyType":"Detached","oldOrNew":"Established","duration":"Freehold","paon":"7","saon":"","street":"RAVEN MEOLS LANE","locality":"FORMBY","townOrCity":"LIVERPOOL","district":"SEFTON","county":"MERSEYSIDE","ppdCategoryType":"Standard","recordStatus":"Addition","latitude":53.551371,"longitude":-3.067971,"postcodeStart":"L37 4","postcode":["L37","4BY"]}
{"price":56000,"dateOfTransfer":"1998-09-11T00:00:00","postcodeFull":"L37 4AD","propertyType":"Flat/Maisonette/Townhouse","oldOrNew":"Established","duration":"Leasehold","paon":"CROMPTON HOUSE, 14A","saon":"FLAT 2","street":"CROPTON ROAD","locality":"LIVERPOOL","townOrCity":"LIVERPOOL","district":"SEFTON","county":"MERSEYSIDE","ppdCategoryType":"Standard","recordStatus":"Addition","latitude":53.555725,"longitude":-3.060533,"postcodeStart":"L37 4","postcode":["L37","4AD"]}
{"price":66115,"dateOfTransfer":"1998-09-30T00:00:00","postcodeFull":"L37 4HE","propertyType":"Semi-detached","oldOrNew":"Established","duration":"Freehold","paon":"29","saon":"","street":"FOUNTAINS WAY","locality":"FORMBY","townOrCity":"LIVERPOOL","district":"SEFTON","county":"MERSEYSIDE","ppdCategoryType":"Standard","recordStatus":"Addition","latitude":53.551511,"longitude":-3.050179,"postcodeStart":"L37 4","postcode":["L37","4HE"]}
{"price":93000,"dateOfTransfer":"1998-10-30T00:00:00","postcodeFull":"L37 4DD","propertyType":"Semi-detached","oldOrNew":"Established","duration":"Freehold","paon":"71","saon":"","street":"RAVEN MEOLS LANE","locality":"FORMBY","townOrCity":"LIVERPOOL","district":"SEFTON","county":"MERSEYSIDE","ppdCategoryType":"Standard","recordStatus":"Addition","latitude":53.551144,"longitude":-3.061264,"postcodeStart":"L37 4","postcode":["L37","4DD"]}
{"price":54500,"dateOfTransfer":"1998-10-16T00:00:00","postcodeFull":"L37 4AA","propertyType":"Semi-detached","oldOrNew":"Established","duration":"Freehold","paon":"8","saon":"","street":"FORMBY STREET","locality":"FORMBY","townOrCity":"LIVERPOOL","district":"SEFTON","county":"MERSEYSIDE","ppdCategoryType":"Standard","recordStatus":"Addition","latitude":53.551931,"longitude":-3.069767,"postcodeStart":"L37 4","postcode":["L37","4AA"]}
{"price":59950,"dateOfTransfer":"1998-09-04T00:00:00","postcodeFull":"L37 4HG","propertyType":"Semi-detached","oldOrNew":"Established","duration":"Freehold","paon":"123","saon":"","street":"ALT ROAD","locality":"FORMBY","townOrCity":"LIVERPOOL","district":"SEFTON","county":"MERSEYSIDE","ppdCategoryType":"Standard","recordStatus":"Addition","latitude":53.55287,"longitude":-3.047918,"postcodeStart":"L37 4","postcode":["L37","4HG"]}
{"price":77950,"dateOfTransfer":"1998-04-03T00:00:00","postcodeFull":"L37 4JP","propertyType":"Semi-detached","oldOrNew":"Established","duration":"Freehold","paon":"23","saon":"","street":"HAREBELL CLOSE","locality":"LIVERPOOL","townOrCity":"LIVERPOOL","district":"SEFTON","county":"MERSEYSIDE","ppdCategoryType":"Standard","recordStatus":"Addition","latitude":53.549575,"longitude":-3.060742,"postcodeStart":"L37 4","postcode":["L37","4JP"]}
{"price":65000,"dateOfTransfer":"1998-06-05T00:00:00","postcodeFull":"L37 4ER","propertyType":"Terraced","oldOrNew":"Established","duration":"Freehold","paon":"5","saon":"","street":"THIRLMERE AVENUE","locality":"FORMBY","townOrCity":"LIVERPOOL","district":"SEFTON","county":"MERSEYSIDE","ppdCategoryType":"Standard","recordStatus":"Addition","latitude":53.55089,"longitude":-3.054405,"postcodeStart":"L37 4","postcode":["L37","4ER"]}
{"price":52500,"dateOfTransfer":"1998-10-30T00:00:00","postcodeFull":"L37 4AD","propertyType":"Flat/Maisonette/Townhouse","oldOrNew":"Established","duration":"Leasehold","paon":"NEWBY COURT, 13","saon":"FLAT 3","street":"CROPTON ROAD","locality":"LIVERPOOL","townOrCity":"LIVERPOOL","district":"SEFTON","county":"MERSEYSIDE","ppdCategoryType":"Standard","recordStatus":"Addition","latitude":53.555725,"longitude":-3.060533,"postcodeStart":"L37 4","postcode":["L37","4AD"]}
{"price":59995,"dateOfTransfer":"1998-01-12T00:00:00","postcodeFull":"L37 4EU","propertyType":"Semi-detached","oldOrNew":"Established","duration":"Freehold","paon":"2","saon":"","street":"FRIARS WALK","locality":"FORMBY","townOrCity":"LIVERPOOL","district":"SEFTON","county":"MERSEYSIDE","ppdCategoryType":"Standard","recordStatus":"Addition","latitude":53.551919,"longitude":-3.04874,"postcodeStart":"L37 4","postcode":["L37","4EU"]}
{"price":79000,"dateOfTransfer":"1998-12-11T00:00:00","postcodeFull":"L37 4JF","propertyType":"Detached","oldOrNew":"Established","duration":"Freehold","paon":"8","saon":"","street":"HAWTHORNE CRESCENT","locality":"FORMBY","townOrCity":"LIVERPOOL","district":"SEFTON","county":"MERSEYSIDE","ppdCategoryType":"Standard","recordStatus":"Addition","latitude":53.553684,"longitude":-3.053508,"postcodeStart":"L37 4","postcode":["L37","4JF"]}
{"price":115000,"dateOfTransfer":"1998-11-26T00:00:00","postcodeFull":"L37 4AZ","propertyType":"Detached","oldOrNew":"Established","duration":"Freehold","paon":"34","saon":"","street":"PHILLIPS LANE","locality":"LIVERPOOL","townOrCity":"LIVERPOOL","district":"SEFTON","county":"MERSEYSIDE","ppdCategoryType":"Standard","recordStatus":"Addition","latitude":53.552286,"longitude":-3.065232,"postcodeStart":"L37 4","postcode":["L37","4AZ"]}
{"price":68000,"dateOfTransfer":"1999-06-11T00:00:00","postcodeFull":"L37 4HD","propertyType":"Semi-detached","oldOrNew":"Established","duration":"Freehold","paon":"23","saon":"","street":"BUCKFAST DRIVE","locality":"","townOrCity":"LIVERPOOL","district":"SEFTON","county":"MERSEYSIDE","ppdCategoryType":"Standard","recordStatus":"Addition","latitude":53.554098,"longitude":-3.04733,"postcodeStart":"L37 4","postcode":["L37","4HD"]}
{"price":62000,"dateOfTransfer":"1999-06-18T00:00:00","postcodeFull":"L37 4BQ","propertyType":"Flat/Maisonette/Townhouse","oldOrNew":"Established","duration":"Leasehold","paon":"CONIFER COURT","saon":"10","street":"PHILLIPS LANE","locality":"","townOrCity":"LIVERPOOL","district":"SEFTON","county":"MERSEYSIDE","ppdCategoryType":"Standard","recordStatus":"Addition","latitude":53.553366,"longitude":-3.058935,"postcodeStart":"L37 4","postcode":["L37","4BQ"]}
{"price":97000,"dateOfTransfer":"1999-08-31T00:00:00","postcodeFull":"L37 4AA","propertyType":"Semi-detached","oldOrNew":"Established","duration":"Leasehold","paon":"19","saon":"","street":"FORMBY STREET","locality":"FORMBY","townOrCity":"LIVERPOOL","district":"SEFTON","county":"MERSEYSIDE","ppdCategoryType":"Standard","recordStatus":"Addition","latitude":53.551931,"longitude":-3.069767,"postcodeStart":"L37 4","postcode":["L37","4AA"]}
{"price":70000,"dateOfTransfer":"1999-07-30T00:00:00","postcodeFull":"L37 4DQ","propertyType":"Semi-detached","oldOrNew":"Established","duration":"Freehold","paon":"144","saon":"","street":"RAVEN MEOLS LANE","locality":"","townOrCity":"LIVERPOOL","district":"SEFTON","county":"MERSEYSIDE","ppdCategoryType":"Standard","recordStatus":"Addition","latitude":53.550663,"longitude":-3.05772,"postcodeStart":"L37 4","postcode":["L37","4DQ"]}
{"price":69950,"dateOfTransfer":"1999-11-24T00:00:00","postcodeFull":"L37 4ER","propertyType":"Semi-detached","oldOrNew":"Established","duration":"Freehold","paon":"6","saon":"","street":"THIRLMERE AVENUE","locality":"FORMBY","townOrCity":"LIVERPOOL","district":"SEFTON","county":"MERSEYSIDE","ppdCategoryType":"Standard","recordStatus":"Addition","latitude":53.55089,"longitude":-3.054405,"postcodeStart":"L37 4","postcode":["L37","4ER"]}
{"price":141000,"dateOfTransfer":"1999-07-12T00:00:00","postcodeFull":"L37 4JP","propertyType":"Detached","oldOrNew":"Established","duration":"Freehold","paon":"21","saon":"","street":"HAREBELL CLOSE","locality":"","townOrCity":"LIVERPOOL","district":"SEFTON","county":"MERSEYSIDE","ppdCategoryType":"Standard","recordStatus":"Addition","latitude":53.549575,"longitude":-3.060742,"postcodeStart":"L37 4","postcode":["L37","4JP"]}
{"price":73000,"dateOfTransfer":"1999-08-16T00:00:00","postcodeFull":"L37 4BT","propertyType":"Semi-detached","oldOrNew":"Established","duration":"Freehold","paon":"15","saon":"","street":"LYTLES CLOSE","locality":"","townOrCity":"LIVERPOOL","district":"SEFTON","county":"MERSEYSIDE","ppdCategoryType":"Standard","recordStatus":"Addition","latitude":53.553208,"longitude":-3.056485,"postcodeStart":"L37 4","postcode":["L37","4BT"]}
{"price":58500,"dateOfTransfer":"1999-03-26T00:00:00","postcodeFull":"L37 4HL","propertyType":"Terraced","oldOrNew":"Established","duration":"Freehold","paon":"10","saon":"","street":"KIRKSTALL DRIVE","locality":"","townOrCity":"LIVERPOOL","district":"SEFTON","county":"MERSEYSIDE","ppdCategoryType":"Standard","recordStatus":"Addition","latitude":53.552657,"longitude":-3.0466,"postcodeStart":"L37 4","postcode":["L37","4HL"]}
{"price":59995,"dateOfTransfer":"1999-11-16T00:00:00","postcodeFull":"L37 4HE","propertyType":"Semi-detached","oldOrNew":"Established","duration":"Freehold","paon":"33","saon":"","street":"FOUNTAINS WAY","locality":"FORMBY","townOrCity":"LIVERPOOL","district":"SEFTON","county":"MERSEYSIDE","ppdCategoryType":"Standard","recordStatus":"Addition","latitude":53.551511,"longitude":-3.050179,"postcodeStart":"L37 4","postcode":["L37","4HE"]}
{"price":165000,"dateOfTransfer":"1999-03-08T00:00:00","postcodeFull":"L37 4DF","propertyType":"Detached","oldOrNew":"Established","duration":"Freehold","paon":"34","saon":"","street":"RAVEN MEOLS LANE","locality":"FORMBY","townOrCity":"LIVERPOOL","district":"SEFTON","county":"MERSEYSIDE","ppdCategoryType":"Standard","recordStatus":"Addition","latitude":53.55087,"longitude":-3.068744,"postcodeStart":"L37 4","postcode":["L37","4DF"]}
{"price":54000,"dateOfTransfer":"1999-03-05T00:00:00","postcodeFull":"L37 4EP","propertyType":"Semi-detached","oldOrNew":"Established","duration":"Freehold","paon":"67","saon":"","street":"REDGATE","locality":"","townOrCity":"LIVERPOOL","district":"SEFTON","county":"MERSEYSIDE","ppdCategoryType":"Standard","recordStatus":"Addition","latitude":53.553307,"longitude":-3.049333,"postcodeStart":"L37 4","postcode":["L37","4EP"]}
{"price":62000,"dateOfTransfer":"1999-05-19T00:00:00","postcodeFull":"L37 4HJ","propertyType":"Semi-detached","oldOrNew":"Established","duration":"Freehold","paon":"17","saon":"","street":"CARTMEL DRIVE","locality":"FORMBY","townOrCity":"LIVERPOOL","district":"SEFTON","county":"MERSEYSIDE","ppdCategoryType":"Standard","recordStatus":"Addition","latitude":53.553544,"longitude":-3.046908,"postcodeStart":"L37 4","postcode":["L37","4HJ"]}
{"price":62500,"dateOfTransfer":"1999-09-15T00:00:00","postcodeFull":"L37 4BQ","propertyType":"Flat/Maisonette/Townhouse","oldOrNew":"Established","duration":"Leasehold","paon":"CONIFER COURT","saon":"13","street":"PHILLIPS LANE","locality":"","townOrCity":"LIVERPOOL","district":"SEFTON","county":"MERSEYSIDE","ppdCategoryType":"Standard","recordStatus":"Addition","latitude":53.553366,"longitude":-3.058935,"postcodeStart":"L37 4","postcode":["L37","4BQ"]}
{"price":28000,"dateOfTransfer":"1999-09-16T00:00:00","postcodeFull":"L37 4BY","propertyType":"Flat/Maisonette/Townhouse","oldOrNew":"Established","duration":"Leasehold","paon":"RAVEN MEOLS LODGE","saon":"33C","street":"RAVEN MEOLS LANE","locality":"FORMBY","townOrCity":"LIVERPOOL","district":"SEFTON","county":"MERSEYSIDE","ppdCategoryType":"Standard","recordStatus":"Addition","latitude":53.551371,"longitude":-3.067971,"postcodeStart":"L37 4","postcode":["L37","4BY"]}
{"price":72500,"dateOfTransfer":"1999-09-17T00:00:00","postcodeFull":"L37 4HD","propertyType":"Semi-detached","oldOrNew":"Established","duration":"Freehold","paon":"20","saon":"","street":"BUCKFAST DRIVE","locality":"","townOrCity":"LIVERPOOL","district":"SEFTON","county":"MERSEYSIDE","ppdCategoryType":"Standard","recordStatus":"Addition","latitude":53.554098,"longitude":-3.04733,"postcodeStart":"L37 4","postcode":["L37","4HD"]}
{"price":90000,"dateOfTransfer":"1999-02-19T00:00:00","postcodeFull":"L37 4HY","propertyType":"Detached","oldOrNew":"Established","duration":"Freehold","paon":"3","saon":"","street":"RAVENSCROFT","locality":"FORMBY","townOrCity":"LIVERPOOL","district":"SEFTON","county":"MERSEYSIDE","ppdCategoryType":"Standard","recordStatus":"Addition","latitude":53.551769,"longitude":-3.064706,"postcodeStart":"L37 4","postcode":["L37","4HY"]}
