{"price":120000,"dateOfTransfer":"1995-02-13T00:00:00","postcodeFull":"LA8 8BB","propertyType":"Detached","oldOrNew":"Established","duration":"Freehold","paon":"ROCKYFIELD","saon":"","street":"","locality":"UNDERBARROW","townOrCity":"KENDAL","district":"SOUTH LAKELAND","county":"CUMBRIA","ppdCategoryType":"Standard","recordStatus":"Addition","latitude":54.316654,"longitude":-2.813635,"postcodeStart":"LA8 8","postcode":["LA8","8BB"]}
{"price":72500,"dateOfTransfer":"1995-06-19T00:00:00","postcodeFull":"LA8 8QF","propertyType":"Semi-detached","oldOrNew":"New build","duration":"Freehold","paon":"3","saon":"","street":"STONE LANDS","locality":"LEVENS","townOrCity":"KENDAL","district":"SOUTH LAKELAND","county":"CUMBRIA","ppdCategoryType":"Standard","recordStatus":"Addition","latitude":54.263907,"longitude":-2.791991,"postcodeStart":"LA8 8","postcode":["LA8","8QF"]}
{"price":120000,"dateOfTransfer":"1995-11-13T00:00:00","postcodeFull":"LA8 8NQ","propertyType":"Detached","oldOrNew":"Established","duration":"Freehold","paon":"GILTHRIGG","saon":"","street":"","locality":"LEVENS","townOrCity":"KENDAL","district":"SOUTH LAKELAND","county":"CUMBRIA","ppdCategoryType":"Standard","recordStatus":"Addition","latitude":54.265922,"longitude":-2.784891,"postcodeStart":"LA8 8","postcode":["LA8","8NQ"]}
{"price":43500,"dateOfTransfer":"1995-08-31T00:00:00","postcodeFull":"LA8 8NB","propertyType":"Terraced","oldOrNew":"Established","duration":"Freehold","paon":"POST COTTAGE","saon":"","street":"MAIN STREET","locality":"LEVENS","townOrCity":"KENDAL","district":"SOUTH LAKELAND","county":"CUMBRIA","ppdCategoryType":"Standard","recordStatus":"Addition","latitude":54.268656,"longitude":-2.78743,"postcodeStart":"LA8 8","postcode":["LA8","8NB"]}
{"price":57000,"dateOfTransfer":"1995-08-02T00:00:00","postcodeFull":"LA8 8ET","propertyType":"Semi-detached","oldOrNew":"Established","duration":"Freehold","paon":"2","saon":"","street":"MIDDLE FOULSHAW COTTAGE","locality":"LEVENS","townOrCity":"KENDAL","district":"SOUTH LAKELAND","county":"CUMBRIA","ppdCategoryType":"Standard","recordStatus":"Addition","latitude":54.232042,"longitude":-2.811508,"postcodeStart":"LA8 8","postcode":["LA8","8ET"]}
{"price":35000,"dateOfTransfer":"1995-12-12T00:00:00","postcodeFull":"LA8 8EQ","propertyType":"Semi-detached","oldOrNew":"Established","duration":"Freehold","paon":"HIGH SAMPOOL","saon":"LEVENS VIEW","street":"","locality":"LEVENS","townOrCity":"KENDAL","district":"SOUTH LAKELAND","county":"CUMBRIA","ppdCategoryType":"Standard","recordStatus":"Addition","latitude":54.255016,"longitude":-2.79641,"postcodeStart":"LA8 8","postcode":["LA8","8EQ"]}
{"price":72500,"dateOfTransfer":"1995-07-07T00:00:00","postcodeFull":"LA8 8QF","propertyType":"Semi-detached","oldOrNew":"New build","duration":"Freehold","paon":"4","saon":"","street":"STONE LANDS","locality":"LEVENS","townOrCity":"KENDAL","district":"SOUTH LAKELAND","county":"CUMBRIA","ppdCategoryType":"Standard","recordStatus":"Addition","latitude":54.263907,"longitude":-2.791991,"postcodeStart":"LA8 8","postcode":["LA8","8QF"]}
{"price":140000,"dateOfTransfer":"1995-01-13T00:00:00","postcodeFull":"LA8 8JZ","propertyType":"Detached","oldOrNew":"Established","duration":"Freehold","paon":"HIGH CROFT","saon":"","street":"","locality":"CROOK","townOrCity":"KENDAL","district":"SOUTH LAKELAND","county":"CUMBRIA","ppdCategoryType":"Standard","recordStatus":"Addition","latitude":54.350333,"longitude":-2.813101,"postcodeStart":"LA8 8","postcode":["LA8","8JZ"]}
{"price":69000,"dateOfTransfer":"1995-03-16T00:00:00","postcodeFull":"LA8 8QF","propertyType":"Semi-detached","oldOrNew":"New build","duration":"Freehold","paon":"5","saon":"","street":"STONE LANDS","locality":"LEVENS","townOrCity":"KENDAL","district":"SOUTH LAKELAND","county":"CUMBRIA","ppdCategoryType":"Standard","recordStatus":"Addition","latitude":54.263907,"longitude":-2.791991,"postcodeStart":"LA8 8","postcode":["LA8","8QF"]}
{"price":81000,"dateOfTransfer":"1995-02-17T00:00:00","postcodeFull":"LA8 8HF","propertyType":"Semi-detached","oldOrNew":"New build","duration":"Leasehold","paon":"COACHMANS COTTAGE","saon":"","street":"","locality":"UNDERBARROW","townOrCity":"KENDAL","district":"SOUTH LAKELAND","county":"CUMBRIA","ppdCategoryType":"Standard","recordStatus":"Addition","latitude":54.3188,"longitude":-2.80862,"postcodeStart":"LA8 8","postcode":["LA8","8HF"]}
{"price":80000,"dateOfTransfer":"1995-10-19T00:00:00","postcodeFull":"LA8 8PF","propertyType":"Semi-detached","oldOrNew":"Established","duration":"Freehold","paon":"IVY COTTAGE","saon":"","street":"","locality":"LEVENS","townOrCity":"KENDAL","district":"SOUTH LAKELAND","county":"CUMBRIA","ppdCategoryType":"Standard","recordStatus":"Addition","latitude":54.269611,"longitude":-2.789736,"postcodeStart":"LA8 8","postcode":["LA8","8PF"]}
{"price":69950,"dateOfTransfer":"1995-02-20T00:00:00","postcodeFull":"LA8 8QF","propertyType":"Semi-detached","oldOrNew":"New build","duration":"Freehold","paon":"6","saon":"","street":"STONE LANDS","locality":"LEVENS","townOrCity":"KENDAL","district":"SOUTH LAKELAND","county":"CUMBRIA","ppdCategoryType":"Standard","recordStatus":"Addition","latitude":54.263907,"longitude":-2.791991,"postcodeStart":"LA8 8","postcode":["LA8","8QF"]}
{"price":164500,"dateOfTransfer":"1995-11-30T00:00:00","postcodeFull":"LA8 8QH","propertyType":"Detached","oldOrNew":"New build","duration":"Freehold","paon":"4","saon":"","street":"LOW PASTURES","locality":"LEVENS","townOrCity":"KENDAL","district":"SOUTH LAKELAND","county":"CUMBRIA","ppdCategoryType":"Standard","recordStatus":"Addition","latitude":54.267546,"longitude":-2.79071,"postcodeStart":"LA8 8","postcode":["LA8","8QH"]}
{"price":154500,"dateOfTransfer":"1995-04-13T00:00:00","postcodeFull":"LA8 8DD","propertyType":"Semi-detached","oldOrNew":"Established","duration":"Freehold","paon":"SIBBLE HOWE","saon":"1","street":"","locality":"LYTH","townOrCity":"KENDAL","district":"SOUTH LAKELAND","county":"CUMBRIA","ppdCategoryType":"Standard","recordStatus":"Addition","latitude":54.295814,"longitude":-2.84469,"postcodeStart":"LA8 8","postcode":["LA8","8DD"]}
{"price":67000,"dateOfTransfer":"1995-07-31T00:00:00","postcodeFull":"LA8 8NH","propertyType":"Semi-detached","oldOrNew":"Established","duration":"Freehold","paon":"10","saon":"","street":"THE GREEN","locality":"LEVENS","townOrCity":"KENDAL","district":"SOUTH LAKELAND","county":"CUMBRIA","ppdCategoryType":"Standard","recordStatus":"Addition","latitude":54.267795,"longitude":-2.788396,"postcodeStart":"LA8 8","postcode":["LA8","8NH"]}
{"price":139000,"dateOfTransfer":"1995-08-31T00:00:00","postcodeFull":"LA8 8BU","propertyType":"Detached","oldOrNew":"Established","duration":"Freehold","paon":"HOLLYBANK","saon":"","street":"","locality":"CROSTHWAITE","townOrCity":"KENDAL","district":"SOUTH LAKELAND","county":"CUMBRIA","ppdCategoryType":"Standard","recordStatus":"Addition","latitude":54.310597,"longitude":-2.87266,"postcodeStart":"LA8 8","postcode":["LA8","8BU"]}
{"price":93000,"dateOfTransfer":"1995-04-28T00:00:00","postcodeFull":"LA8 8NJ","propertyType":"Detached","oldOrNew":"Established","duration":"Freehold","paon":"LAWN HEAD","saon":"","street":"LOWGATE","locality":"LEVENS","townOrCity":"KENDAL","district":"SOUTH LAKELAND","county":"CUMBRIA","ppdCategoryType":"Standard","recordStatus":"Addition","latitude":54.267192,"longitude":-2.790012,"postcodeStart":"LA8 8","postcode":["LA8","8NJ"]}
{"price":88000,"dateOfTransfer":"1995-11-06T00:00:00","postcodeFull":"LA8 8AB","propertyType":"Detached","oldOrNew":"Established","duration":"Freehold","paon":"SOUTH VIEW","saon":"","street":"","locality":"HELSINGTON","townOrCity":"KENDAL","district":"SOUTH LAKELAND","county":"CUMBRIA","ppdCategoryType":"Standard","recordStatus":"Addition","latitude":54.296835,"longitude":-2.755885,"postcodeStart":"LA8 8","postcode":["LA8","8AB"]}
{"price":44500,"dateOfTransfer":"1995-12-04T00:00:00","postcodeFull":"LA8 8NB","propertyType":"Detached","oldOrNew":"Established","duration":"Freehold","paon":"THE BUNGALOW","saon":"","street":"MAIN STREET","locality":"LEVENS","townOrCity":"KENDAL","district":"SOUTH LAKELAND","county":"CUMBRIA","ppdCategoryType":"Standard","recordStatus":"Addition","latitude":54.268656,"longitude":-2.78743,"postcodeStart":"LA8 8","postcode":["LA8","8NB"]}
{"price":143000,"dateOfTransfer":"1995-08-14T00:00:00","postcodeFull":"LA8 8BU","propertyType":"Detached","oldOrNew":"New build","duration":"Freehold","paon":"SCAR VIEW","saon":"","street":"","locality":"CROSTHWAITE","townOrCity":"KENDAL","district":"SOUTH LAKELAND","county":"CUMBRIA","ppdCategoryType":"Standard","recordStatus":"Addition","latitude":54.310597,"longitude":-2.87266,"postcodeStart":"LA8 8","postcode":["LA8","8BU"]}
{"price":112500,"dateOfTransfer":"1995-02-21T00:00:00","postcodeFull":"LA8 8AJ","propertyType":"Detached","oldOrNew":"Established","duration":"Freehold","paon":"KERSWELL","saon":"","street":"","locality":"BRIGSTEER","townOrCity":"KENDAL","district":"SOUTH LAKELAND","county":"CUMBRIA","ppdCategoryType":"Standard","recordStatus":"Addition","latitude":54.300337,"longitude":-2.79956,"postcodeStart":"LA8 8","postcode":["LA8","8AJ"]}
{"price":156000,"dateOfTransfer":"1995-04-10T00:00:00","postcodeFull":"LA8 8HX","propertyType":"Detached","oldOrNew":"Established","duration":"Freehold","paon":"SPINDLEWOOD","saon":"","street":"","locality":"CROSTHWAITE","townOrCity":"KENDAL","district":"SOUTH LAKELAND","county":"CUMBRIA","ppdCategoryType":"Standard","recordStatus":"Addition","latitude":54.31633,"longitude":-2.866555,"postcodeStart":"LA8 8","postcode":["LA8","8HX"]}
{"price":197415,"dateOfTransfer":"1995-04-11T00:00:00","postcodeFull":"LA8 8AT","propertyType":"Detached","oldOrNew":"Established","duration":"Freehold","paon":"MILL BANK HOUSE","saon":"","street":"LOW LANE","locality":"BRIGSTEER","townOrCity":"KENDAL","district":"SOUTH LAKELAND","county":"CUMBRIA","ppdCategoryType":"Standard","recordStatus":"Addition","latitude":54.298745,"longitude":-2.80105,"postcodeStart":"LA8 8","postcode":["LA8","8AT"]}
{"price":160000,"dateOfTransfer":"1995-04-13T00:00:00","postcodeFull":"LA8 8PU","propertyType":"Detached","oldOrNew":"Established","duration":"Freehold","paon":"COOK HOUSE","saon":"","street":"","locality":"LEVENS","townOrCity":"KENDAL","district":"SOUTH LAKELAND","county":"CUMBRIA","ppdCategoryType":"Standard","recordStatus":"Addition","latitude":54.266306,"longitude":-2.788092,"postcodeStart":"LA8 8","postcode":["LA8","8PU"]}
{"price":50000,"dateOfTransfer":"1995-05-26T00:00:00","postcodeFull":"LA8 8BA","propertyType":"Flat/Maisonette/Townhouse","oldOrNew":"Established","duration":"Freehold","paon":"HONEY POT COTTAGE","saon":"","street":"","locality":"UNDERBARROW","townOrCity":"KENDAL","district":"SOUTH LAKELAND","county":"CUMBRIA","ppdCategoryType":"Standard","recordStatus":"Addition","latitude":54.318806,"longitude":-2.818428,"postcodeStart":"LA8 8","postcode":["LA8","8BA"]}
{"price":79500,"dateOfTransfer":"1995-05-26T00:00:00","postcodeFull":"LA8 8QB","propertyType":"Detached","oldOrNew":"Established","duration":"Freehold","paon":"8","saon":"","street":"GREENGATE CRESCENT","locality":"LEVENS","townOrCity":"KENDAL","district":"SOUTH LAKELAND","county":"CUMBRIA","ppdCategoryType":"Standard","recordStatus":"Addition","latitude":54.268762,"longitude":-2.784837,"postcodeStart":"LA8 8","postcode":["LA8","8QB"]}
{"price":229750,"dateOfTransfer":"1995-10-20T00:00:00","postcodeFull":"LA8 8JL","propertyType":"Detached","oldOrNew":"Established","duration":"Freehold","paon":"GREENSIDE","saon":"","street":"","locality":"CROSTHWAITE","townOrCity":"KENDAL","district":"SOUTH LAKELAND","county":"CUMBRIA","ppdCategoryType":"Standard","recordStatus":"Addition","latitude":54.296606,"longitude":-2.873562,"postcodeStart":"LA8 8","postcode":["LA8","8JL"]}
{"price":59950,"dateOfTransfer":"1996-04-19T00:00:00","postcodeFull":"LA8 8QB","propertyType":"Detached","oldOrNew":"Established","duration":"Freehold","paon":"2","saon":"","street":"GREENGATE CRESCENT","locality":"LEVENS","townOrCity":"KENDAL","district":"SOUTH LAKELAND","county":"CUMBRIA","ppdCategoryType":"Standard","recordStatus":"Addition","latitude":54.268762,"longitude":-2.784837,"postcodeStart":"LA8 8","postcode":["LA8","8QB"]}
{"price":67500,"dateOfTransfer":"1996-11-15T00:00:00","postcodeFull":"LA8 8NG","propertyType":"Flat/Maisonette/Townhouse","oldOrNew":"New build","duration":"Leasehold","paon":"16","saon":"","street":"BEATHWAITE GARDENS","locality":"LEVENS","townOrCity":"KENDAL","district":"SOUTH LAKELAND","county":"CUMBRIA","ppdCategoryType":"Standard","recordStatus":"Addition","latitude":54.268726,"longitude":-2.788859,"postcodeStart":"LA8 8","postcode":["LA8","8NG"]}
{"price":45000,"dateOfTransfer":"1996-01-31T00:00:00","postcodeFull":"LA8 8DD","propertyType":"Flat/Maisonette/Townhouse","oldOrNew":"Established","duration":"Freehold","paon":"BYRE MOUNT VIEW","saon":"","street":"","locality":"LYTH","townOrCity":"KENDAL","district":"SOUTH LAKELAND","county":"CUMBRIA","ppdCategoryType":"Standard","recordStatus":"Addition","latitude":54.295814,"longitude":-2.84469,"postcodeStart":"LA8 8","postcode":["LA8","8DD"]}
{"price":155000,"dateOfTransfer":"1996-11-12T00:00:00","postcodeFull":"LA8 8NJ","propertyType":"Detached","oldOrNew":"Established","duration":"Freehold","paon":"LAWN HEAD","saon":"","street":"LOWGATE","locality":"LEVENS","townOrCity":"KENDAL","district":"SOUTH LAKELAND","county":"CUMBRIA","ppdCategoryType":"Standard","recordStatus":"Addition","latitude":54.267192,"longitude":-2.790012,"postcodeStart":"LA8 8","postcode":["LA8","8NJ"]}
{"price":162500,"dateOfTransfer":"1996-03-29T00:00:00","postcodeFull":"LA8 8QH","propertyType":"Detached","oldOrNew":"New build","duration":"Freehold","paon":"2","saon":"","street":"LOW PASTURES","locality":"LEVENS","townOrCity":"KENDAL","district":"SOUTH LAKELAND","county":"CUMBRIA","ppdCategoryType":"Standard","recordStatus":"Addition","latitude":54.267546,"longitude":-2.79071,"postcodeStart":"LA8 8","postcode":["LA8","8QH"]}
{"price":65000,"dateOfTransfer":"1996-07-05T00:00:00","postcodeFull":"LA8 8NG","propertyType":"Flat/Maisonette/Townhouse","oldOrNew":"New build","duration":"Leasehold","paon":"17","saon":"","street":"BEATHWAITE GARDENS","locality":"LEVENS","townOrCity":"KENDAL","district":"SOUTH LAKELAND","county":"CUMBRIA","ppdCategoryType":"Standard","recordStatus":"Addition","latitude":54.268726,"longitude":-2.788859,"postcodeStart":"LA8 8","postcode":["LA8","8NG"]}
{"price":158000,"dateOfTransfer":"1996-08-20T00:00:00","postcodeFull":"LA8 8PA","propertyType":"Detached","oldOrNew":"Established","duration":"Freehold","paon":"PINFOLD","saon":"","street":"","locality":"LEVENS","townOrCity":"KENDAL","district":"SOUTH LAKELAND","county":"CUMBRIA","ppdCategoryType":"Standard","recordStatus":"Addition","latitude":54.272795,"longitude":-2.790765,"postcodeStart":"LA8 8","postcode":["LA8","8PA"]}
{"price":120000,"dateOfTransfer":"1996-10-11T00:00:00","postcodeFull":"LA8 8HF","propertyType":"Detached","oldOrNew":"Established","duration":"Leasehold","paon":"NEWFIELD HOUSE","saon":"","street":"","locality":"UNDERBARROW","townOrCity":"KENDAL","district":"SOUTH LAKELAND","county":"CUMBRIA","ppdCategoryType":"Standard","recordStatus":"Addition","latitude":54.3188,"longitude":-2.80862,"postcodeStart":"LA8 8","postcode":["LA8","8HF"]}
{"price":85000,"dateOfTransfer":"1996-10-07T00:00:00","postcodeFull":"LA8 8AT","propertyType":"Detached","oldOrNew":"Established","duration":"Freehold","paon":"SUNNY HILL","saon":"","street":"LOW LANE","locality":"BRIGSTEER","townOrCity":"KENDAL","district":"SOUTH LAKELAND","county":"CUMBRIA","ppdCategoryType":"Standard","recordStatus":"Addition","latitude":54.298745,"longitude":-2.80105,"postcodeStart":"LA8 8","postcode":["LA8","8AT"]}
{"price":135000,"dateOfTransfer":"1996-05-17T00:00:00","postcodeFull":"LA8 8HX","propertyType":"Detached","oldOrNew":"Established","duration":"Freehold","paon":"ORCHARD HOUSE","saon":"","street":"","locality":"CROSTHWAITE","townOrCity":"KENDAL","district":"SOUTH LAKELAND","county":"CUMBRIA","ppdCategoryType":"Standard","recordStatus":"Addition","latitude":54.31633,"longitude":-2.866555,"postcodeStart":"LA8 8","postcode":["LA8","8HX"]}
{"price":72500,"dateOfTransfer":"1996-02-29T00:00:00","postcodeFull":"LA8 8AJ","propertyType":"Detached","oldOrNew":"Established","duration":"Freehold","paon":"BIELDGARTH","saon":"","street":"","locality":"BRIGSTEER","townOrCity":"KENDAL","district":"SOUTH LAKELAND","county":"CUMBRIA","ppdCategoryType":"Standard","recordStatus":"Addition","latitude":54.300337,"longitude":-2.79956,"postcodeStart":"LA8 8","postcode":["LA8","8AJ"]}
{"price":167500,"dateOfTransfer":"1996-06-14T00:00:00","postcodeFull":"LA8 8QH","propertyType":"Detached","oldOrNew":"New build","duration":"Freehold","paon":"1","saon":"","street":"LOW PASTURES","locality":"LEVENS","townOrCity":"KENDAL","district":"SOUTH LAKELAND","county":"CUMBRIA","ppdCategoryType":"Standard","recordStatus":"Addition","latitude":54.267546,"longitude":-2.79071,"postcodeStart":"LA8 8","postcode":["LA8","8QH"]}
{"price":155000,"dateOfTransfer":"1996-07-31T00:00:00","postcodeFull":"LA8 8HX","propertyType":"Detached","oldOrNew":"Established","duration":"Freehold","paon":"THE VICARAGE","saon":"","street":"","locality":"CROSTHWAITE","townOrCity":"KENDAL","district":"SOUTH LAKELAND","county":"CUMBRIA","ppdCategoryType":"Standard","recordStatus":"Addition","latitude":54.31633,"longitude":-2.866555,"postcodeStart":"LA8 8","postcode":["LA8","8HX"]}
{"price":155000,"dateOfTransfer":"1996-04-10T00:00:00","postcodeFull":"LA8 8HX","propertyType":"Detached","oldOrNew":"Established","duration":"Freehold","paon":"WEST VIEW FARM","saon":"","street":"","locality":"CROSTHWAITE","townOrCity":"KENDAL","district":"SOUTH LAKELAND","county":"CUMBRIA","ppdCategoryType":"Standard","recordStatus":"Addition","latitude":54.31633,"longitude":-2.866555,"postcodeStart":"LA8 8","postcode":["LA8","8HX"]}
{"price":62500,"dateOfTransfer":"1996-07-05T00:00:00","postcodeFull":"LA8 8JL","propertyType":"Terraced","oldOrNew":"Established","duration":"Freehold","paon":"FAIRFIELD COTTAGE","saon":"","street":"","locality":"CROSTHWAITE","townOrCity":"KENDAL","district":"SOUTH LAKELAND","county":"CUMBRIA","ppdCategoryType":"Standard","recordStatus":"Addition","latitude":54.296606,"longitude":-2.873562,"postcodeStart":"LA8 8","postcode":["LA8","8JL"]}
{"price":120000,"dateOfTransfer":"1996-09-13T00:00:00","postcodeFull":"LA8 8AJ","propertyType":"Detached","oldOrNew":"Established","duration":"Freehold","paon":"FAR ACRES","saon":"","street":"","locality":"BRIGSTEER","townOrCity":"KENDAL","district":"SOUTH LAKELAND","county":"CUMBRIA","ppdCategoryType":"Standard","recordStatus":"Addition","latitude":54.300337,"longitude":-2.79956,"postcodeStart":"LA8 8","postcode":["LA8","8AJ"]}
{"price":62350,"dateOfTransfer":"1996-01-19T00:00:00","postcodeFull":"LA8 8NG","propertyType":"Flat/Maisonette/Townhouse","oldOrNew":"New build","duration":"Leasehold","paon":"15","saon":"","street":"BEATHWAITE GARDENS","locality":"LEVENS","townOrCity":"KENDAL","district":"SOUTH LAKELAND","county":"CUMBRIA","ppdCategoryType":"Standard","recordStatus":"Addition","latitude":54.268726,"longitude":-2.788859,"postcodeStart":"LA8 8","postcode":["LA8","8NG"]}
{"price":57500,"dateOfTransfer":"1996-11-22T00:00:00","postcodeFull":"LA8 8DS","propertyType":"Flat/Maisonette/Townhouse","oldOrNew":"Established","duration":"Leasehold","paon":"HYNING HOUSE","saon":"1","street":"","locality":"LEVENS","townOrCity":"KENDAL","district":"SOUTH LAKELAND","county":"CUMBRIA","ppdCategoryType":"Standard","recordStatus":"Addition","latitude":54.270542,"longitude":-2.783304,"postcodeStart":"LA8 8","postcode":["LA8","8DS"]}
{"price":195000,"dateOfTransfer":"1996-10-25T00:00:00","postcodeFull":"LA8 8BL","propertyType":"Detached","oldOrNew":"Established","duration":"Freehold","paon":"LOW MILL HOUSE","saon":"","street":"","locality":"UNDERBARROW","townOrCity":"KENDAL","district":"SOUTH LAKELAND","county":"CUMBRIA","ppdCategoryType":"Standard","recordStatus":"Addition","latitude":54.316595,"longitude":-2.823626,"postcodeStart":"LA8 8","postcode":["LA8","8BL"]}
{"price":47500,"dateOfTransfer":"1996-09-19T00:00:00","postcodeFull":"LA8 8NR","propertyType":"Semi-detached","oldOrNew":"Established","duration":"Freehold","paon":"12","saon":"","street":"BEATHWAITE CLOSE","locality":"LEVENS","townOrCity":"KENDAL","district":"SOUTH LAKELAND","county":"CUMBRIA","ppdCategoryType":"Standard","recordStatus":"Addition","latitude":54.26914,"longitude":-2.78615,"postcodeStart":"LA8 8","postcode":["LA8","8NR"]}
{"price":81000,"dateOfTransfer":"1996-09-02T00:00:00","postcodeFull":"LA8 8JN","propertyType":"Flat/Maisonette/Townhouse","oldOrNew":"Established","duration":"Leasehold","paon":"4","saon":"","street":"STARNTHWAITE GHYLL","locality":"CROSTHWAITE","townOrCity":"KENDAL","district":"SOUTH LAKELAND","county":"CUMBRIA","ppdCategoryType":"Standard","recordStatus":"Addition","latitude":54.322394,"longitude":-2.870682,"postcodeStart":"LA8 8","postcode":["LA8","8JN"]}
{"price":87000,"dateOfTransfer":"1996-11-08T00:00:00","postcodeFull":"LA8 8PQ","propertyType":"Semi-detached","oldOrNew":"Established","duration":"Freehold","paon":"2","saon":"","street":"HILL TOP COTTAGE","locality":"LEVENS","townOrCity":"KENDAL","district":"SOUTH LAKELAND","county":"CUMBRIA","ppdCategoryType":"Standard","recordStatus":"Addition","latitude":54.269959,"longitude":-2.790127,"postcodeStart":"LA8 8","postcode":["LA8","8PQ"]}
{"price":115000,"dateOfTransfer":"1996-08-12T00:00:00","postcodeFull":"LA8 8AJ","propertyType":"Detached","oldOrNew":"Established","duration":"Freehold","paon":"GREY CRAG","saon":"","street":"","locality":"BRIGSTEER","townOrCity":"KENDAL","district":"SOUTH LAKELAND","county":"CUMBRIA","ppdCategoryType":"Standard","recordStatus":"Addition","latitude":54.300337,"longitude":-2.79956,"postcodeStart":"LA8 8","postcode":["LA8","8AJ"]}
{"price":85000,"dateOfTransfer":"1996-09-13T00:00:00","postcodeFull":"LA8 8LH","propertyType":"Terraced","oldOrNew":"Established","duration":"Freehold","paon":"1","saon":"","street":"SMITHY COTTAGES","locality":"CROOK","townOrCity":"KENDAL","district":"SOUTH LAKELAND","county":"CUMBRIA","ppdCategoryType":"Standard","recordStatus":"Addition","latitude":54.348625,"longitude":-2.866191,"postcodeStart":"LA8 8","postcode":["LA8","8LH"]}
{"price":89000,"dateOfTransfer":"1996-04-19T00:00:00","postcodeFull":"LA8 8HB","propertyType":"Detached","oldOrNew":"Established","duration":"Freehold","paon":"FOXWELL","saon":"","street":"UNDERBARROW ROAD","locality":"UNDERBARROW","townOrCity":"KENDAL","district":"SOUTH LAKELAND","county":"CUMBRIA","ppdCategoryType":"Standard","recordStatus":"Addition","latitude":54.32267,"longitude":-2.798378,"postcodeStart":"LA8 8","postcode":["LA8","8HB"]}
{"price":140000,"dateOfTransfer":"1996-12-02T00:00:00","postcodeFull":"LA8 8NT","propertyType":"Detached","oldOrNew":"Established","duration":"Freehold","paon":"WEDGEWOOD","saon":"","street":"BRIGSTEER ROAD","locality":"LEVENS","townOrCity":"KENDAL","district":"SOUTH LAKELAND","county":"CUMBRIA","ppdCategoryType":"Standard","recordStatus":"Addition","latitude":54.27045,"longitude":-2.786466,"postcodeStart":"LA8 8","postcode":["LA8","8NT"]}
{"price":80000,"dateOfTransfer":"1996-09-02T00:00:00","postcodeFull":"LA8 8PU","propertyType":"Detached","oldOrNew":"Established","duration":"Freehold","paon":"GREEN END","saon":"","street":"","locality":"LEVENS","townOrCity":"KENDAL","district":"SOUTH LAKELAND","county":"CUMBRIA","ppdCategoryType":"Standard","recordStatus":"Addition","latitude":54.266306,"longitude":-2.788092,"postcodeStart":"LA8 8","postcode":["LA8","8PU"]}
{"price":91000,"dateOfTransfer":"1996-11-09T00:00:00","postcodeFull":"LA8 8PN","propertyType":"Detached","oldOrNew":"Established","duration":"Freehold","paon":"THE NOOK","saon":"","street":"","locality":"LEVENS","townOrCity":"KENDAL","district":"SOUTH LAKELAND","county":"CUMBRIA","ppdCategoryType":"Standard","recordStatus":"Addition","latitude":54.263935,"longitude":-2.793155,"postcodeStart":"LA8 8","postcode":["LA8","8PN"]}
{"price":129105,"dateOfTransfer":"1996-07-10T00:00:00","postcodeFull":"LA8 8HX","propertyType":"Detached","oldOrNew":"Established","duration":"Freehold","paon":"WILLOW BECK","saon":"","street":"","locality":"CROSTHWAITE","townOrCity":"KENDAL","district":"SOUTH LAKELAND","county":"CUMBRIA","ppdCategoryType":"Standard","recordStatus":"Addition","latitude":54.31633,"longitude":-2.866555,"postcodeStart":"LA8 8","postcode":["LA8","8HX"]}
{"price":160000,"dateOfTransfer":"1996-11-11T00:00:00","postcodeFull":"LA8 8LG","propertyType":"Detached","oldOrNew":"Established","duration":"Freehold","paon":"THE OLD SCHOOL HOUSE","saon":"","street":"","locality":"CROOK","townOrCity":"KENDAL","district":"SOUTH LAKELAND","county":"CUMBRIA","ppdCategoryType":"Standard","recordStatus":"Addition","latitude":54.348553,"longitude":-2.842004,"postcodeStart":"LA8 8","postcode":["LA8","8LG"]}
{"price":125001,"dateOfTransfer":"1996-11-13T00:00:00","postcodeFull":"LA8 8HA","propertyType":"Detached","oldOrNew":"Established","duration":"Freehold","paon":"SYLVANWOOD","saon":"","street":"UNDERBARROW ROAD","locality":"UNDERBARROW","townOrCity":"KENDAL","district":"SOUTH LAKELAND","county":"CUMBRIA","ppdCategoryType":"Standard","recordStatus":"Addition","latitude":54.326427,"longitude":-2.777662,"postcodeStart":"LA8 8","postcode":["LA8","8HA"]}
{"price":53000,"dateOfTransfer":"1996-11-08T00:00:00","postcodeFull":"LA8 8NR","propertyType":"Semi-detached","oldOrNew":"Established","duration":"Freehold","paon":"10","saon":"","street":"BEATHWAITE CLOSE","locality":"LEVENS","townOrCity":"KENDAL","district":"SOUTH LAKELAND","county":"CUMBRIA","ppdCategoryType":"Standard","recordStatus":"Addition","latitude":54.26914,"longitude":-2.78615,"postcodeStart":"LA8 8","postcode":["LA8","8NR"]}
{"price":68000,"dateOfTransfer":"1996-04-12T00:00:00","postcodeFull":"LA8 8NF","propertyType":"Semi-detached","oldOrNew":"Established","duration":"Freehold","paon":"53","saon":"","street":"GREENGATE","locality":"LEVENS","townOrCity":"KENDAL","district":"SOUTH LAKELAND","county":"CUMBRIA","ppdCategoryType":"Standard","recordStatus":"Addition","latitude":54.266982,"longitude":-2.785018,"postcodeStart":"LA8 8","postcode":["LA8","8NF"]}
{"price":83950,"dateOfTransfer":"1996-11-01T00:00:00","postcodeFull":"LA8 8NG","propertyType":"Semi-detached","oldOrNew":"Established","duration":"Leasehold","paon":"20","saon":"","street":"BEATHWAITE GARDENS","locality":"LEVENS","townOrCity":"KENDAL","district":"SOUTH LAKELAND","county":"CUMBRIA","ppdCategoryType":"Standard","recordStatus":"Addition","latitude":54.268726,"longitude":-2.788859,"postcodeStart":"LA8 8","postcode":["LA8","8NG"]}
{"price":182000,"dateOfTransfer":"1996-08-21T00:00:00","postcodeFull":"LA8 8HX","propertyType":"Detached","oldOrNew":"Established","duration":"Freehold","paon":"HEATH COTTAGE","saon":"","street":"","locality":"CROSTHWAITE","townOrCity":"KENDAL","district":"SOUTH LAKELAND","county":"CUMBRIA","ppdCategoryType":"Standard","recordStatus":"Addition","latitude":54.31633,"longitude":-2.866555,"postcodeStart":"LA8 8","postcode":["LA8","8HX"]}
{"price":76000,"dateOfTransfer":"1996-09-30T00:00:00","postcodeFull":"LA8 8NZ","propertyType":"Detached","oldOrNew":"Established","duration":"Freehold","paon":"WAYSIDE","saon":"","street":"","locality":"LEVENS","townOrCity":"KENDAL","district":"SOUTH LAKELAND","county":"CUMBRIA","ppdCategoryType":"Standard","recordStatus":"Addition","latitude":54.275475,"longitude":-2.790265,"postcodeStart":"LA8 8","postcode":["LA8","8NZ"]}
{"price":90000,"dateOfTransfer":"1996-05-17T00:00:00","postcodeFull":"LA8 8LD","propertyType":"Terraced","oldOrNew":"Established","duration":"Freehold","paon":"4","saon":"","street":"MILL COTTAGES","locality":"CROOK","townOrCity":"KENDAL","district":"SOUTH LAKELAND","county":"CUMBRIA","ppdCategoryType":"Standard","recordStatus":"Addition","latitude":54.348372,"longitude":-2.830493,"postcodeStart":"LA8 8","postcode":["LA8","8LD"]}
{"price":197500,"dateOfTransfer":"1996-02-09T00:00:00","postcodeFull":"LA8 8AX","propertyType":"Detached","oldOrNew":"Established","duration":"Freehold","paon":"LOW PLAIN COTTAGE","saon":"","street":"","locality":"BRIGSTEER","townOrCity":"KENDAL","district":"SOUTH LAKELAND","county":"CUMBRIA","ppdCategoryType":"Standard","recordStatus":"Addition","latitude":54.303203,"longitude":-2.809128,"postcodeStart":"LA8 8","postcode":["LA8","8AX"]}
{"price":132000,"dateOfTransfer":"1996-08-28T00:00:00","postcodeFull":"LA8 8ED","propertyType":"Detached","oldOrNew":"Established","duration":"Freehold","paon":"CURLEW","saon":"","street":"FORCE LANE","locality":"LEVENS","townOrCity":"KENDAL","district":"SOUTH LAKELAND","county":"CUMBRIA","ppdCategoryType":"Standard","recordStatus":"Addition","latitude":54.271324,"longitude":-2.762221,"postcodeStart":"LA8 8","postcode":["LA8","8ED"]}
{"price":170506,"dateOfTransfer":"1996-01-31T00:00:00","postcodeFull":"LA8 8QH","propertyType":"Detached","oldOrNew":"New build","duration":"Freehold","paon":"3","saon":"","street":"LOW PASTURES","locality":"LEVENS","townOrCity":"KENDAL","district":"SOUTH LAKELAND","county":"CUMBRIA","ppdCategoryType":"Standard","recordStatus":"Addition","latitude":54.267546,"longitude":-2.79071,"postcodeStart":"LA8 8","postcode":["LA8","8QH"]}
{"price":25000,"dateOfTransfer":"1996-05-08T00:00:00","postcodeFull":"LA8 8HF","propertyType":"Flat/Maisonette/Townhouse","oldOrNew":"New build","duration":"Leasehold","paon":"THE HAYLOFT","saon":"","street":"","locality":"UNDERBARROW","townOrCity":"KENDAL","district":"SOUTH LAKELAND","county":"CUMBRIA","ppdCategoryType":"Standard","recordStatus":"Addition","latitude":54.3188,"longitude":-2.80862,"postcodeStart":"LA8 8","postcode":["LA8","8HF"]}
{"price":78950,"dateOfTransfer":"1996-03-22T00:00:00","postcodeFull":"LA8 8NG","propertyType":"Semi-detached","oldOrNew":"New build","duration":"Leasehold","paon":"19","saon":"","street":"BEATHWAITE GARDENS","locality":"LEVENS","townOrCity":"KENDAL","district":"SOUTH LAKELAND","county":"CUMBRIA","ppdCategoryType":"Standard","recordStatus":"Addition","latitude":54.268726,"longitude":-2.788859,"postcodeStart":"LA8 8","postcode":["LA8","8NG"]}
{"price":63000,"dateOfTransfer":"1996-03-28T00:00:00","postcodeFull":"LA8 8HN","propertyType":"Semi-detached","oldOrNew":"Established","duration":"Freehold","paon":"8","saon":"","street":"HILLGARTH","locality":"UNDERBARROW","townOrCity":"KENDAL","district":"SOUTH LAKELAND","county":"CUMBRIA","ppdCategoryType":"Standard","recordStatus":"Addition","latitude":54.322067,"longitude":-2.823797,"postcodeStart":"LA8 8","postcode":["LA8","8HN"]}
{"price":107000,"dateOfTransfer":"1996-01-26T00:00:00","postcodeFull":"LA8 8HX","propertyType":"Detached","oldOrNew":"Established","duration":"Freehold","paon":"CEDAR LODGE","saon":"","street":"","locality":"CROSTHWAITE","townOrCity":"KENDAL","district":"SOUTH LAKELAND","county":"CUMBRIA","ppdCategoryType":"Standard","recordStatus":"Addition","latitude":54.31633,"longitude":-2.866555,"postcodeStart":"LA8 8","postcode":["LA8","8HX"]}
{"price":95000,"dateOfTransfer":"1996-05-24T00:00:00","postcodeFull":"LA8 8AJ","propertyType":"Detached","oldOrNew":"Established","duration":"Freehold","paon":"BARN GARTH","saon":"","street":"","locality":"BRIGSTEER","townOrCity":"KENDAL","district":"SOUTH LAKELAND","county":"CUMBRIA","ppdCategoryType":"Standard","recordStatus":"Addition","latitude":54.300337,"longitude":-2.79956,"postcodeStart":"LA8 8","postcode":["LA8","8AJ"]}
{"price":91000,"dateOfTransfer":"1996-11-26T00:00:00","postcodeFull":"LA8 8AP","propertyType":"Detached","oldOrNew":"Established","duration":"Freehold","paon":"GARDEN COTTAGE","saon":"","street":"","locality":"BRIGSTEER","townOrCity":"KENDAL","district":"SOUTH LAKELAND","county":"CUMBRIA","ppdCategoryType":"Standard","recordStatus":"Addition","latitude":54.297989,"longitude":-2.798562,"postcodeStart":"LA8 8","postcode":["LA8","8AP"]}
{"price":61000,"dateOfTransfer":"1996-06-14T00:00:00","postcodeFull":"LA8 8NG","propertyType":"Flat/Maisonette/Townhouse","oldOrNew":"New build","duration":"Leasehold","paon":"12","saon":"","street":"BEATHWAITE GARDENS","locality":"LEVENS","townOrCity":"KENDAL","district":"SOUTH LAKELAND","county":"CUMBRIA","ppdCategoryType":"Standard","recordStatus":"Addition","latitude":54.268726,"longitude":-2.788859,"postcodeStart":"LA8 8","postcode":["LA8","8NG"]}
{"price":87000,"dateOfTransfer":"1996-04-11T00:00:00","postcodeFull":"LA8 8AW","propertyType":"Detached","oldOrNew":"Established","duration":"Freehold","paon":"7","saon":"","street":"CROW WOOD","locality":"BRIGSTEER","townOrCity":"KENDAL","district":"SOUTH LAKELAND","county":"CUMBRIA","ppdCategoryType":"Standard","recordStatus":"Addition","latitude":54.29908,"longitude":-2.799367,"postcodeStart":"LA8 8","postcode":["LA8","8AW"]}
{"price":69950,"dateOfTransfer":"1996-06-19T00:00:00","postcodeFull":"LA8 8PW","propertyType":"Terraced","oldOrNew":"Established","duration":"Freehold","paon":"3","saon":"","street":"CAUSEWAY END","locality":"LEVENS","townOrCity":"KENDAL","district":"SOUTH LAKELAND","county":"CUMBRIA","ppdCategoryType":"Standard","recordStatus":"Addition","latitude":54.264269,"longitude":-2.792981,"postcodeStart":"LA8 8","postcode":["LA8","8PW"]}
{"price":83000,"dateOfTransfer":"1996-11-29T00:00:00","postcodeFull":"LA8 8NG","propertyType":"Semi-detached","oldOrNew":"New build","duration":"Leasehold","paon":"21","saon":"","street":"BEATHWAITE GARDENS","locality":"LEVENS","townOrCity":"KENDAL","district":"SOUTH LAKELAND","county":"CUMBRIA","ppdCategoryType":"Standard","recordStatus":"Addition","latitude":54.268726,"longitude":-2.788859,"postcodeStart":"LA8 8","postcode":["LA8","8NG"]}
{"price":48000,"dateOfTransfer":"1996-11-19T00:00:00","postcodeFull":"LA8 8PD","propertyType":"Semi-detached","oldOrNew":"Established","duration":"Freehold","paon":"HOLLY BANK COTTAGE","saon":"","street":"","locality":"LEVENS","townOrCity":"KENDAL","district":"SOUTH LAKELAND","county":"CUMBRIA","ppdCategoryType":"Standard","recordStatus":"Addition","latitude":54.26916,"longitude":-2.788714,"postcodeStart":"LA8 8","postcode":["LA8","8PD"]}
{"price":60000,"dateOfTransfer":"1996-08-30T00:00:00","postcodeFull":"LA8 8NG","propertyType":"Flat/Maisonette/Townhouse","oldOrNew":"New build","duration":"Leasehold","paon":"14","saon":"","street":"BEATHWAITE GARDENS","locality":"LEVENS","townOrCity":"KENDAL","district":"SOUTH LAKELAND","county":"CUMBRIA","ppdCategoryType":"Standard","recordStatus":"Addition","latitude":54.268726,"longitude":-2.788859,"postcodeStart":"LA8 8","postcode":["LA8","8NG"]}
{"price":76500,"dateOfTransfer":"1997-10-24T00:00:00","postcodeFull":"LA8 8PE","propertyType":"Semi-detached","oldOrNew":"Established","duration":"Freehold","paon":"1","saon":"","street":"LARCHWOOD COTTAGES","locality":"LEVENS","townOrCity":"KENDAL","district":"SOUTH LAKELAND","county":"CUMBRIA","ppdCategoryType":"Standard","recordStatus":"Addition","latitude":54.269433,"longitude":-2.789441,"postcodeStart":"LA8 8","postcode":["LA8","8PE"]}
{"price":62000,"dateOfTransfer":"1997-06-17T00:00:00","postcodeFull":"LA8 8NG","propertyType":"Flat/Maisonette/Townhouse","oldOrNew":"New build","duration":"Leasehold","paon":"4","saon":"","street":"BEATHWAITE GARDENS","locality":"LEVENS","townOrCity":"KENDAL","district":"SOUTH LAKELAND","county":"CUMBRIA","ppdCategoryType":"Standard","recordStatus":"Addition","latitude":54.268726,"longitude":-2.788859,"postcodeStart":"LA8 8","postcode":["LA8","8NG"]}
{"price":184300,"dateOfTransfer":"1997-05-22T00:00:00","postcodeFull":"LA8 8JF","propertyType":"Detached","oldOrNew":"Established","duration":"Freehold","paon":"LOW YEWS","saon":"","street":"","locality":"CROSTHWAITE","townOrCity":"KENDAL","district":"SOUTH LAKELAND","county":"CUMBRIA","ppdCategoryType":"Standard","recordStatus":"Addition","latitude":54.312397,"longitude":-2.879739,"postcodeStart":"LA8 8","postcode":["LA8","8JF"]}
{"price":82500,"dateOfTransfer":"1997-02-28T00:00:00","postcodeFull":"LA8 8NF","propertyType":"Detached","oldOrNew":"Established","duration":"Freehold","paon":"48","saon":"","street":"GREENGATE","locality":"LEVENS","townOrCity":"KENDAL","district":"SOUTH LAKELAND","county":"CUMBRIA","ppdCategoryType":"Standard","recordStatus":"Addition","latitude":54.266982,"longitude":-2.785018,"postcodeStart":"LA8 8","postcode":["LA8","8NF"]}
{"price":95000,"dateOfTransfer":"1997-06-11T00:00:00","postcodeFull":"LA8 8JN","propertyType":"Semi-detached","oldOrNew":"Established","duration":"Freehold","paon":"GHYLL BECK, 16","saon":"","street":"STARNTHWAITE GHYLL","locality":"CROSTHWAITE","townOrCity":"KENDAL","district":"SOUTH LAKELAND","county":"CUMBRIA","ppdCategoryType":"Standard","recordStatus":"Addition","latitude":54.322394,"longitude":-2.870682,"postcodeStart":"LA8 8","postcode":["LA8","8JN"]}
{"price":31000,"dateOfTransfer":"1997-11-07T00:00:00","postcodeFull":"LA8 8EQ","propertyType":"Semi-detached","oldOrNew":"Established","duration":"Freehold","paon":"HIGH SAMPOOL","saon":"LEVENS VIEW","street":"","locality":"LEVENS","townOrCity":"KENDAL","district":"SOUTH LAKELAND","county":"CUMBRIA","ppdCategoryType":"Standard","recordStatus":"Addition","latitude":54.255016,"longitude":-2.79641,"postcodeStart":"LA8 8","postcode":["LA8","8EQ"]}
{"price":130000,"dateOfTransfer":"1997-05-12T00:00:00","postcodeFull":"LA8 8LN","propertyType":"Detached","oldOrNew":"Established","duration":"Freehold","paon":"BATEMAN FOLD COTTAGE","saon":"","street":"","locality":"CROOK","townOrCity":"KENDAL","district":"SOUTH LAKELAND","county":"CUMBRIA","ppdCategoryType":"Standard","recordStatus":"Addition","latitude":54.342846,"longitude":-2.876083,"postcodeStart":"LA8 8","postcode":["LA8","8LN"]}
{"price":52000,"dateOfTransfer":"1997-10-21T00:00:00","postcodeFull":"LA8 8PY","propertyType":"Semi-detached","oldOrNew":"Established","duration":"Freehold","paon":"15","saon":"","street":"VICARAGE ROAD","locality":"LEVENS","townOrCity":"KENDAL","district":"SOUTH LAKELAND","county":"CUMBRIA","ppdCategoryType":"Standard","recordStatus":"Addition","latitude":54.268131,"longitude":-2.786591,"postcodeStart":"LA8 8","postcode":["LA8","8PY"]}
{"price":135000,"dateOfTransfer":"1997-01-31T00:00:00","postcodeFull":"LA8 8JZ","propertyType":"Detached","oldOrNew":"Established","duration":"Freehold","paon":"LITTLE BARN","saon":"","street":"","locality":"CROOK","townOrCity":"KENDAL","district":"SOUTH LAKELAND","county":"CUMBRIA","ppdCategoryType":"Standard","recordStatus":"Addition","latitude":54.350333,"longitude":-2.813101,"postcodeStart":"LA8 8","postcode":["LA8","8JZ"]}
{"price":55000,"dateOfTransfer":"1997-01-06T00:00:00","postcodeFull":"LA8 8JN","propertyType":"Flat/Maisonette/Townhouse","oldOrNew":"Established","duration":"Leasehold","paon":"1","saon":"","street":"STARNTHWAITE GHYLL","locality":"CROSTHWAITE","townOrCity":"KENDAL","district":"SOUTH LAKELAND","county":"CUMBRIA","ppdCategoryType":"Standard","recordStatus":"Addition","latitude":54.322394,"longitude":-2.870682,"postcodeStart":"LA8 8","postcode":["LA8","8JN"]}
{"price":87150,"dateOfTransfer":"1997-04-11T00:00:00","postcodeFull":"LA8 8DD","propertyType":"Semi-detached","oldOrNew":"Established","duration":"Freehold","paon":"SIBBLE HOWE","saon":"2","street":"","locality":"LYTH","townOrCity":"KENDAL","district":"SOUTH LAKELAND","county":"CUMBRIA","ppdCategoryType":"Standard","recordStatus":"Addition","latitude":54.295814,"longitude":-2.84469,"postcodeStart":"LA8 8","postcode":["LA8","8DD"]}
{"price":50000,"dateOfTransfer":"1997-02-07T00:00:00","postcodeFull":"LA8 8NR","propertyType":"Semi-detached","oldOrNew":"Established","duration":"Freehold","paon":"4","saon":"","street":"BEATHWAITE CLOSE","locality":"LEVENS","townOrCity":"KENDAL","district":"SOUTH LAKELAND","county":"CUMBRIA","ppdCategoryType":"Standard","recordStatus":"Addition","latitude":54.26914,"longitude":-2.78615,"postcodeStart":"LA8 8","postcode":["LA8","8NR"]}
{"price":140000,"dateOfTransfer":"1997-08-27T00:00:00","postcodeFull":"LA8 8AH","propertyType":"Detached","oldOrNew":"Established","duration":"Freehold","paon":"KISTWELL","saon":"","street":"","locality":"BRIGSTEER","townOrCity":"KENDAL","district":"SOUTH LAKELAND","county":"CUMBRIA","ppdCategoryType":"Standard","recordStatus":"Addition","latitude":54.297317,"longitude":-2.79692,"postcodeStart":"LA8 8","postcode":["LA8","8AH"]}
{"price":110000,"dateOfTransfer":"1997-02-07T00:00:00","postcodeFull":"LA8 8NJ","propertyType":"Detached","oldOrNew":"Established","duration":"Freehold","paon":"LYTHWOOD","saon":"","street":"LOWGATE","locality":"LEVENS","townOrCity":"KENDAL","district":"SOUTH LAKELAND","county":"CUMBRIA","ppdCategoryType":"Standard","recordStatus":"Addition","latitude":54.267192,"longitude":-2.790012,"postcodeStart":"LA8 8","postcode":["LA8","8NJ"]}
{"price":72950,"dateOfTransfer":"1997-05-19T00:00:00","postcodeFull":"LA8 8NG","propertyType":"Flat/Maisonette/Townhouse","oldOrNew":"Established","duration":"Leasehold","paon":"10","saon":"","street":"BEATHWAITE GARDENS","locality":"LEVENS","townOrCity":"KENDAL","district":"SOUTH LAKELAND","county":"CUMBRIA","ppdCategoryType":"Standard","recordStatus":"Addition","latitude":54.268726,"longitude":-2.788859,"postcodeStart":"LA8 8","postcode":["LA8","8NG"]}
{"price":87000,"dateOfTransfer":"1997-01-20T00:00:00","postcodeFull":"LA8 8EP","propertyType":"Terraced","oldOrNew":"Established","duration":"Freehold","paon":"GILPIN HOUSE","saon":"1","street":"","locality":"LEVENS","townOrCity":"KENDAL","district":"SOUTH LAKELAND","county":"CUMBRIA","ppdCategoryType":"Standard","recordStatus":"Addition","latitude":54.262023,"longitude":-2.81176,"postcodeStart":"LA8 8","postcode":["LA8","8EP"]}
{"price":117000,"dateOfTransfer":"1997-02-07T00:00:00","postcodeFull":"LA8 8AP","propertyType":"Detached","oldOrNew":"Established","duration":"Freehold","paon":"HIGH SYKE","saon":"","street":"","locality":"BRIGSTEER","townOrCity":"KENDAL","district":"SOUTH LAKELAND","county":"CUMBRIA","ppdCategoryType":"Standard","recordStatus":"Addition","latitude":54.297989,"longitude":-2.798562,"postcodeStart":"LA8 8","postcode":["LA8","8AP"]}
{"price":177500,"dateOfTransfer":"1997-12-12T00:00:00","postcodeFull":"LA8 8HX","propertyType":"Detached","oldOrNew":"New build","duration":"Freehold","paon":"WHITE BECK","saon":"","street":"","locality":"CROSTHWAITE","townOrCity":"KENDAL","district":"SOUTH LAKELAND","county":"CUMBRIA","ppdCategoryType":"Standard","recordStatus":"Addition","latitude":54.31633,"longitude":-2.866555,"postcodeStart":"LA8 8","postcode":["LA8","8HX"]}
{"price":106250,"dateOfTransfer":"1997-07-11T00:00:00","postcodeFull":"LA8 8AB","propertyType":"Detached","oldOrNew":"Established","duration":"Freehold","paon":"SOUTH VIEW","saon":"","street":"","locality":"HELSINGTON","townOrCity":"KENDAL","district":"SOUTH LAKELAND","county":"CUMBRIA","ppdCategoryType":"Standard","recordStatus":"Addition","latitude":54.296835,"longitude":-2.755885,"postcodeStart":"LA8 8","postcode":["LA8","8AB"]}
{"price":31000,"dateOfTransfer":"1997-05-23T00:00:00","postcodeFull":"LA8 8NR","propertyType":"Flat/Maisonette/Townhouse","oldOrNew":"Established","duration":"Leasehold","paon":"13","saon":"","street":"BEATHWAITE CLOSE","locality":"LEVENS","townOrCity":"KENDAL","district":"SOUTH LAKELAND","county":"CUMBRIA","ppdCategoryType":"Standard","recordStatus":"Addition","latitude":54.26914,"longitude":-2.78615,"postcodeStart":"LA8 8","postcode":["LA8","8NR"]}
{"price":112500,"dateOfTransfer":"1997-09-24T00:00:00","postcodeFull":"LA8 8JN","propertyType":"Terraced","oldOrNew":"Established","duration":"Freehold","paon":"3","saon":"","street":"STARNTHWAITE GHYLL","locality":"CROSTHWAITE","townOrCity":"KENDAL","district":"SOUTH LAKELAND","county":"CUMBRIA","ppdCategoryType":"Standard","recordStatus":"Addition","latitude":54.322394,"longitude":-2.870682,"postcodeStart":"LA8 8","postcode":["LA8","8JN"]}
{"price":177500,"dateOfTransfer":"1997-06-10T00:00:00","postcodeFull":"LA8 8PS","propertyType":"Detached","oldOrNew":"Established","duration":"Freehold","paon":"GLEN ROBIN","saon":"","street":"CHURCH ROAD","locality":"LEVENS","townOrCity":"KENDAL","district":"SOUTH LAKELAND","county":"CUMBRIA","ppdCategoryType":"Standard","recordStatus":"Addition","latitude":54.265656,"longitude":-2.79115,"postcodeStart":"LA8 8","postcode":["LA8","8PS"]}
{"price":116000,"dateOfTransfer":"1997-09-30T00:00:00","postcodeFull":"LA8 8LX","propertyType":"Detached","oldOrNew":"Established","duration":"Freehold","paon":"ROSEMARY COTTAGE","saon":"","street":"CROOK ROAD","locality":"KENDAL","townOrCity":"KENDAL","district":"SOUTH LAKELAND","county":"CUMBRIA","ppdCategoryType":"Standard","recordStatus":"Addition","latitude":54.345349,"longitude":-2.777068,"postcodeStart":"LA8 8","postcode":["LA8","8LX"]}
{"price":125001,"dateOfTransfer":"1997-05-23T00:00:00","postcodeFull":"LA8 8LE","propertyType":"Semi-detached","oldOrNew":"Established","duration":"Freehold","paon":"TITHER CRAG BARN","saon":"","street":"","locality":"CROOK","townOrCity":"KENDAL","district":"SOUTH LAKELAND","county":"CUMBRIA","ppdCategoryType":"Standard","recordStatus":"Addition","latitude":54.345566,"longitude":-2.82822,"postcodeStart":"LA8 8","postcode":["LA8","8LE"]}
{"price":115000,"dateOfTransfer":"1997-06-06T00:00:00","postcodeFull":"LA8 8LE","propertyType":"Semi-detached","oldOrNew":"Established","duration":"Freehold","paon":"YAN CRAG","saon":"","street":"","locality":"CROOK","townOrCity":"KENDAL","district":"SOUTH LAKELAND","county":"CUMBRIA","ppdCategoryType":"Standard","recordStatus":"Addition","latitude":54.345566,"longitude":-2.82822,"postcodeStart":"LA8 8","postcode":["LA8","8LE"]}
{"price":66000,"dateOfTransfer":"1997-01-14T00:00:00","postcodeFull":"LA8 8DF","propertyType":"Detached","oldOrNew":"Established","duration":"Freehold","paon":"GREENACRE COTTAGE","saon":"","street":"","locality":"LYTH","townOrCity":"KENDAL","district":"SOUTH LAKELAND","county":"CUMBRIA","ppdCategoryType":"Standard","recordStatus":"Addition","latitude":54.287763,"longitude":-2.836629,"postcodeStart":"LA8 8","postcode":["LA8","8DF"]}
{"price":105000,"dateOfTransfer":"1997-09-19T00:00:00","postcodeFull":"LA8 8PT","propertyType":"Detached","oldOrNew":"Established","duration":"Freehold","paon":"HOLCOMBE","saon":"","street":"CHURCH ROAD","locality":"LEVENS","townOrCity":"KENDAL","district":"SOUTH LAKELAND","county":"CUMBRIA","ppdCategoryType":"Standard","recordStatus":"Addition","latitude":54.266584,"longitude":-2.789479,"postcodeStart":"LA8 8","postcode":["LA8","8PT"]}
{"price":65000,"dateOfTransfer":"1997-01-06T00:00:00","postcodeFull":"LA8 8PP","propertyType":"Detached","oldOrNew":"Established","duration":"Freehold","paon":"FOUR WINDS","saon":"","street":"CHURCH ROAD","locality":"LEVENS","townOrCity":"KENDAL","district":"SOUTH LAKELAND","county":"CUMBRIA","ppdCategoryType":"Standard","recordStatus":"Addition","latitude":54.263759,"longitude":-2.792602,"postcodeStart":"LA8 8","postcode":["LA8","8PP"]}
{"price":133500,"dateOfTransfer":"1997-12-12T00:00:00","postcodeFull":"LA8 8LE","propertyType":"Terraced","oldOrNew":"Established","duration":"Freehold","paon":"TAN CRAG BARN","saon":"","street":"","locality":"CROOK","townOrCity":"KENDAL","district":"SOUTH LAKELAND","county":"CUMBRIA","ppdCategoryType":"Standard","recordStatus":"Addition","latitude":54.345566,"longitude":-2.82822,"postcodeStart":"LA8 8","postcode":["LA8","8LE"]}
{"price":140000,"dateOfTransfer":"1997-08-29T00:00:00","postcodeFull":"LA8 8AW","propertyType":"Detached","oldOrNew":"Established","duration":"Freehold","paon":"WOOD END, 2","saon":"","street":"CROW WOOD","locality":"BRIGSTEER","townOrCity":"KENDAL","district":"SOUTH LAKELAND","county":"CUMBRIA","ppdCategoryType":"Standard","recordStatus":"Addition","latitude":54.29908,"longitude":-2.799367,"postcodeStart":"LA8 8","postcode":["LA8","8AW"]}
{"price":99500,"dateOfTransfer":"1997-10-21T00:00:00","postcodeFull":"LA8 8PJ","propertyType":"Detached","oldOrNew":"Established","duration":"Freehold","paon":"QUARRY FOOT","saon":"","street":"","locality":"LEVENS","townOrCity":"KENDAL","district":"SOUTH LAKELAND","county":"CUMBRIA","ppdCategoryType":"Standard","recordStatus":"Addition","latitude":54.266123,"longitude":-2.792494,"postcodeStart":"LA8 8","postcode":["LA8","8PJ"]}
{"price":72000,"dateOfTransfer":"1997-07-04T00:00:00","postcodeFull":"LA8 8NG","propertyType":"Flat/Maisonette/Townhouse","oldOrNew":"New build","duration":"Leasehold","paon":"8","saon":"","street":"BEATHWAITE GARDENS","locality":"LEVENS","townOrCity":"KENDAL","district":"SOUTH LAKELAND","county":"CUMBRIA","ppdCategoryType":"Standard","recordStatus":"Addition","latitude":54.268726,"longitude":-2.788859,"postcodeStart":"LA8 8","postcode":["LA8","8NG"]}
{"price":58500,"dateOfTransfer":"1997-03-27T00:00:00","postcodeFull":"LA8 8NF","propertyType":"Semi-detached","oldOrNew":"Established","duration":"Freehold","paon":"32","saon":"","street":"GREENGATE","locality":"LEVENS","townOrCity":"KENDAL","district":"SOUTH LAKELAND","county":"CUMBRIA","ppdCategoryType":"Standard","recordStatus":"Addition","latitude":54.266982,"longitude":-2.785018,"postcodeStart":"LA8 8","postcode":["LA8","8NF"]}
{"price":68500,"dateOfTransfer":"1997-05-23T00:00:00","postcodeFull":"LA8 8NE","propertyType":"Semi-detached","oldOrNew":"Established","duration":"Freehold","paon":"VICTORIA COTTAGE","saon":"","street":"","locality":"LEVENS","townOrCity":"KENDAL","district":"SOUTH LAKELAND","county":"CUMBRIA","ppdCategoryType":"Standard","recordStatus":"Addition","latitude":54.267224,"longitude":-2.786528,"postcodeStart":"LA8 8","postcode":["LA8","8NE"]}
{"price":125000,"dateOfTransfer":"1997-08-08T00:00:00","postcodeFull":"LA8 8EA","propertyType":"Detached","oldOrNew":"Established","duration":"Freehold","paon":"BRETTARGH LODGE","saon":"","street":"","locality":"LEVENS","townOrCity":"KENDAL","district":"SOUTH LAKELAND","county":"CUMBRIA","ppdCategoryType":"Standard","recordStatus":"Addition","latitude":54.273422,"longitude":-2.761706,"postcodeStart":"LA8 8","postcode":["LA8","8EA"]}
{"price":199000,"dateOfTransfer":"1997-06-27T00:00:00","postcodeFull":"LA8 8NX","propertyType":"Detached","oldOrNew":"Established","duration":"Freehold","paon":"SCAR BANK COTTAGE","saon":"","street":"","locality":"LEVENS","townOrCity":"KENDAL","district":"SOUTH LAKELAND","county":"CUMBRIA","ppdCategoryType":"Standard","recordStatus":"Addition","latitude":54.276494,"longitude":-2.789975,"postcodeStart":"LA8 8","postcode":["LA8","8NX"]}
{"price":84000,"dateOfTransfer":"1997-03-20T00:00:00","postcodeFull":"LA8 8QD","propertyType":"Semi-detached","oldOrNew":"Established","duration":"Freehold","paon":"1","saon":"","street":"OAKWOOD CLOSE","locality":"LEVENS","townOrCity":"KENDAL","district":"SOUTH LAKELAND","county":"CUMBRIA","ppdCategoryType":"Standard","recordStatus":"Addition","latitude":54.268507,"longitude":-2.786721,"postcodeStart":"LA8 8","postcode":["LA8","8QD"]}
{"price":70000,"dateOfTransfer":"1997-04-21T00:00:00","postcodeFull":"LA8 8LW","propertyType":"Detached","oldOrNew":"Established","duration":"Freehold","paon":"CROOK FOOT COTTAGE","saon":"","street":"","locality":"CROOK","townOrCity":"KENDAL","district":"SOUTH LAKELAND","county":"CUMBRIA","ppdCategoryType":"Standard","recordStatus":"Addition","latitude":54.338305,"longitude":-2.876355,"postcodeStart":"LA8 8","postcode":["LA8","8LW"]}
{"price":90000,"dateOfTransfer":"1997-03-07T00:00:00","postcodeFull":"LA8 8ND","propertyType":"Detached","oldOrNew":"Established","duration":"Freehold","paon":"HILL LODGE","saon":"","street":"","locality":"LEVENS","townOrCity":"KENDAL","district":"SOUTH LAKELAND","county":"CUMBRIA","ppdCategoryType":"Standard","recordStatus":"Addition","latitude":54.268037,"longitude":-2.787219,"postcodeStart":"LA8 8","postcode":["LA8","8ND"]}
{"price":83000,"dateOfTransfer":"1997-04-15T00:00:00","postcodeFull":"LA8 8NG","propertyType":"Flat/Maisonette/Townhouse","oldOrNew":"New build","duration":"Leasehold","paon":"2","saon":"","street":"BEATHWAITE GARDENS","locality":"LEVENS","townOrCity":"KENDAL","district":"SOUTH LAKELAND","county":"CUMBRIA","ppdCategoryType":"Standard","recordStatus":"Addition","latitude":54.268726,"longitude":-2.788859,"postcodeStart":"LA8 8","postcode":["LA8","8NG"]}
{"price":155000,"dateOfTransfer":"1997-01-31T00:00:00","postcodeFull":"LA8 8NX","propertyType":"Detached","oldOrNew":"Established","duration":"Freehold","paon":"WAIST COTE","saon":"","street":"","locality":"LEVENS","townOrCity":"KENDAL","district":"SOUTH LAKELAND","county":"CUMBRIA","ppdCategoryType":"Standard","recordStatus":"Addition","latitude":54.276494,"longitude":-2.789975,"postcodeStart":"LA8 8","postcode":["LA8","8NX"]}
{"price":143000,"dateOfTransfer":"1997-08-29T00:00:00","postcodeFull":"LA8 8AT","propertyType":"Detached","oldOrNew":"Established","duration":"Freehold","paon":"MILL GHYLL","saon":"","street":"LOW LANE","locality":"BRIGSTEER","townOrCity":"KENDAL","district":"SOUTH LAKELAND","county":"CUMBRIA","ppdCategoryType":"Standard","recordStatus":"Addition","latitude":54.298745,"longitude":-2.80105,"postcodeStart":"LA8 8","postcode":["LA8","8AT"]}
{"price":360000,"dateOfTransfer":"1997-09-30T00:00:00","postcodeFull":"LA8 8LE","propertyType":"Detached","oldOrNew":"Established","duration":"Freehold","paon":"HIGH CRAG","saon":"","street":"","locality":"CROOK","townOrCity":"KENDAL","district":"SOUTH LAKELAND","county":"CUMBRIA","ppdCategoryType":"Standard","recordStatus":"Addition","latitude":54.345566,"longitude":-2.82822,"postcodeStart":"LA8 8","postcode":["LA8","8LE"]}
{"price":120000,"dateOfTransfer":"1997-03-27T00:00:00","postcodeFull":"LA8 8HQ","propertyType":"Detached","oldOrNew":"Established","duration":"Freehold","paon":"LOW FIELD","saon":"","street":"","locality":"UNDERBARROW","townOrCity":"KENDAL","district":"SOUTH LAKELAND","county":"CUMBRIA","ppdCategoryType":"Standard","recordStatus":"Addition","latitude":54.3227,"longitude":-2.820704,"postcodeStart":"LA8 8","postcode":["LA8","8HQ"]}
{"price":147000,"dateOfTransfer":"1997-02-19T00:00:00","postcodeFull":"LA8 8HX","propertyType":"Detached","oldOrNew":"Established","duration":"Freehold","paon":"GREENHOWE","saon":"","street":"","locality":"CROSTHWAITE","townOrCity":"KENDAL","district":"SOUTH LAKELAND","county":"CUMBRIA","ppdCategoryType":"Standard","recordStatus":"Addition","latitude":54.31633,"longitude":-2.866555,"postcodeStart":"LA8 8","postcode":["LA8","8HX"]}
{"price":105000,"dateOfTransfer":"1997-09-26T00:00:00","postcodeFull":"LA8 8QB","propertyType":"Detached","oldOrNew":"Established","duration":"Freehold","paon":"3","saon":"","street":"GREENGATE CRESCENT","locality":"LEVENS","townOrCity":"KENDAL","district":"SOUTH LAKELAND","county":"CUMBRIA","ppdCategoryType":"Standard","recordStatus":"Addition","latitude":54.268762,"longitude":-2.784837,"postcodeStart":"LA8 8","postcode":["LA8","8QB"]}
{"price":170000,"dateOfTransfer":"1997-08-28T00:00:00","postcodeFull":"LA8 8PA","propertyType":"Detached","oldOrNew":"Established","duration":"Freehold","paon":"OVER LYTH COTTAGE","saon":"","street":"","locality":"LEVENS","townOrCity":"KENDAL","district":"SOUTH LAKELAND","county":"CUMBRIA","ppdCategoryType":"Standard","recordStatus":"Addition","latitude":54.272795,"longitude":-2.790765,"postcodeStart":"LA8 8","postcode":["LA8","8PA"]}
{"price":120000,"dateOfTransfer":"1997-05-19T00:00:00","postcodeFull":"LA8 8HT","propertyType":"Detached","oldOrNew":"Established","duration":"Freehold","paon":"SCHOOL MEADOW","saon":"","street":"","locality":"CROSTHWAITE","townOrCity":"KENDAL","district":"SOUTH LAKELAND","county":"CUMBRIA","ppdCategoryType":"Standard","recordStatus":"Addition","latitude":54.314522,"longitude":-2.858017,"postcodeStart":"LA8 8","postcode":["LA8","8HT"]}
{"price":98500,"dateOfTransfer":"1997-05-09T00:00:00","postcodeFull":"LA8 8AB","propertyType":"Semi-detached","oldOrNew":"Established","duration":"Freehold","paon":"THE WILLOWS","saon":"","street":"","locality":"HELSINGTON","townOrCity":"KENDAL","district":"SOUTH LAKELAND","county":"CUMBRIA","ppdCategoryType":"Standard","recordStatus":"Addition","latitude":54.296835,"longitude":-2.755885,"postcodeStart":"LA8 8","postcode":["LA8","8AB"]}
{"price":120000,"dateOfTransfer":"1997-10-31T00:00:00","postcodeFull":"LA8 8JF","propertyType":"Detached","oldOrNew":"Established","duration":"Freehold","paon":"YEWS","saon":"","street":"","locality":"CROSTHWAITE","townOrCity":"KENDAL","district":"SOUTH LAKELAND","county":"CUMBRIA","ppdCategoryType":"Standard","recordStatus":"Addition","latitude":54.312397,"longitude":-2.879739,"postcodeStart":"LA8 8","postcode":["LA8","8JF"]}
{"price":81000,"dateOfTransfer":"1997-12-12T00:00:00","postcodeFull":"LA8 8NG","propertyType":"Flat/Maisonette/Townhouse","oldOrNew":"Established","duration":"Leasehold","paon":"1","saon":"","street":"BEATHWAITE GARDENS","locality":"LEVENS","townOrCity":"KENDAL","district":"SOUTH LAKELAND","county":"CUMBRIA","ppdCategoryType":"Standard","recordStatus":"Addition","latitude":54.268726,"longitude":-2.788859,"postcodeStart":"LA8 8","postcode":["LA8","8NG"]}
{"price":83000,"dateOfTransfer":"1997-02-03T00:00:00","postcodeFull":"LA8 8NG","propertyType":"Flat/Maisonette/Townhouse","oldOrNew":"New build","duration":"Leasehold","paon":"6","saon":"","street":"BEATHWAITE GARDENS","locality":"LEVENS","townOrCity":"KENDAL","district":"SOUTH LAKELAND","county":"CUMBRIA","ppdCategoryType":"Standard","recordStatus":"Addition","latitude":54.268726,"longitude":-2.788859,"postcodeStart":"LA8 8","postcode":["LA8","8NG"]}
{"price":99000,"dateOfTransfer":"1997-10-20T00:00:00","postcodeFull":"LA8 8LQ","propertyType":"Detached","oldOrNew":"Established","duration":"Freehold","paon":"BOX TREE BARN","saon":"","street":"","locality":"CROOK","townOrCity":"KENDAL","district":"SOUTH LAKELAND","county":"CUMBRIA","ppdCategoryType":"Standard","recordStatus":"Addition","latitude":54.349628,"longitude":-2.857794,"postcodeStart":"LA8 8","postcode":["LA8","8LQ"]}
{"price":150000,"dateOfTransfer":"1997-03-20T00:00:00","postcodeFull":"LA8 8NU","propertyType":"Detached","oldOrNew":"Established","duration":"Freehold","paon":"EVESHAM","saon":"","street":"BRIGSTEER ROAD","locality":"LEVENS","townOrCity":"KENDAL","district":"SOUTH LAKELAND","county":"CUMBRIA","ppdCategoryType":"Standard","recordStatus":"Addition","latitude":54.273148,"longitude":-2.786287,"postcodeStart":"LA8 8","postcode":["LA8","8NU"]}
{"price":59000,"dateOfTransfer":"1998-11-20T00:00:00","postcodeFull":"LA8 8HU","propertyType":"Semi-detached","oldOrNew":"Established","duration":"Freehold","paon":"5","saon":"","street":"ST MARYS GREEN","locality":"CROSTHWAITE","townOrCity":"KENDAL","district":"SOUTH LAKELAND","county":"CUMBRIA","ppdCategoryType":"Standard","recordStatus":"Addition","latitude":54.315202,"longitude":-2.859646,"postcodeStart":"LA8 8","postcode":["LA8","8HU"]}
{"price":74500,"dateOfTransfer":"1998-05-22T00:00:00","postcodeFull":"LA8 8NF","propertyType":"Semi-detached","oldOrNew":"Established","duration":"Freehold","paon":"53","saon":"","street":"GREENGATE","locality":"LEVENS","townOrCity":"KENDAL","district":"SOUTH LAKELAND","county":"CUMBRIA","ppdCategoryType":"Standard","recordStatus":"Addition","latitude":54.266982,"longitude":-2.785018,"postcodeStart":"LA8 8","postcode":["LA8","8NF"]}
{"price":215000,"dateOfTransfer":"1998-05-22T00:00:00","postcodeFull":"LA8 8AJ","propertyType":"Detached","oldOrNew":"Established","duration":"Freehold","paon":"KELL GARTH","saon":"","street":"","locality":"BRIGSTEER","townOrCity":"KENDAL","district":"SOUTH LAKELAND","county":"CUMBRIA","ppdCategoryType":"Standard","recordStatus":"Addition","latitude":54.300337,"longitude":-2.79956,"postcodeStart":"LA8 8","postcode":["LA8","8AJ"]}
{"price":124500,"dateOfTransfer":"1998-02-27T00:00:00","postcodeFull":"LA8 8DS","propertyType":"Flat/Maisonette/Townhouse","oldOrNew":"Established","duration":"Leasehold","paon":"HYNING HOUSE","saon":"3","street":"","locality":"LEVENS","townOrCity":"KENDAL","district":"SOUTH LAKELAND","county":"CUMBRIA","ppdCategoryType":"Standard","recordStatus":"Addition","latitude":54.270542,"longitude":-2.783304,"postcodeStart":"LA8 8","postcode":["LA8","8DS"]}
{"price":35000,"dateOfTransfer":"1998-06-12T00:00:00","postcodeFull":"LA8 8NJ","propertyType":"Detached","oldOrNew":"New build","duration":"Freehold","paon":"VERE AMOENA","saon":"","street":"LOWGATE","locality":"LEVENS","townOrCity":"KENDAL","district":"SOUTH LAKELAND","county":"CUMBRIA","ppdCategoryType":"Standard","recordStatus":"Addition","latitude":54.267192,"longitude":-2.790012,"postcodeStart":"LA8 8","postcode":["LA8","8NJ"]}
{"price":116000,"dateOfTransfer":"1998-01-20T00:00:00","postcodeFull":"LA8 8AJ","propertyType":"Detached","oldOrNew":"Established","duration":"Freehold","paon":"SPRING BANK","saon":"","street":"","locality":"BRIGSTEER","townOrCity":"KENDAL","district":"SOUTH LAKELAND","county":"CUMBRIA","ppdCategoryType":"Standard","recordStatus":"Addition","latitude":54.300337,"longitude":-2.79956,"postcodeStart":"LA8 8","postcode":["LA8","8AJ"]}
{"price":179050,"dateOfTransfer":"1998-08-06T00:00:00","postcodeFull":"LA8 8DJ","propertyType":"Detached","oldOrNew":"Established","duration":"Freehold","paon":"HILLCREST","saon":"","street":"","locality":"LYTH","townOrCity":"KENDAL","district":"SOUTH LAKELAND","county":"CUMBRIA","ppdCategoryType":"Standard","recordStatus":"Addition","latitude":54.289824,"longitude":-2.831095,"postcodeStart":"LA8 8","postcode":["LA8","8DJ"]}
{"price":132000,"dateOfTransfer":"1998-09-18T00:00:00","postcodeFull":"LA8 8HX","propertyType":"Detached","oldOrNew":"Established","duration":"Freehold","paon":"GILPIN GREEN FARM","saon":"","street":"","locality":"CROSTHWAITE","townOrCity":"KENDAL","district":"SOUTH LAKELAND","county":"CUMBRIA","ppdCategoryType":"Standard","recordStatus":"Addition","latitude":54.31633,"longitude":-2.866555,"postcodeStart":"LA8 8","postcode":["LA8","8HX"]}
{"price":50000,"dateOfTransfer":"1998-02-27T00:00:00","postcodeFull":"LA8 8EQ","propertyType":"Semi-detached","oldOrNew":"Established","duration":"Freehold","paon":"HIGH SAMPOOL","saon":"TRADEWINDS","street":"","locality":"LEVENS","townOrCity":"KENDAL","district":"SOUTH LAKELAND","county":"CUMBRIA","ppdCategoryType":"Standard","recordStatus":"Addition","latitude":54.255016,"longitude":-2.79641,"postcodeStart":"LA8 8","postcode":["LA8","8EQ"]}
{"price":79500,"dateOfTransfer":"1998-07-31T00:00:00","postcodeFull":"LA8 8NF","propertyType":"Detached","oldOrNew":"Established","duration":"Freehold","paon":"65","saon":"","street":"GREENGATE","locality":"LEVENS","townOrCity":"KENDAL","district":"SOUTH LAKELAND","county":"CUMBRIA","ppdCategoryType":"Standard","recordStatus":"Addition","latitude":54.266982,"longitude":-2.785018,"postcodeStart":"LA8 8","postcode":["LA8","8NF"]}
{"price":88500,"dateOfTransfer":"1998-05-29T00:00:00","postcodeFull":"LA8 8LH","propertyType":"Terraced","oldOrNew":"Established","duration":"Freehold","paon":"1","saon":"","street":"SMITHY COTTAGES","locality":"CROOK","townOrCity":"KENDAL","district":"SOUTH LAKELAND","county":"CUMBRIA","ppdCategoryType":"Standard","recordStatus":"Addition","latitude":54.348625,"longitude":-2.866191,"postcodeStart":"LA8 8","postcode":["LA8","8LH"]}
{"price":62000,"dateOfTransfer":"1998-03-04T00:00:00","postcodeFull":"LA8 8NG","propertyType":"Flat/Maisonette/Townhouse","oldOrNew":"New build","duration":"Leasehold","paon":"3","saon":"","street":"BEATHWAITE GARDENS","locality":"LEVENS","townOrCity":"KENDAL","district":"SOUTH LAKELAND","county":"CUMBRIA","ppdCategoryType":"Standard","recordStatus":"Addition","latitude":54.268726,"longitude":-2.788859,"postcodeStart":"LA8 8","postcode":["LA8","8NG"]}
{"price":187000,"dateOfTransfer":"1998-07-10T00:00:00","postcodeFull":"LA8 8LG","propertyType":"Detached","oldOrNew":"Established","duration":"Freehold","paon":"THE OLD SCHOOL HOUSE","saon":"","street":"","locality":"CROOK","townOrCity":"KENDAL","district":"SOUTH LAKELAND","county":"CUMBRIA","ppdCategoryType":"Standard","recordStatus":"Addition","latitude":54.348553,"longitude":-2.842004,"postcodeStart":"LA8 8","postcode":["LA8","8LG"]}
{"price":82000,"dateOfTransfer":"1998-06-15T00:00:00","postcodeFull":"LA8 8QA","propertyType":"Detached","oldOrNew":"Established","duration":"Freehold","paon":"12","saon":"","street":"GREENGATE CRESCENT","locality":"LEVENS","townOrCity":"KENDAL","district":"SOUTH LAKELAND","county":"CUMBRIA","ppdCategoryType":"Standard","recordStatus":"Addition","latitude":54.268261,"longitude":-2.784521,"postcodeStart":"LA8 8","postcode":["LA8","8QA"]}
{"price":47000,"dateOfTransfer":"1998-11-13T00:00:00","postcodeFull":"LA8 8NW","propertyType":"Terraced","oldOrNew":"Established","duration":"Freehold","paon":"1","saon":"","street":"THE SQUARE","locality":"LEVENS","townOrCity":"KENDAL","district":"SOUTH LAKELAND","county":"CUMBRIA","ppdCategoryType":"Standard","recordStatus":"Addition","latitude":54.268872,"longitude":-2.787157,"postcodeStart":"LA8 8","postcode":["LA8","8NW"]}
{"price":79000,"dateOfTransfer":"1998-02-05T00:00:00","postcodeFull":"LA8 8NG","propertyType":"Flat/Maisonette/Townhouse","oldOrNew":"New build","duration":"Leasehold","paon":"5","saon":"","street":"BEATHWAITE GARDENS","locality":"LEVENS","townOrCity":"KENDAL","district":"SOUTH LAKELAND","county":"CUMBRIA","ppdCategoryType":"Standard","recordStatus":"Addition","latitude":54.268726,"longitude":-2.788859,"postcodeStart":"LA8 8","postcode":["LA8","8NG"]}
{"price":185000,"dateOfTransfer":"1998-09-25T00:00:00","postcodeFull":"LA8 8DD","propertyType":"Semi-detached","oldOrNew":"Established","duration":"Freehold","paon":"RIVEN OAK","saon":"","street":"","locality":"LYTH","townOrCity":"KENDAL","district":"SOUTH LAKELAND","county":"CUMBRIA","ppdCategoryType":"Standard","recordStatus":"Addition","latitude":54.295814,"longitude":-2.84469,"postcodeStart":"LA8 8","postcode":["LA8","8DD"]}
{"price":162000,"dateOfTransfer":"1998-07-29T00:00:00","postcodeFull":"LA8 8AN","propertyType":"Detached","oldOrNew":"Established","duration":"Freehold","paon":"FIELD END","saon":"","street":"","locality":"BRIGSTEER","townOrCity":"KENDAL","district":"SOUTH LAKELAND","county":"CUMBRIA","ppdCategoryType":"Standard","recordStatus":"Addition","latitude":54.299505,"longitude":-2.799083,"postcodeStart":"LA8 8","postcode":["LA8","8AN"]}
{"price":46000,"dateOfTransfer":"1998-05-29T00:00:00","postcodeFull":"LA8 8AR","propertyType":"Semi-detached","oldOrNew":"Established","duration":"Freehold","paon":"TRINITY COTTAGES","saon":"2","street":"","locality":"BRIGSTEER","townOrCity":"KENDAL","district":"SOUTH LAKELAND","county":"CUMBRIA","ppdCategoryType":"Standard","recordStatus":"Addition","latitude":54.296448,"longitude":-2.797841,"postcodeStart":"LA8 8","postcode":["LA8","8AR"]}
{"price":85000,"dateOfTransfer":"1998-04-15T00:00:00","postcodeFull":"LA8 8NG","propertyType":"Flat/Maisonette/Townhouse","oldOrNew":"Established","duration":"Leasehold","paon":"6","saon":"","street":"BEATHWAITE GARDENS","locality":"LEVENS","townOrCity":"KENDAL","district":"SOUTH LAKELAND","county":"CUMBRIA","ppdCategoryType":"Standard","recordStatus":"Addition","latitude":54.268726,"longitude":-2.788859,"postcodeStart":"LA8 8","postcode":["LA8","8NG"]}
{"price":52500,"dateOfTransfer":"1998-10-09T00:00:00","postcodeFull":"LA8 8EP","propertyType":"Terraced","oldOrNew":"Established","duration":"Freehold","paon":"GILPIN HOUSE","saon":"3","street":"","locality":"LEVENS","townOrCity":"KENDAL","district":"SOUTH LAKELAND","county":"CUMBRIA","ppdCategoryType":"Standard","recordStatus":"Addition","latitude":54.262023,"longitude":-2.81176,"postcodeStart":"LA8 8","postcode":["LA8","8EP"]}
{"price":35000,"dateOfTransfer":"1998-09-30T00:00:00","postcodeFull":"LA8 8AN","propertyType":"Detached","oldOrNew":"Established","duration":"Freehold","paon":"BROW HOUSE","saon":"","street":"","locality":"BRIGSTEER","townOrCity":"KENDAL","district":"SOUTH LAKELAND","county":"CUMBRIA","ppdCategoryType":"Standard","recordStatus":"Addition","latitude":54.299505,"longitude":-2.799083,"postcodeStart":"LA8 8","postcode":["LA8","8AN"]}
{"price":179950,"dateOfTransfer":"1998-07-02T00:00:00","postcodeFull":"LA8 8HJ","propertyType":"Detached","oldOrNew":"Established","duration":"Freehold","paon":"OLD SCHOOL HOUSE","saon":"","street":"","locality":"UNDERBARROW","townOrCity":"KENDAL","district":"SOUTH LAKELAND","county":"CUMBRIA","ppdCategoryType":"Standard","recordStatus":"Addition","latitude":54.325851,"longitude":-2.825163,"postcodeStart":"LA8 8","postcode":["LA8","8HJ"]}
{"price":145000,"dateOfTransfer":"1998-07-10T00:00:00","postcodeFull":"LA8 8PA","propertyType":"Detached","oldOrNew":"Established","duration":"Freehold","paon":"SPOUT HOUSE","saon":"","street":"","locality":"LEVENS","townOrCity":"KENDAL","district":"SOUTH LAKELAND","county":"CUMBRIA","ppdCategoryType":"Standard","recordStatus":"Addition","latitude":54.272795,"longitude":-2.790765,"postcodeStart":"LA8 8","postcode":["LA8","8PA"]}
{"price":120000,"dateOfTransfer":"1998-08-28T00:00:00","postcodeFull":"LA8 8AJ","propertyType":"Semi-detached","oldOrNew":"Established","duration":"Freehold","paon":"KELL HOUSE","saon":"","street":"","locality":"BRIGSTEER","townOrCity":"KENDAL","district":"SOUTH LAKELAND","county":"CUMBRIA","ppdCategoryType":"Standard","recordStatus":"Addition","latitude":54.300337,"longitude":-2.79956,"postcodeStart":"LA8 8","postcode":["LA8","8AJ"]}
{"price":87500,"dateOfTransfer":"1998-08-20T00:00:00","postcodeFull":"LA8 8NG","propertyType":"Flat/Maisonette/Townhouse","oldOrNew":"Established","duration":"Leasehold","paon":"6","saon":"","street":"BEATHWAITE GARDENS","locality":"LEVENS","townOrCity":"KENDAL","district":"SOUTH LAKELAND","county":"CUMBRIA","ppdCategoryType":"Standard","recordStatus":"Addition","latitude":54.268726,"longitude":-2.788859,"postcodeStart":"LA8 8","postcode":["LA8","8NG"]}
{"price":118000,"dateOfTransfer":"1998-11-06T00:00:00","postcodeFull":"LA8 8PP","propertyType":"Detached","oldOrNew":"Established","duration":"Freehold","paon":"FIELD COTTAGE","saon":"","street":"CHURCH ROAD","locality":"LEVENS","townOrCity":"KENDAL","district":"SOUTH LAKELAND","county":"CUMBRIA","ppdCategoryType":"Standard","recordStatus":"Addition","latitude":54.263759,"longitude":-2.792602,"postcodeStart":"LA8 8","postcode":["LA8","8PP"]}
{"price":210000,"dateOfTransfer":"1998-07-17T00:00:00","postcodeFull":"LA8 8DF","propertyType":"Detached","oldOrNew":"Established","duration":"Freehold","paon":"DRAW WELL","saon":"","street":"","locality":"LYTH","townOrCity":"KENDAL","district":"SOUTH LAKELAND","county":"CUMBRIA","ppdCategoryType":"Standard","recordStatus":"Addition","latitude":54.287763,"longitude":-2.836629,"postcodeStart":"LA8 8","postcode":["LA8","8DF"]}
{"price":101000,"dateOfTransfer":"1998-08-10T00:00:00","postcodeFull":"LA8 8HX","propertyType":"Detached","oldOrNew":"Established","duration":"Freehold","paon":"DODDS HOWE COTTAGE","saon":"","street":"","locality":"CROSTHWAITE","townOrCity":"KENDAL","district":"SOUTH LAKELAND","county":"CUMBRIA","ppdCategoryType":"Standard","recordStatus":"Addition","latitude":54.31633,"longitude":-2.866555,"postcodeStart":"LA8 8","postcode":["LA8","8HX"]}
{"price":72000,"dateOfTransfer":"1998-04-27T00:00:00","postcodeFull":"LA8 8BU","propertyType":"Detached","oldOrNew":"Established","duration":"Freehold","paon":"TARNSIDE COTTAGE","saon":"","street":"","locality":"CROSTHWAITE","townOrCity":"KENDAL","district":"SOUTH LAKELAND","county":"CUMBRIA","ppdCategoryType":"Standard","recordStatus":"Addition","latitude":54.310597,"longitude":-2.87266,"postcodeStart":"LA8 8","postcode":["LA8","8BU"]}
{"price":110000,"dateOfTransfer":"1998-04-27T00:00:00","postcodeFull":"LA8 8EJ","propertyType":"Detached","oldOrNew":"Established","duration":"Freehold","paon":"FIELD PLACE","saon":"","street":"","locality":"LEVENS","townOrCity":"KENDAL","district":"SOUTH LAKELAND","county":"CUMBRIA","ppdCategoryType":"Standard","recordStatus":"Addition","latitude":54.261531,"longitude":-2.804596,"postcodeStart":"LA8 8","postcode":["LA8","8EJ"]}
{"price":90000,"dateOfTransfer":"1998-07-31T00:00:00","postcodeFull":"LA8 8DS","propertyType":"Terraced","oldOrNew":"Established","duration":"Leasehold","paon":"HYNING HOUSE","saon":"2","street":"","locality":"LEVENS","townOrCity":"KENDAL","district":"SOUTH LAKELAND","county":"CUMBRIA","ppdCategoryType":"Standard","recordStatus":"Addition","latitude":54.270542,"longitude":-2.783304,"postcodeStart":"LA8 8","postcode":["LA8","8DS"]}
{"price":104000,"dateOfTransfer":"1998-09-30T00:00:00","postcodeFull":"LA8 8AP","propertyType":"Detached","oldOrNew":"Established","duration":"Freehold","paon":"GLENWOOD","saon":"","street":"","locality":"BRIGSTEER","townOrCity":"KENDAL","district":"SOUTH LAKELAND","county":"CUMBRIA","ppdCategoryType":"Standard","recordStatus":"Addition","latitude":54.297989,"longitude":-2.798562,"postcodeStart":"LA8 8","postcode":["LA8","8AP"]}
{"price":175000,"dateOfTransfer":"1998-01-28T00:00:00","postcodeFull":"LA8 8PA","propertyType":"Detached","oldOrNew":"Established","duration":"Freehold","paon":"SCAR BECK LODGE","saon":"","street":"","locality":"LEVENS","townOrCity":"KENDAL","district":"SOUTH LAKELAND","county":"CUMBRIA","ppdCategoryType":"Standard","recordStatus":"Addition","latitude":54.272795,"longitude":-2.790765,"postcodeStart":"LA8 8","postcode":["LA8","8PA"]}
{"price":224000,"dateOfTransfer":"1998-11-06T00:00:00","postcodeFull":"LA8 8HQ","propertyType":"Detached","oldOrNew":"Established","duration":"Freehold","paon":"LINGFELL","saon":"","street":"","locality":"UNDERBARROW","townOrCity":"KENDAL","district":"SOUTH LAKELAND","county":"CUMBRIA","ppdCategoryType":"Standard","recordStatus":"Addition","latitude":54.3227,"longitude":-2.820704,"postcodeStart":"LA8 8","postcode":["LA8","8HQ"]}
{"price":84500,"dateOfTransfer":"1998-05-28T00:00:00","postcodeFull":"LA8 8NF","propertyType":"Detached","oldOrNew":"Established","duration":"Freehold","paon":"83","saon":"","street":"GREENGATE","locality":"LEVENS","townOrCity":"KENDAL","district":"SOUTH LAKELAND","county":"CUMBRIA","ppdCategoryType":"Standard","recordStatus":"Addition","latitude":54.266982,"longitude":-2.785018,"postcodeStart":"LA8 8","postcode":["LA8","8NF"]}
{"price":94500,"dateOfTransfer":"1998-05-22T00:00:00","postcodeFull":"LA8 8NF","propertyType":"Detached","oldOrNew":"Established","duration":"Freehold","paon":"27","saon":"","street":"GREENGATE","locality":"LEVENS","townOrCity":"KENDAL","district":"SOUTH LAKELAND","county":"CUMBRIA","ppdCategoryType":"Standard","recordStatus":"Addition","latitude":54.266982,"longitude":-2.785018,"postcodeStart":"LA8 8","postcode":["LA8","8NF"]}
{"price":70000,"dateOfTransfer":"1998-12-11T00:00:00","postcodeFull":"LA8 8NH","propertyType":"Semi-detached","oldOrNew":"Established","duration":"Freehold","paon":"19","saon":"","street":"THE GREEN","locality":"LEVENS","townOrCity":"KENDAL","district":"SOUTH LAKELAND","county":"CUMBRIA","ppdCategoryType":"Standard","recordStatus":"Addition","latitude":54.267795,"longitude":-2.788396,"postcodeStart":"LA8 8","postcode":["LA8","8NH"]}
{"price":165000,"dateOfTransfer":"1998-02-11T00:00:00","postcodeFull":"LA8 8LE","propertyType":"Semi-detached","oldOrNew":"New build","duration":"Freehold","paon":"ROWANCRAGG","saon":"","street":"","locality":"CROOK","townOrCity":"KENDAL","district":"SOUTH LAKELAND","county":"CUMBRIA","ppdCategoryType":"Standard","recordStatus":"Addition","latitude":54.345566,"longitude":-2.82822,"postcodeStart":"LA8 8","postcode":["LA8","8LE"]}
{"price":81000,"dateOfTransfer":"1998-08-26T00:00:00","postcodeFull":"LA8 8NF","propertyType":"Detached","oldOrNew":"Established","duration":"Freehold","paon":"73","saon":"","street":"GREENGATE","locality":"LEVENS","townOrCity":"KENDAL","district":"SOUTH LAKELAND","county":"CUMBRIA","ppdCategoryType":"Standard","recordStatus":"Addition","latitude":54.266982,"longitude":-2.785018,"postcodeStart":"LA8 8","postcode":["LA8","8NF"]}
{"price":106000,"dateOfTransfer":"1998-03-04T00:00:00","postcodeFull":"LA8 8JN","propertyType":"Semi-detached","oldOrNew":"Established","duration":"Freehold","paon":"GILPIN COTTAGE","saon":"","street":"STARNTHWAITE GHYLL","locality":"CROSTHWAITE","townOrCity":"KENDAL","district":"SOUTH LAKELAND","county":"CUMBRIA","ppdCategoryType":"Standard","recordStatus":"Addition","latitude":54.322394,"longitude":-2.870682,"postcodeStart":"LA8 8","postcode":["LA8","8JN"]}
{"price":55250,"dateOfTransfer":"1998-10-12T00:00:00","postcodeFull":"LA8 8EP","propertyType":"Semi-detached","oldOrNew":"Established","duration":"Freehold","paon":"GILPIN HOUSE","saon":"2","street":"","locality":"LEVENS","townOrCity":"KENDAL","district":"SOUTH LAKELAND","county":"CUMBRIA","ppdCategoryType":"Standard","recordStatus":"Addition","latitude":54.262023,"longitude":-2.81176,"postcodeStart":"LA8 8","postcode":["LA8","8EP"]}
{"price":75000,"dateOfTransfer":"1998-09-24T00:00:00","postcodeFull":"LA8 8PY","propertyType":"Terraced","oldOrNew":"Established","duration":"Freehold","paon":"1","saon":"","street":"VICARAGE ROAD","locality":"LEVENS","townOrCity":"KENDAL","district":"SOUTH LAKELAND","county":"CUMBRIA","ppdCategoryType":"Standard","recordStatus":"Addition","latitude":54.268131,"longitude":-2.786591,"postcodeStart":"LA8 8","postcode":["LA8","8PY"]}
{"price":139000,"dateOfTransfer":"1998-05-18T00:00:00","postcodeFull":"LA8 8BH","propertyType":"Detached","oldOrNew":"Established","duration":"Freehold","paon":"THREE TREES","saon":"","street":"BRIGSTEER ROAD","locality":"KENDAL","townOrCity":"KENDAL","district":"SOUTH LAKELAND","county":"CUMBRIA","ppdCategoryType":"Standard","recordStatus":"Addition","latitude":54.310276,"longitude":-2.770734,"postcodeStart":"LA8 8","postcode":["LA8","8BH"]}
{"price":130000,"dateOfTransfer":"1998-06-19T00:00:00","postcodeFull":"LA8 8AB","propertyType":"Detached","oldOrNew":"Established","duration":"Freehold","paon":"PRIZET","saon":"MEADOW VIEW","street":"","locality":"HELSINGTON","townOrCity":"KENDAL","district":"SOUTH LAKELAND","county":"CUMBRIA","ppdCategoryType":"Standard","recordStatus":"Addition","latitude":54.296835,"longitude":-2.755885,"postcodeStart":"LA8 8","postcode":["LA8","8AB"]}
{"price":128500,"dateOfTransfer":"1998-01-05T00:00:00","postcodeFull":"LA8 8DD","propertyType":"Semi-detached","oldOrNew":"Established","duration":"Freehold","paon":"SPRINGSIDE","saon":"","street":"","locality":"LYTH","townOrCity":"KENDAL","district":"SOUTH LAKELAND","county":"CUMBRIA","ppdCategoryType":"Standard","recordStatus":"Addition","latitude":54.295814,"longitude":-2.84469,"postcodeStart":"LA8 8","postcode":["LA8","8DD"]}
{"price":175000,"dateOfTransfer":"1998-10-26T00:00:00","postcodeFull":"LA8 8BU","propertyType":"Detached","oldOrNew":"Established","duration":"Freehold","paon":"SCAR VIEW","saon":"","street":"","locality":"CROSTHWAITE","townOrCity":"KENDAL","district":"SOUTH LAKELAND","county":"CUMBRIA","ppdCategoryType":"Standard","recordStatus":"Addition","latitude":54.310597,"longitude":-2.87266,"postcodeStart":"LA8 8","postcode":["LA8","8BU"]}
{"price":69000,"dateOfTransfer":"1998-01-16T00:00:00","postcodeFull":"LA8 8NG","propertyType":"Flat/Maisonette/Townhouse","oldOrNew":"New build","duration":"Leasehold","paon":"7","saon":"","street":"BEATHWAITE GARDENS","locality":"LEVENS","townOrCity":"KENDAL","district":"SOUTH LAKELAND","county":"CUMBRIA","ppdCategoryType":"Standard","recordStatus":"Addition","latitude":54.268726,"longitude":-2.788859,"postcodeStart":"LA8 8","postcode":["LA8","8NG"]}
{"price":162500,"dateOfTransfer":"1998-03-27T00:00:00","postcodeFull":"LA8 8LF","propertyType":"Detached","oldOrNew":"Established","duration":"Freehold","paon":"COCK HAG","saon":"","street":"","locality":"CROOK","townOrCity":"KENDAL","district":"SOUTH LAKELAND","county":"CUMBRIA","ppdCategoryType":"Standard","recordStatus":"Addition","latitude":54.337717,"longitude":-2.844274,"postcodeStart":"LA8 8","postcode":["LA8","8LF"]}
{"price":82750,"dateOfTransfer":"1998-02-06T00:00:00","postcodeFull":"LA8 8HX","propertyType":"Terraced","oldOrNew":"Established","duration":"Freehold","paon":"ROCK COTTAGE","saon":"","street":"","locality":"CROSTHWAITE","townOrCity":"KENDAL","district":"SOUTH LAKELAND","county":"CUMBRIA","ppdCategoryType":"Standard","recordStatus":"Addition","latitude":54.31633,"longitude":-2.866555,"postcodeStart":"LA8 8","postcode":["LA8","8HX"]}
{"price":79500,"dateOfTransfer":"1998-05-01T00:00:00","postcodeFull":"LA8 8HZ","propertyType":"Terraced","oldOrNew":"Established","duration":"Freehold","paon":"WATERWAYS","saon":"","street":"","locality":"CROSTHWAITE","townOrCity":"KENDAL","district":"SOUTH LAKELAND","county":"CUMBRIA","ppdCategoryType":"Standard","recordStatus":"Addition","latitude":54.321872,"longitude":-2.869579,"postcodeStart":"LA8 8","postcode":["LA8","8HZ"]}
{"price":200000,"dateOfTransfer":"1998-10-29T00:00:00","postcodeFull":"LA8 8BS","propertyType":"Detached","oldOrNew":"Established","duration":"Freehold","paon":"GREENFOLD","saon":"","street":"","locality":"CROSTHWAITE","townOrCity":"KENDAL","district":"SOUTH LAKELAND","county":"CUMBRIA","ppdCategoryType":"Standard","recordStatus":"Addition","latitude":54.309933,"longitude":-2.857429,"postcodeStart":"LA8 8","postcode":["LA8","8BS"]}
{"price":133500,"dateOfTransfer":"1998-01-30T00:00:00","postcodeFull":"LA8 8HX","propertyType":"Detached","oldOrNew":"Established","duration":"Freehold","paon":"WOOD YEAT BARN","saon":"","street":"","locality":"CROSTHWAITE","townOrCity":"KENDAL","district":"SOUTH LAKELAND","county":"CUMBRIA","ppdCategoryType":"Standard","recordStatus":"Addition","latitude":54.31633,"longitude":-2.866555,"postcodeStart":"LA8 8","postcode":["LA8","8HX"]}
{"price":83950,"dateOfTransfer":"1998-01-20T00:00:00","postcodeFull":"LA8 8QF","propertyType":"Semi-detached","oldOrNew":"Established","duration":"Freehold","paon":"4","saon":"","street":"STONE LANDS","locality":"LEVENS","townOrCity":"KENDAL","district":"SOUTH LAKELAND","county":"CUMBRIA","ppdCategoryType":"Standard","recordStatus":"Addition","latitude":54.263907,"longitude":-2.791991,"postcodeStart":"LA8 8","postcode":["LA8","8QF"]}
{"price":173500,"dateOfTransfer":"1999-11-19T00:00:00","postcodeFull":"LA8 8LL","propertyType":"Detached","oldOrNew":"Established","duration":"Freehold","paon":"MITCHELLAND COTTAGE","saon":"","street":"","locality":"CROOK","townOrCity":"KENDAL","district":"SOUTH LAKELAND","county":"CUMBRIA","ppdCategoryType":"Standard","recordStatus":"Addition","latitude":54.347894,"longitude":-2.872821,"postcodeStart":"LA8 8","postcode":["LA8","8LL"]}
{"price":102000,"dateOfTransfer":"1999-08-05T00:00:00","postcodeFull":"LA8 8HF","propertyType":"Semi-detached","oldOrNew":"Established","duration":"Leasehold","paon":"COACHMANS COTTAGE","saon":"","street":"","locality":"UNDERBARROW","townOrCity":"KENDAL","district":"SOUTH LAKELAND","county":"CUMBRIA","ppdCategoryType":"Standard","recordStatus":"Addition","latitude":54.3188,"longitude":-2.80862,"postcodeStart":"LA8 8","postcode":["LA8","8HF"]}
{"price":73000,"dateOfTransfer":"1999-07-28T00:00:00","postcodeFull":"LA8 8PR","propertyType":"Terraced","oldOrNew":"Established","duration":"Freehold","paon":"4","saon":"","street":"NELSON SQUARE","locality":"LEVENS","townOrCity":"KENDAL","district":"SOUTH LAKELAND","county":"CUMBRIA","ppdCategoryType":"Standard","recordStatus":"Addition","latitude":54.264341,"longitude":-2.79157,"postcodeStart":"LA8 8","postcode":["LA8","8PR"]}
{"price":79950,"dateOfTransfer":"1999-10-01T00:00:00","postcodeFull":"LA8 8NF","propertyType":"Semi-detached","oldOrNew":"Established","duration":"Freehold","paon":"32","saon":"","street":"GREENGATE","locality":"LEVENS","townOrCity":"KENDAL","district":"SOUTH LAKELAND","county":"CUMBRIA","ppdCategoryType":"Standard","recordStatus":"Addition","latitude":54.266982,"longitude":-2.785018,"postcodeStart":"LA8 8","postcode":["LA8","8NF"]}
{"price":129950,"dateOfTransfer":"1999-06-11T00:00:00","postcodeFull":"LA8 8HX","propertyType":"Detached","oldOrNew":"Established","duration":"Freehold","paon":"DAMSON COTTAGE","saon":"","street":"","locality":"CROSTHWAITE","townOrCity":"KENDAL","district":"SOUTH LAKELAND","county":"CUMBRIA","ppdCategoryType":"Standard","recordStatus":"Addition","latitude":54.31633,"longitude":-2.866555,"postcodeStart":"LA8 8","postcode":["LA8","8HX"]}
{"price":85000,"dateOfTransfer":"1999-10-22T00:00:00","postcodeFull":"LA8 8NF","propertyType":"Detached","oldOrNew":"Established","duration":"Freehold","paon":"21","saon":"","street":"GREENGATE","locality":"LEVENS","townOrCity":"KENDAL","district":"SOUTH LAKELAND","county":"CUMBRIA","ppdCategoryType":"Standard","recordStatus":"Addition","latitude":54.266982,"longitude":-2.785018,"postcodeStart":"LA8 8","postcode":["LA8","8NF"]}
{"price":110000,"dateOfTransfer":"1999-11-12T00:00:00","postcodeFull":"LA8 8PQ","propertyType":"Semi-detached","oldOrNew":"Established","duration":"Freehold","paon":"APPLE TREE COTTAGE","saon":"","street":"","locality":"LEVENS","townOrCity":"KENDAL","district":"SOUTH LAKELAND","county":"CUMBRIA","ppdCategoryType":"Standard","recordStatus":"Addition","latitude":54.269959,"longitude":-2.790127,"postcodeStart":"LA8 8","postcode":["LA8","8PQ"]}
{"price":82500,"dateOfTransfer":"1999-04-30T00:00:00","postcodeFull":"LA8 8LA","propertyType":"Terraced","oldOrNew":"Established","duration":"Freehold","paon":"ROSE COTTAGE","saon":"","street":"","locality":"CROOK","townOrCity":"KENDAL","district":"SOUTH LAKELAND","county":"CUMBRIA","ppdCategoryType":"Standard","recordStatus":"Addition","latitude":54.348971,"longitude":-2.824442,"postcodeStart":"LA8 8","postcode":["LA8","8LA"]}
{"price":57500,"dateOfTransfer":"1999-06-25T00:00:00","postcodeFull":"LA8 8PY","propertyType":"Semi-detached","oldOrNew":"Established","duration":"Freehold","paon":"6","saon":"","street":"VICARAGE ROAD","locality":"LEVENS","townOrCity":"KENDAL","district":"SOUTH LAKELAND","county":"CUMBRIA","ppdCategoryType":"Standard","recordStatus":"Addition","latitude":54.268131,"longitude":-2.786591,"postcodeStart":"LA8 8","postcode":["LA8","8PY"]}
{"price":35000,"dateOfTransfer":"1999-05-12T00:00:00","postcodeFull":"LA8 8NB","propertyType":"Terraced","oldOrNew":"Established","duration":"Leasehold","paon":"ACORN COTTAGE","saon":"","street":"MAIN STREET","locality":"LEVENS","townOrCity":"KENDAL","district":"SOUTH LAKELAND","county":"CUMBRIA","ppdCategoryType":"Standard","recordStatus":"Addition","latitude":54.268656,"longitude":-2.78743,"postcodeStart":"LA8 8","postcode":["LA8","8NB"]}
{"price":85000,"dateOfTransfer":"1999-10-01T00:00:00","postcodeFull":"LA8 8NE","propertyType":"Semi-detached","oldOrNew":"Established","duration":"Freehold","paon":"VICTORIA COTTAGE","saon":"","street":"","locality":"LEVENS","townOrCity":"KENDAL","district":"SOUTH LAKELAND","county":"CUMBRIA","ppdCategoryType":"Standard","recordStatus":"Addition","latitude":54.267224,"longitude":-2.786528,"postcodeStart":"LA8 8","postcode":["LA8","8NE"]}
{"price":176950,"dateOfTransfer":"1999-11-12T00:00:00","postcodeFull":"LA8 8LT","propertyType":"Detached","oldOrNew":"New build","duration":"Freehold","paon":"4","saon":"","street":"WHITBARROW GROVE","locality":"LEVENS","townOrCity":"KENDAL","district":"SOUTH LAKELAND","county":"CUMBRIA","ppdCategoryType":"Standard","recordStatus":"Addition","latitude":54.268692,"longitude":-2.790164,"postcodeStart":"LA8 8","postcode":["LA8","8LT"]}
{"price":162500,"dateOfTransfer":"1999-06-29T00:00:00","postcodeFull":"LA8 8NU","propertyType":"Detached","oldOrNew":"Established","duration":"Freehold","paon":"ERQUY","saon":"","street":"BRIGSTEER ROAD","locality":"LEVENS","townOrCity":"KENDAL","district":"SOUTH LAKELAND","county":"CUMBRIA","ppdCategoryType":"Standard","recordStatus":"Addition","latitude":54.273148,"longitude":-2.786287,"postcodeStart":"LA8 8","postcode":["LA8","8NU"]}
{"price":143750,"dateOfTransfer":"1999-07-09T00:00:00","postcodeFull":"LA8 8AW","propertyType":"Detached","oldOrNew":"Established","duration":"Freehold","paon":"9","saon":"","street":"CROW WOOD","locality":"BRIGSTEER","townOrCity":"KENDAL","district":"SOUTH LAKELAND","county":"CUMBRIA","ppdCategoryType":"Standard","recordStatus":"Addition","latitude":54.29908,"longitude":-2.799367,"postcodeStart":"LA8 8","postcode":["LA8","8AW"]}
{"price":93000,"dateOfTransfer":"1999-05-03T00:00:00","postcodeFull":"LA8 8DX","propertyType":"Terraced","oldOrNew":"Established","duration":"Freehold","paon":"3","saon":"","street":"WOODSIDE COTTAGES","locality":"HEAVES","townOrCity":"KENDAL","district":"SOUTH LAKELAND","county":"CUMBRIA","ppdCategoryType":"Standard","recordStatus":"Addition","latitude":54.274913,"longitude":-2.771747,"postcodeStart":"LA8 8","postcode":["LA8","8DX"]}
{"price":107000,"dateOfTransfer":"1999-04-01T00:00:00","postcodeFull":"LA8 8NF","propertyType":"Detached","oldOrNew":"Established","duration":"Freehold","paon":"17","saon":"","street":"GREENGATE","locality":"LEVENS","townOrCity":"KENDAL","district":"SOUTH LAKELAND","county":"CUMBRIA","ppdCategoryType":"Standard","recordStatus":"Addition","latitude":54.266982,"longitude":-2.785018,"postcodeStart":"LA8 8","postcode":["LA8","8NF"]}
{"price":53950,"dateOfTransfer":"1999-09-05T00:00:00","postcodeFull":"LA8 8NS","propertyType":"Flat/Maisonette/Townhouse","oldOrNew":"Established","duration":"Freehold","paon":"9","saon":"","street":"HYNING COURT","locality":"LEVENS","townOrCity":"KENDAL","district":"SOUTH LAKELAND","county":"CUMBRIA","ppdCategoryType":"Standard","recordStatus":"Addition","latitude":54.269785,"longitude":-2.786561,"postcodeStart":"LA8 8","postcode":["LA8","8NS"]}
{"price":122000,"dateOfTransfer":"1999-10-29T00:00:00","postcodeFull":"LA8 8HL","propertyType":"Detached","oldOrNew":"Established","duration":"Freehold","paon":"THRACE BUNGALOW","saon":"","street":"BROOKFIELD","locality":"UNDERBARROW","townOrCity":"KENDAL","district":"SOUTH LAKELAND","county":"CUMBRIA","ppdCategoryType":"Standard","recordStatus":"Addition","latitude":54.321419,"longitude":-2.819939,"postcodeStart":"LA8 8","postcode":["LA8","8HL"]}
{"price":80000,"dateOfTransfer":"1999-11-19T00:00:00","postcodeFull":"LA8 8HL","propertyType":"Terraced","oldOrNew":"Established","duration":"Freehold","paon":"4","saon":"","street":"BROOKFIELD","locality":"UNDERBARROW","townOrCity":"KENDAL","district":"SOUTH LAKELAND","county":"CUMBRIA","ppdCategoryType":"Standard","recordStatus":"Addition","latitude":54.321419,"longitude":-2.819939,"postcodeStart":"LA8 8","postcode":["LA8","8HL"]}
{"price":131000,"dateOfTransfer":"1999-10-15T00:00:00","postcodeFull":"LA8 8NX","propertyType":"Semi-detached","oldOrNew":"Established","duration":"Freehold","paon":"INGLEWOOD BARN","saon":"","street":"","locality":"LEVENS","townOrCity":"KENDAL","district":"SOUTH LAKELAND","county":"CUMBRIA","ppdCategoryType":"Standard","recordStatus":"Addition","latitude":54.276494,"longitude":-2.789975,"postcodeStart":"LA8 8","postcode":["LA8","8NX"]}
{"price":250000,"dateOfTransfer":"1999-07-22T00:00:00","postcodeFull":"LA8 8HJ","propertyType":"Detached","oldOrNew":"Established","duration":"Freehold","paon":"CHAPEL SPRINGS","saon":"","street":"","locality":"UNDERBARROW","townOrCity":"KENDAL","district":"SOUTH LAKELAND","county":"CUMBRIA","ppdCategoryType":"Standard","recordStatus":"Addition","latitude":54.325851,"longitude":-2.825163,"postcodeStart":"LA8 8","postcode":["LA8","8HJ"]}
{"price":160000,"dateOfTransfer":"1999-08-11T00:00:00","postcodeFull":"LA8 8NL","propertyType":"Semi-detached","oldOrNew":"Established","duration":"Freehold","paon":"HOLLY BANK","saon":"","street":"","locality":"LEVENS","townOrCity":"KENDAL","district":"SOUTH LAKELAND","county":"CUMBRIA","ppdCategoryType":"Standard","recordStatus":"Addition","latitude":54.268947,"longitude":-2.788096,"postcodeStart":"LA8 8","postcode":["LA8","8NL"]}
{"price":100000,"dateOfTransfer":"1999-11-11T00:00:00","postcodeFull":"LA8 8PB","propertyType":"Semi-detached","oldOrNew":"Established","duration":"Freehold","paon":"THE ORCHARD","saon":"","street":"","locality":"LEVENS","townOrCity":"KENDAL","district":"SOUTH LAKELAND","county":"CUMBRIA","ppdCategoryType":"Standard","recordStatus":"Addition","latitude":54.270027,"longitude":-2.789406,"postcodeStart":"LA8 8","postcode":["LA8","8PB"]}
{"price":92000,"dateOfTransfer":"1999-03-29T00:00:00","postcodeFull":"LA8 8EJ","propertyType":"Detached","oldOrNew":"Established","duration":"Freehold","paon":"THE BEECHES","saon":"","street":"","locality":"LEVENS","townOrCity":"KENDAL","district":"SOUTH LAKELAND","county":"CUMBRIA","ppdCategoryType":"Standard","recordStatus":"Addition","latitude":54.261531,"longitude":-2.804596,"postcodeStart":"LA8 8","postcode":["LA8","8EJ"]}
{"price":146000,"dateOfTransfer":"1999-07-22T00:00:00","postcodeFull":"LA8 8PP","propertyType":"Detached","oldOrNew":"Established","duration":"Freehold","paon":"FIELD COTTAGE","saon":"","street":"CHURCH ROAD","locality":"LEVENS","townOrCity":"KENDAL","district":"SOUTH LAKELAND","county":"CUMBRIA","ppdCategoryType":"Standard","recordStatus":"Addition","latitude":54.263759,"longitude":-2.792602,"postcodeStart":"LA8 8","postcode":["LA8","8PP"]}
{"price":127000,"dateOfTransfer":"1999-09-21T00:00:00","postcodeFull":"LA8 8JB","propertyType":"Terraced","oldOrNew":"Established","duration":"Freehold","paon":"HILL COTTAGE","saon":"","street":"","locality":"CROSTHWAITE","townOrCity":"KENDAL","district":"SOUTH LAKELAND","county":"CUMBRIA","ppdCategoryType":"Standard","recordStatus":"Addition","latitude":54.317401,"longitude":-2.88126,"postcodeStart":"LA8 8","postcode":["LA8","8JB"]}
{"price":74000,"dateOfTransfer":"1999-03-12T00:00:00","postcodeFull":"LA8 8NF","propertyType":"Semi-detached","oldOrNew":"Established","duration":"Freehold","paon":"38","saon":"","street":"GREENGATE","locality":"LEVENS","townOrCity":"KENDAL","district":"SOUTH LAKELAND","county":"CUMBRIA","ppdCategoryType":"Standard","recordStatus":"Addition","latitude":54.266982,"longitude":-2.785018,"postcodeStart":"LA8 8","postcode":["LA8","8NF"]}
{"price":180000,"dateOfTransfer":"1999-05-27T00:00:00","postcodeFull":"LA8 8HJ","propertyType":"Detached","oldOrNew":"Established","duration":"Freehold","paon":"ROCKCLIFFE","saon":"","street":"","locality":"UNDERBARROW","townOrCity":"KENDAL","district":"SOUTH LAKELAND","county":"CUMBRIA","ppdCategoryType":"Standard","recordStatus":"Addition","latitude":54.325851,"longitude":-2.825163,"postcodeStart":"LA8 8","postcode":["LA8","8HJ"]}
{"price":163000,"dateOfTransfer":"1999-04-19T00:00:00","postcodeFull":"LA8 8HX","propertyType":"Detached","oldOrNew":"Established","duration":"Freehold","paon":"SPINDLEWOOD","saon":"","street":"","locality":"CROSTHWAITE","townOrCity":"KENDAL","district":"SOUTH LAKELAND","county":"CUMBRIA","ppdCategoryType":"Standard","recordStatus":"Addition","latitude":54.31633,"longitude":-2.866555,"postcodeStart":"LA8 8","postcode":["LA8","8HX"]}
{"price":210000,"dateOfTransfer":"1999-08-27T00:00:00","postcodeFull":"LA8 8LT","propertyType":"Detached","oldOrNew":"New build","duration":"Freehold","paon":"5","saon":"","street":"WHITBARROW GROVE","locality":"LEVENS","townOrCity":"KENDAL","district":"SOUTH LAKELAND","county":"CUMBRIA","ppdCategoryType":"Standard","recordStatus":"Addition","latitude":54.268692,"longitude":-2.790164,"postcodeStart":"LA8 8","postcode":["LA8","8LT"]}
{"price":185500,"dateOfTransfer":"1999-09-24T00:00:00","postcodeFull":"LA8 8HX","propertyType":"Detached","oldOrNew":"Established","duration":"Freehold","paon":"WOOD YEAT","saon":"","street":"","locality":"CROSTHWAITE","townOrCity":"KENDAL","district":"SOUTH LAKELAND","county":"CUMBRIA","ppdCategoryType":"Standard","recordStatus":"Addition","latitude":54.31633,"longitude":-2.866555,"postcodeStart":"LA8 8","postcode":["LA8","8HX"]}
{"price":195000,"dateOfTransfer":"1999-07-22T00:00:00","postcodeFull":"LA8 8AB","propertyType":"Detached","oldOrNew":"Established","duration":"Freehold","paon":"HAWESMEAD","saon":"","street":"","locality":"HELSINGTON","townOrCity":"KENDAL","district":"SOUTH LAKELAND","county":"CUMBRIA","ppdCategoryType":"Standard","recordStatus":"Addition","latitude":54.296835,"longitude":-2.755885,"postcodeStart":"LA8 8","postcode":["LA8","8AB"]}
{"price":54500,"dateOfTransfer":"1999-01-11T00:00:00","postcodeFull":"LA8 8PH","propertyType":"Semi-detached","oldOrNew":"Established","duration":"Freehold","paon":"2","saon":"","street":"ROSE COTTAGES","locality":"LEVENS","townOrCity":"KENDAL","district":"SOUTH LAKELAND","county":"CUMBRIA","ppdCategoryType":"Standard","recordStatus":"Addition","latitude":54.268108,"longitude":-2.791381,"postcodeStart":"LA8 8","postcode":["LA8","8PH"]}
{"price":70000,"dateOfTransfer":"1999-01-15T00:00:00","postcodeFull":"LA8 8NZ","propertyType":"Detached","oldOrNew":"Established","duration":"Freehold","paon":"PLUM TREE BARN","saon":"","street":"","locality":"LEVENS","townOrCity":"KENDAL","district":"SOUTH LAKELAND","county":"CUMBRIA","ppdCategoryType":"Standard","recordStatus":"Addition","latitude":54.275475,"longitude":-2.790265,"postcodeStart":"LA8 8","postcode":["LA8","8NZ"]}
{"price":69950,"dateOfTransfer":"1999-12-10T00:00:00","postcodeFull":"LA8 8NH","propertyType":"Semi-detached","oldOrNew":"Established","duration":"Freehold","paon":"18","saon":"","street":"THE GREEN","locality":"LEVENS","townOrCity":"KENDAL","district":"SOUTH LAKELAND","county":"CUMBRIA","ppdCategoryType":"Standard","recordStatus":"Addition","latitude":54.267795,"longitude":-2.788396,"postcodeStart":"LA8 8","postcode":["LA8","8NH"]}
{"price":105000,"dateOfTransfer":"1999-03-12T00:00:00","postcodeFull":"LA8 8PN","propertyType":"Semi-detached","oldOrNew":"Established","duration":"Freehold","paon":"ASH LEA","saon":"","street":"","locality":"LEVENS","townOrCity":"KENDAL","district":"SOUTH LAKELAND","county":"CUMBRIA","ppdCategoryType":"Standard","recordStatus":"Addition","latitude":54.263935,"longitude":-2.793155,"postcodeStart":"LA8 8","postcode":["LA8","8PN"]}
{"price":104000,"dateOfTransfer":"1999-05-20T00:00:00","postcodeFull":"LA8 8BL","propertyType":"Detached","oldOrNew":"Established","duration":"Freehold","paon":"LOW MILL BARN","saon":"","street":"","locality":"UNDERBARROW","townOrCity":"KENDAL","district":"SOUTH LAKELAND","county":"CUMBRIA","ppdCategoryType":"Standard","recordStatus":"Addition","latitude":54.316595,"longitude":-2.823626,"postcodeStart":"LA8 8","postcode":["LA8","8BL"]}
{"price":77000,"dateOfTransfer":"1999-09-24T00:00:00","postcodeFull":"LA8 8NG","propertyType":"Flat/Maisonette/Townhouse","oldOrNew":"Established","duration":"Leasehold","paon":"16","saon":"","street":"BEATHWAITE GARDENS","locality":"LEVENS","townOrCity":"KENDAL","district":"SOUTH LAKELAND","county":"CUMBRIA","ppdCategoryType":"Standard","recordStatus":"Addition","latitude":54.268726,"longitude":-2.788859,"postcodeStart":"LA8 8","postcode":["LA8","8NG"]}
{"price":65000,"dateOfTransfer":"1999-08-26T00:00:00","postcodeFull":"LA8 8PY","propertyType":"Semi-detached","oldOrNew":"Established","duration":"Freehold","paon":"3","saon":"","street":"VICARAGE ROAD","locality":"LEVENS","townOrCity":"KENDAL","district":"SOUTH LAKELAND","county":"CUMBRIA","ppdCategoryType":"Standard","recordStatus":"Addition","latitude":54.268131,"longitude":-2.786591,"postcodeStart":"LA8 8","postcode":["LA8","8PY"]}
{"price":94000,"dateOfTransfer":"1999-09-20T00:00:00","postcodeFull":"LA8 8HQ","propertyType":"Detached","oldOrNew":"Established","duration":"Freehold","paon":"SILVER LEA","saon":"","street":"","locality":"UNDERBARROW","townOrCity":"KENDAL","district":"SOUTH LAKELAND","county":"CUMBRIA","ppdCategoryType":"Standard","recordStatus":"Addition","latitude":54.3227,"longitude":-2.820704,"postcodeStart":"LA8 8","postcode":["LA8","8HQ"]}
