{"price":55500,"dateOfTransfer":"1995-05-05T00:00:00","postcodeFull":"LS24 8AG","propertyType":"Semi-detached","oldOrNew":"Established","duration":"Freehold","paon":"19","saon":"","street":"OXTON LANE","locality":"TADCASTER","townOrCity":"TADCASTER","district":"YORK","county":"YORK","ppdCategoryType":"Standard","recordStatus":"Addition","latitude":53.885892,"longitude":-1.255723,"postcodeStart":"LS24 8","postcode":["LS24","8AG"]}
{"price":44950,"dateOfTransfer":"1995-06-30T00:00:00","postcodeFull":"LS24 8AQ","propertyType":"Semi-detached","oldOrNew":"Established","duration":"Freehold","paon":"32","saon":"","street":"GRANGE CRESCENT","locality":"TADCASTER","townOrCity":"TADCASTER","district":"SELBY","county":"NORTH YORKSHIRE","ppdCategoryType":"Standard","recordStatus":"Addition","latitude":53.885593,"longitude":-1.256854,"postcodeStart":"LS24 8","postcode":["LS24","8AQ"]}
{"price":44000,"dateOfTransfer":"1995-11-30T00:00:00","postcodeFull":"LS24 8AG","propertyType":"Semi-detached","oldOrNew":"Established","duration":"Freehold","paon":"23","saon":"","street":"OXTON LANE","locality":"TADCASTER","townOrCity":"TADCASTER","district":"SELBY","county":"NORTH YORKSHIRE","ppdCategoryType":"Standard","recordStatus":"Addition","latitude":53.885892,"longitude":-1.255723,"postcodeStart":"LS24 8","postcode":["LS24","8AG"]}
{"price":78000,"dateOfTransfer":"1995-09-01T00:00:00","postcodeFull":"LS24 8AF","propertyType":"Detached","oldOrNew":"Established","duration":"Freehold","paon":"50","saon":"","street":"YORK ROAD","locality":"TADCASTER","townOrCity":"TADCASTER","district":"SELBY","county":"NORTH YORKSHIRE","ppdCategoryType":"Standard","recordStatus":"Addition","latitude":53.887447,"longitude":-1.255832,"postcodeStart":"LS24 8","postcode":["LS24","8AF"]}
{"price":112500,"dateOfTransfer":"1995-10-19T00:00:00","postcodeFull":"LS24 8BQ","propertyType":"Detached","oldOrNew":"Established","duration":"Freehold","paon":"THE COTTAGE","saon":"","street":"MAIN STREET","locality":"WIGHILL","townOrCity":"TADCASTER","district":"HARROGATE","county":"NORTH YORKSHIRE","ppdCategoryType":"Standard","recordStatus":"Addition","latitude":53.916046,"longitude":-1.276197,"postcodeStart":"LS24 8","postcode":["LS24","8BQ"]}
{"price":35000,"dateOfTransfer":"1995-11-30T00:00:00","postcodeFull":"LS24 8AD","propertyType":"Terraced","oldOrNew":"Established","duration":"Freehold","paon":"8","saon":"","street":"SPRING HILL","locality":"TADCASTER","townOrCity":"TADCASTER","district":"SELBY","county":"NORTH YORKSHIRE","ppdCategoryType":"Standard","recordStatus":"Addition","latitude":53.886373,"longitude":-1.258093,"postcodeStart":"LS24 8","postcode":["LS24","8AD"]}
{"price":41000,"dateOfTransfer":"1995-10-27T00:00:00","postcodeFull":"LS24 8AE","propertyType":"Terraced","oldOrNew":"Established","duration":"Freehold","paon":"41","saon":"","street":"YORK ROAD","locality":"TADCASTER","townOrCity":"TADCASTER","district":"SELBY","county":"NORTH YORKSHIRE","ppdCategoryType":"Standard","recordStatus":"Addition","latitude":53.887839,"longitude":-1.255216,"postcodeStart":"LS24 8","postcode":["LS24","8AE"]}
{"price":49450,"dateOfTransfer":"1995-04-12T00:00:00","postcodeFull":"LS24 8DP","propertyType":"Flat/Maisonette/Townhouse","oldOrNew":"Established","duration":"Leasehold","paon":"BEECHGROVE HOUSE","saon":"FLAT 3","street":"OUSTON LANE","locality":"TADCASTER","townOrCity":"TADCASTER","district":"SELBY","county":"NORTH YORKSHIRE","ppdCategoryType":"Standard","recordStatus":"Addition","latitude":53.883537,"longitude":-1.25438,"postcodeStart":"LS24 8","postcode":["LS24","8DP"]}
{"price":50000,"dateOfTransfer":"1995-04-28T00:00:00","postcodeFull":"LS24 8DW","propertyType":"Terraced","oldOrNew":"Established","duration":"Freehold","paon":"52","saon":"","street":"PARKLAND DRIVE","locality":"TADCASTER","townOrCity":"TADCASTER","district":"SELBY","county":"NORTH YORKSHIRE","ppdCategoryType":"Standard","recordStatus":"Addition","latitude":53.888998,"longitude":-1.253796,"postcodeStart":"LS24 8","postcode":["LS24","8DW"]}
{"price":51000,"dateOfTransfer":"1995-06-30T00:00:00","postcodeFull":"LS24 8DW","propertyType":"Semi-detached","oldOrNew":"Established","duration":"Freehold","paon":"12","saon":"","street":"PARKLAND DRIVE","locality":"TADCASTER","townOrCity":"TADCASTER","district":"SELBY","county":"NORTH YORKSHIRE","ppdCategoryType":"Standard","recordStatus":"Addition","latitude":53.888998,"longitude":-1.253796,"postcodeStart":"LS24 8","postcode":["LS24","8DW"]}
{"price":40000,"dateOfTransfer":"1995-11-30T00:00:00","postcodeFull":"LS24 8AR","propertyType":"Terraced","oldOrNew":"Established","duration":"Freehold","paon":"77","saon":"","street":"YORK ROAD","locality":"TADCASTER","townOrCity":"TADCASTER","district":"SELBY","county":"NORTH YORKSHIRE","ppdCategoryType":"Standard","recordStatus":"Addition","latitude":53.888131,"longitude":-1.253081,"postcodeStart":"LS24 8","postcode":["LS24","8AR"]}
{"price":68000,"dateOfTransfer":"1995-12-15T00:00:00","postcodeFull":"LS24 8LY","propertyType":"Detached","oldOrNew":"New build","duration":"Freehold","paon":"3","saon":"","street":"MEADOW GARTH","locality":"TADCASTER","townOrCity":"TADCASTER","district":"SELBY","county":"NORTH YORKSHIRE","ppdCategoryType":"Standard","recordStatus":"Addition","latitude":53.889636,"longitude":-1.253709,"postcodeStart":"LS24 8","postcode":["LS24","8LY"]}
{"price":7416,"dateOfTransfer":"1995-04-03T00:00:00","postcodeFull":"LS24 8AQ","propertyType":"Semi-detached","oldOrNew":"Established","duration":"Freehold","paon":"3","saon":"","street":"GRANGE CRESCENT","locality":"TADCASTER","townOrCity":"TADCASTER","district":"SELBY","county":"NORTH YORKSHIRE","ppdCategoryType":"Standard","recordStatus":"Addition","latitude":53.885593,"longitude":-1.256854,"postcodeStart":"LS24 8","postcode":["LS24","8AQ"]}
{"price":92000,"dateOfTransfer":"1995-07-31T00:00:00","postcodeFull":"LS24 8HY","propertyType":"Detached","oldOrNew":"Established","duration":"Freehold","paon":"14","saon":"","street":"PROSPECT COURT","locality":"TADCASTER","townOrCity":"TADCASTER","district":"SELBY","county":"NORTH YORKSHIRE","ppdCategoryType":"Standard","recordStatus":"Addition","latitude":53.889479,"longitude":-1.255887,"postcodeStart":"LS24 8","postcode":["LS24","8HY"]}
{"price":49300,"dateOfTransfer":"1995-05-31T00:00:00","postcodeFull":"LS24 8JX","propertyType":"Semi-detached","oldOrNew":"Established","duration":"Freehold","paon":"25","saon":"","street":"EASTFIELD CLOSE","locality":"TADCASTER","townOrCity":"TADCASTER","district":"SELBY","county":"NORTH YORKSHIRE","ppdCategoryType":"Standard","recordStatus":"Addition","latitude":53.890486,"longitude":-1.245964,"postcodeStart":"LS24 8","postcode":["LS24","8JX"]}
{"price":37000,"dateOfTransfer":"1995-04-07T00:00:00","postcodeFull":"LS24 8DP","propertyType":"Flat/Maisonette/Townhouse","oldOrNew":"Established","duration":"Leasehold","paon":"BEECHGROVE HOUSE","saon":"FLAT 2","street":"OUSTON LANE","locality":"TADCASTER","townOrCity":"TADCASTER","district":"SELBY","county":"NORTH YORKSHIRE","ppdCategoryType":"Standard","recordStatus":"Addition","latitude":53.883537,"longitude":-1.25438,"postcodeStart":"LS24 8","postcode":["LS24","8DP"]}
{"price":70000,"dateOfTransfer":"1995-03-17T00:00:00","postcodeFull":"LS24 8BR","propertyType":"Detached","oldOrNew":"Established","duration":"Freehold","paon":"THE STONE GRANARY","saon":"","street":"","locality":"WIGHILL PARK","townOrCity":"TADCASTER","district":"HARROGATE","county":"NORTH YORKSHIRE","ppdCategoryType":"Standard","recordStatus":"Addition","latitude":53.9263,"longitude":-1.292634,"postcodeStart":"LS24 8","postcode":["LS24","8BR"]}
{"price":44950,"dateOfTransfer":"1995-10-12T00:00:00","postcodeFull":"LS24 8EY","propertyType":"Semi-detached","oldOrNew":"New build","duration":"Freehold","paon":"61","saon":"","street":"WIGHILL LANE","locality":"TADCASTER","townOrCity":"TADCASTER","district":"YORK","county":"YORK","ppdCategoryType":"Standard","recordStatus":"Addition","latitude":53.888056,"longitude":-1.259777,"postcodeStart":"LS24 8","postcode":["LS24","8EY"]}
{"price":59950,"dateOfTransfer":"1995-01-11T00:00:00","postcodeFull":"LS24 8HP","propertyType":"Detached","oldOrNew":"Established","duration":"Freehold","paon":"15","saon":"","street":"MANOR ROAD","locality":"TADCASTER","townOrCity":"TADCASTER","district":"SELBY","county":"NORTH YORKSHIRE","ppdCategoryType":"Standard","recordStatus":"Addition","latitude":53.887742,"longitude":-1.257049,"postcodeStart":"LS24 8","postcode":["LS24","8HP"]}
{"price":58000,"dateOfTransfer":"1995-06-16T00:00:00","postcodeFull":"LS24 8NA","propertyType":"Semi-detached","oldOrNew":"Established","duration":"Freehold","paon":"14","saon":"","street":"MEADOW WAY","locality":"TADCASTER","townOrCity":"TADCASTER","district":"SELBY","county":"NORTH YORKSHIRE","ppdCategoryType":"Standard","recordStatus":"Addition","latitude":53.888664,"longitude":-1.253467,"postcodeStart":"LS24 8","postcode":["LS24","8NA"]}
{"price":37000,"dateOfTransfer":"1995-06-30T00:00:00","postcodeFull":"LS24 8AP","propertyType":"Terraced","oldOrNew":"Established","duration":"Freehold","paon":"4","saon":"","street":"MAYFIELD TERRACE","locality":"TADCASTER","townOrCity":"TADCASTER","district":"SELBY","county":"NORTH YORKSHIRE","ppdCategoryType":"Standard","recordStatus":"Addition","latitude":53.888287,"longitude":-1.253611,"postcodeStart":"LS24 8","postcode":["LS24","8AP"]}
{"price":44000,"dateOfTransfer":"1995-03-31T00:00:00","postcodeFull":"LS24 8AQ","propertyType":"Semi-detached","oldOrNew":"Established","duration":"Freehold","paon":"32","saon":"","street":"GRANGE CRESCENT","locality":"TADCASTER","townOrCity":"TADCASTER","district":"SELBY","county":"NORTH YORKSHIRE","ppdCategoryType":"Standard","recordStatus":"Addition","latitude":53.885593,"longitude":-1.256854,"postcodeStart":"LS24 8","postcode":["LS24","8AQ"]}
{"price":42000,"dateOfTransfer":"1995-04-12T00:00:00","postcodeFull":"LS24 8AP","propertyType":"Semi-detached","oldOrNew":"Established","duration":"Freehold","paon":"13","saon":"","street":"MAYFIELD TERRACE","locality":"TADCASTER","townOrCity":"TADCASTER","district":"SELBY","county":"NORTH YORKSHIRE","ppdCategoryType":"Standard","recordStatus":"Addition","latitude":53.888287,"longitude":-1.253611,"postcodeStart":"LS24 8","postcode":["LS24","8AP"]}
{"price":40500,"dateOfTransfer":"1995-03-31T00:00:00","postcodeFull":"LS24 8NA","propertyType":"Terraced","oldOrNew":"Established","duration":"Freehold","paon":"7","saon":"","street":"MEADOW WAY","locality":"TADCASTER","townOrCity":"TADCASTER","district":"SELBY","county":"NORTH YORKSHIRE","ppdCategoryType":"Standard","recordStatus":"Addition","latitude":53.888664,"longitude":-1.253467,"postcodeStart":"LS24 8","postcode":["LS24","8NA"]}
{"price":87500,"dateOfTransfer":"1995-12-06T00:00:00","postcodeFull":"LS24 8EG","propertyType":"Detached","oldOrNew":"Established","duration":"Freehold","paon":"STEETON THATCHED COTTAGE","saon":"","street":"YORK ROAD","locality":"STEETON","townOrCity":"TADCASTER","district":"SELBY","county":"NORTH YORKSHIRE","ppdCategoryType":"Standard","recordStatus":"Addition","latitude":53.899521,"longitude":-1.200342,"postcodeStart":"LS24 8","postcode":["LS24","8EG"]}
{"price":38000,"dateOfTransfer":"1995-05-05T00:00:00","postcodeFull":"LS24 8AS","propertyType":"Terraced","oldOrNew":"Established","duration":"Freehold","paon":"82","saon":"","street":"YORK ROAD","locality":"TADCASTER","townOrCity":"TADCASTER","district":"SELBY","county":"NORTH YORKSHIRE","ppdCategoryType":"Standard","recordStatus":"Addition","latitude":53.887861,"longitude":-1.252979,"postcodeStart":"LS24 8","postcode":["LS24","8AS"]}
{"price":36250,"dateOfTransfer":"1995-11-10T00:00:00","postcodeFull":"LS24 8AX","propertyType":"Semi-detached","oldOrNew":"Established","duration":"Freehold","paon":"38","saon":"","street":"AUSTER BANK ROAD","locality":"TADCASTER","townOrCity":"TADCASTER","district":"SELBY","county":"NORTH YORKSHIRE","ppdCategoryType":"Standard","recordStatus":"Addition","latitude":53.889607,"longitude":-1.249038,"postcodeStart":"LS24 8","postcode":["LS24","8AX"]}
{"price":46000,"dateOfTransfer":"1995-07-21T00:00:00","postcodeFull":"LS24 8AQ","propertyType":"Semi-detached","oldOrNew":"Established","duration":"Freehold","paon":"19","saon":"","street":"GRANGE CRESCENT","locality":"TADCASTER","townOrCity":"TADCASTER","district":"SELBY","county":"NORTH YORKSHIRE","ppdCategoryType":"Standard","recordStatus":"Addition","latitude":53.885593,"longitude":-1.256854,"postcodeStart":"LS24 8","postcode":["LS24","8AQ"]}
{"price":50000,"dateOfTransfer":"1995-09-18T00:00:00","postcodeFull":"LS24 8DP","propertyType":"Detached","oldOrNew":"Established","duration":"Freehold","paon":"MEADOW VIEW APARTMENTS","saon":"3","street":"OUSTON LANE","locality":"TADCASTER","townOrCity":"TADCASTER","district":"SELBY","county":"NORTH YORKSHIRE","ppdCategoryType":"Standard","recordStatus":"Addition","latitude":53.883537,"longitude":-1.25438,"postcodeStart":"LS24 8","postcode":["LS24","8DP"]}
{"price":45000,"dateOfTransfer":"1995-12-19T00:00:00","postcodeFull":"LS24 8DW","propertyType":"Semi-detached","oldOrNew":"Established","duration":"Freehold","paon":"60","saon":"","street":"PARKLAND DRIVE","locality":"TADCASTER","townOrCity":"TADCASTER","district":"SELBY","county":"NORTH YORKSHIRE","ppdCategoryType":"Standard","recordStatus":"Addition","latitude":53.888998,"longitude":-1.253796,"postcodeStart":"LS24 8","postcode":["LS24","8DW"]}
{"price":82500,"dateOfTransfer":"1995-08-30T00:00:00","postcodeFull":"LS24 8HY","propertyType":"Detached","oldOrNew":"Established","duration":"Freehold","paon":"10","saon":"","street":"PROSPECT COURT","locality":"TADCASTER","townOrCity":"TADCASTER","district":"SELBY","county":"NORTH YORKSHIRE","ppdCategoryType":"Standard","recordStatus":"Addition","latitude":53.889479,"longitude":-1.255887,"postcodeStart":"LS24 8","postcode":["LS24","8HY"]}
{"price":66000,"dateOfTransfer":"1995-06-30T00:00:00","postcodeFull":"LS24 8JA","propertyType":"Semi-detached","oldOrNew":"Established","duration":"Freehold","paon":"3","saon":"","street":"HEATHER WAY","locality":"TADCASTER","townOrCity":"TADCASTER","district":"SELBY","county":"NORTH YORKSHIRE","ppdCategoryType":"Standard","recordStatus":"Addition","latitude":53.889086,"longitude":-1.262178,"postcodeStart":"LS24 8","postcode":["LS24","8JA"]}
{"price":108000,"dateOfTransfer":"1995-12-21T00:00:00","postcodeFull":"LS24 8JF","propertyType":"Detached","oldOrNew":"Established","duration":"Freehold","paon":"60","saon":"","street":"HUDSON WAY","locality":"TADCASTER","townOrCity":"TADCASTER","district":"SELBY","county":"NORTH YORKSHIRE","ppdCategoryType":"Standard","recordStatus":"Addition","latitude":53.890023,"longitude":-1.258084,"postcodeStart":"LS24 8","postcode":["LS24","8JF"]}
{"price":49000,"dateOfTransfer":"1995-06-02T00:00:00","postcodeFull":"LS24 8HT","propertyType":"Flat/Maisonette/Townhouse","oldOrNew":"Established","duration":"Leasehold","paon":"8","saon":"","street":"ROCKCLIFFE COURT","locality":"TADCASTER","townOrCity":"TADCASTER","district":"SELBY","county":"NORTH YORKSHIRE","ppdCategoryType":"Standard","recordStatus":"Addition","latitude":53.88707,"longitude":-1.25876,"postcodeStart":"LS24 8","postcode":["LS24","8HT"]}
{"price":91000,"dateOfTransfer":"1995-02-24T00:00:00","postcodeFull":"LS24 8HL","propertyType":"Detached","oldOrNew":"Established","duration":"Freehold","paon":"4","saon":"","street":"BEECH CLOSE","locality":"TADCASTER","townOrCity":"TADCASTER","district":"SELBY","county":"NORTH YORKSHIRE","ppdCategoryType":"Standard","recordStatus":"Addition","latitude":53.8839,"longitude":-1.254952,"postcodeStart":"LS24 8","postcode":["LS24","8HL"]}
{"price":53500,"dateOfTransfer":"1995-12-08T00:00:00","postcodeFull":"LS24 8AF","propertyType":"Semi-detached","oldOrNew":"Established","duration":"Freehold","paon":"38","saon":"","street":"YORK ROAD","locality":"TADCASTER","townOrCity":"TADCASTER","district":"SELBY","county":"NORTH YORKSHIRE","ppdCategoryType":"Standard","recordStatus":"Addition","latitude":53.887447,"longitude":-1.255832,"postcodeStart":"LS24 8","postcode":["LS24","8AF"]}
{"price":140000,"dateOfTransfer":"1995-10-31T00:00:00","postcodeFull":"LS24 8BS","propertyType":"Detached","oldOrNew":"Established","duration":"Freehold","paon":"OLD LODGE","saon":"","street":"THE AVENUE","locality":"WIGHILL PARK","townOrCity":"TADCASTER","district":"HARROGATE","county":"NORTH YORKSHIRE","ppdCategoryType":"Standard","recordStatus":"Addition","latitude":53.919782,"longitude":-1.277198,"postcodeStart":"LS24 8","postcode":["LS24","8BS"]}
{"price":60000,"dateOfTransfer":"1995-12-08T00:00:00","postcodeFull":"LS24 8AX","propertyType":"Semi-detached","oldOrNew":"Established","duration":"Freehold","paon":"6","saon":"","street":"AUSTER BANK ROAD","locality":"TADCASTER","townOrCity":"TADCASTER","district":"SELBY","county":"NORTH YORKSHIRE","ppdCategoryType":"Standard","recordStatus":"Addition","latitude":53.889607,"longitude":-1.249038,"postcodeStart":"LS24 8","postcode":["LS24","8AX"]}
{"price":77000,"dateOfTransfer":"1995-05-26T00:00:00","postcodeFull":"LS24 8HY","propertyType":"Detached","oldOrNew":"Established","duration":"Freehold","paon":"9","saon":"","street":"PROSPECT COURT","locality":"TADCASTER","townOrCity":"TADCASTER","district":"SELBY","county":"NORTH YORKSHIRE","ppdCategoryType":"Standard","recordStatus":"Addition","latitude":53.889479,"longitude":-1.255887,"postcodeStart":"LS24 8","postcode":["LS24","8HY"]}
{"price":55000,"dateOfTransfer":"1995-12-06T00:00:00","postcodeFull":"LS24 8BJ","propertyType":"Semi-detached","oldOrNew":"Established","duration":"Freehold","paon":"1","saon":"","street":"WALTON LODGE FARM COTTAGES","locality":"WIGHILL","townOrCity":"TADCASTER","district":"LEEDS","county":"WEST YORKSHIRE","ppdCategoryType":"Standard","recordStatus":"Addition","latitude":53.917261,"longitude":-1.308621,"postcodeStart":"LS24 8","postcode":["LS24","8BJ"]}
{"price":35000,"dateOfTransfer":"1995-08-09T00:00:00","postcodeFull":"LS24 8EQ","propertyType":"Semi-detached","oldOrNew":"Established","duration":"Freehold","paon":"FERNLEA COTTAGE","saon":"","street":"YORK ROAD","locality":"STEETON","townOrCity":"TADCASTER","district":"SELBY","county":"NORTH YORKSHIRE","ppdCategoryType":"Standard","recordStatus":"Addition","latitude":53.903682,"longitude":-1.19616,"postcodeStart":"LS24 8","postcode":["LS24","8EQ"]}
{"price":43000,"dateOfTransfer":"1995-06-30T00:00:00","postcodeFull":"LS24 8DP","propertyType":"Flat/Maisonette/Townhouse","oldOrNew":"Established","duration":"Leasehold","paon":"BEECHGROVE HOUSE","saon":"FLAT 1","street":"OUSTON LANE","locality":"TADCASTER","townOrCity":"TADCASTER","district":"SELBY","county":"NORTH YORKSHIRE","ppdCategoryType":"Standard","recordStatus":"Addition","latitude":53.883537,"longitude":-1.25438,"postcodeStart":"LS24 8","postcode":["LS24","8DP"]}
{"price":62500,"dateOfTransfer":"1995-04-12T00:00:00","postcodeFull":"LS24 8AF","propertyType":"Semi-detached","oldOrNew":"Established","duration":"Freehold","paon":"36","saon":"","street":"YORK ROAD","locality":"TADCASTER","townOrCity":"TADCASTER","district":"SELBY","county":"NORTH YORKSHIRE","ppdCategoryType":"Standard","recordStatus":"Addition","latitude":53.887447,"longitude":-1.255832,"postcodeStart":"LS24 8","postcode":["LS24","8AF"]}
{"price":54000,"dateOfTransfer":"1995-12-11T00:00:00","postcodeFull":"LS24 8NA","propertyType":"Semi-detached","oldOrNew":"Established","duration":"Freehold","paon":"3","saon":"","street":"MEADOW WAY","locality":"TADCASTER","townOrCity":"TADCASTER","district":"SELBY","county":"NORTH YORKSHIRE","ppdCategoryType":"Standard","recordStatus":"Addition","latitude":53.888664,"longitude":-1.253467,"postcodeStart":"LS24 8","postcode":["LS24","8NA"]}
{"price":45950,"dateOfTransfer":"1995-08-07T00:00:00","postcodeFull":"LS24 8AW","propertyType":"Terraced","oldOrNew":"Established","duration":"Freehold","paon":"16","saon":"","street":"SANDFIELD TERRACE","locality":"TADCASTER","townOrCity":"TADCASTER","district":"SELBY","county":"NORTH YORKSHIRE","ppdCategoryType":"Standard","recordStatus":"Addition","latitude":53.887244,"longitude":-1.253584,"postcodeStart":"LS24 8","postcode":["LS24","8AW"]}
{"price":40000,"dateOfTransfer":"1995-09-05T00:00:00","postcodeFull":"LS24 8AW","propertyType":"Terraced","oldOrNew":"Established","duration":"Freehold","paon":"19","saon":"","street":"SANDFIELD TERRACE","locality":"TADCASTER","townOrCity":"TADCASTER","district":"SELBY","county":"NORTH YORKSHIRE","ppdCategoryType":"Standard","recordStatus":"Addition","latitude":53.887244,"longitude":-1.253584,"postcodeStart":"LS24 8","postcode":["LS24","8AW"]}
{"price":66000,"dateOfTransfer":"1995-02-28T00:00:00","postcodeFull":"LS24 8HJ","propertyType":"Semi-detached","oldOrNew":"Established","duration":"Freehold","paon":"27","saon":"","street":"PROSPECT DRIVE","locality":"TADCASTER","townOrCity":"TADCASTER","district":"SELBY","county":"NORTH YORKSHIRE","ppdCategoryType":"Standard","recordStatus":"Addition","latitude":53.888791,"longitude":-1.25809,"postcodeStart":"LS24 8","postcode":["LS24","8HJ"]}
{"price":56000,"dateOfTransfer":"1995-04-24T00:00:00","postcodeFull":"LS24 8HY","propertyType":"Semi-detached","oldOrNew":"Established","duration":"Freehold","paon":"5","saon":"","street":"PROSPECT COURT","locality":"TADCASTER","townOrCity":"TADCASTER","district":"SELBY","county":"NORTH YORKSHIRE","ppdCategoryType":"Standard","recordStatus":"Addition","latitude":53.889479,"longitude":-1.255887,"postcodeStart":"LS24 8","postcode":["LS24","8HY"]}
{"price":59995,"dateOfTransfer":"1995-01-13T00:00:00","postcodeFull":"LS24 8DW","propertyType":"Detached","oldOrNew":"Established","duration":"Freehold","paon":"49","saon":"","street":"PARKLAND DRIVE","locality":"TADCASTER","townOrCity":"TADCASTER","district":"SELBY","county":"NORTH YORKSHIRE","ppdCategoryType":"Standard","recordStatus":"Addition","latitude":53.888998,"longitude":-1.253796,"postcodeStart":"LS24 8","postcode":["LS24","8DW"]}
{"price":42500,"dateOfTransfer":"1996-06-21T00:00:00","postcodeFull":"LS24 8BD","propertyType":"Flat/Maisonette/Townhouse","oldOrNew":"Established","duration":"Leasehold","paon":"3","saon":"","street":"EASTFIELD WALK","locality":"TADCASTER","townOrCity":"TADCASTER","district":"SELBY","county":"NORTH YORKSHIRE","ppdCategoryType":"Standard","recordStatus":"Addition","latitude":53.890058,"longitude":-1.246458,"postcodeStart":"LS24 8","postcode":["LS24","8BD"]}
{"price":88950,"dateOfTransfer":"1996-07-19T00:00:00","postcodeFull":"LS24 8JF","propertyType":"Detached","oldOrNew":"Established","duration":"Freehold","paon":"2","saon":"","street":"HUDSON WAY","locality":"TADCASTER","townOrCity":"TADCASTER","district":"SELBY","county":"NORTH YORKSHIRE","ppdCategoryType":"Standard","recordStatus":"Addition","latitude":53.890023,"longitude":-1.258084,"postcodeStart":"LS24 8","postcode":["LS24","8JF"]}
{"price":63000,"dateOfTransfer":"1996-07-26T00:00:00","postcodeFull":"LS24 8HP","propertyType":"Semi-detached","oldOrNew":"Established","duration":"Freehold","paon":"19","saon":"","street":"MANOR ROAD","locality":"TADCASTER","townOrCity":"TADCASTER","district":"SELBY","county":"NORTH YORKSHIRE","ppdCategoryType":"Standard","recordStatus":"Addition","latitude":53.887742,"longitude":-1.257049,"postcodeStart":"LS24 8","postcode":["LS24","8HP"]}
{"price":51000,"dateOfTransfer":"1996-08-15T00:00:00","postcodeFull":"LS24 8HW","propertyType":"Semi-detached","oldOrNew":"Established","duration":"Freehold","paon":"10","saon":"","street":"INGLEBY DRIVE","locality":"TADCASTER","townOrCity":"TADCASTER","district":"SELBY","county":"NORTH YORKSHIRE","ppdCategoryType":"Standard","recordStatus":"Addition","latitude":53.889377,"longitude":-1.258583,"postcodeStart":"LS24 8","postcode":["LS24","8HW"]}
{"price":155000,"dateOfTransfer":"1996-12-02T00:00:00","postcodeFull":"LS24 8HE","propertyType":"Detached","oldOrNew":"Established","duration":"Freehold","paon":"FIRCROFT LODGE","saon":"","street":"WIGHILL LANE","locality":"","townOrCity":"TADCASTER","district":"SELBY","county":"NORTH YORKSHIRE","ppdCategoryType":"Standard","recordStatus":"Addition","latitude":53.891009,"longitude":-1.262038,"postcodeStart":"LS24 8","postcode":["LS24","8HE"]}
{"price":95000,"dateOfTransfer":"1996-07-19T00:00:00","postcodeFull":"LS24 8JF","propertyType":"Detached","oldOrNew":"Established","duration":"Freehold","paon":"3","saon":"","street":"HUDSON WAY","locality":"TADCASTER","townOrCity":"TADCASTER","district":"SELBY","county":"NORTH YORKSHIRE","ppdCategoryType":"Standard","recordStatus":"Addition","latitude":53.890023,"longitude":-1.258084,"postcodeStart":"LS24 8","postcode":["LS24","8JF"]}
{"price":82500,"dateOfTransfer":"1996-05-10T00:00:00","postcodeFull":"LS24 8EP","propertyType":"Detached","oldOrNew":"Established","duration":"Freehold","paon":"WILLOW VALE","saon":"","street":"","locality":"COLTON","townOrCity":"TADCASTER","district":"SELBY","county":"NORTH YORKSHIRE","ppdCategoryType":"Standard","recordStatus":"Addition","latitude":53.896646,"longitude":-1.175333,"postcodeStart":"LS24 8","postcode":["LS24","8EP"]}
{"price":90000,"dateOfTransfer":"1996-10-11T00:00:00","postcodeFull":"LS24 8AG","propertyType":"Detached","oldOrNew":"Established","duration":"Freehold","paon":"40","saon":"","street":"OXTON LANE","locality":"TADCASTER","townOrCity":"TADCASTER","district":"SELBY","county":"NORTH YORKSHIRE","ppdCategoryType":"Standard","recordStatus":"Addition","latitude":53.885892,"longitude":-1.255723,"postcodeStart":"LS24 8","postcode":["LS24","8AG"]}
{"price":143500,"dateOfTransfer":"1996-09-12T00:00:00","postcodeFull":"LS24 8EP","propertyType":"Detached","oldOrNew":"Established","duration":"Freehold","paon":"THE OLD FORGE","saon":"","street":"","locality":"COLTON","townOrCity":"TADCASTER","district":"SELBY","county":"NORTH YORKSHIRE","ppdCategoryType":"Standard","recordStatus":"Addition","latitude":53.896646,"longitude":-1.175333,"postcodeStart":"LS24 8","postcode":["LS24","8EP"]}
{"price":175000,"dateOfTransfer":"1996-09-20T00:00:00","postcodeFull":"LS24 8BQ","propertyType":"Detached","oldOrNew":"New build","duration":"Freehold","paon":"HOLLY MOUNT","saon":"","street":"MAIN STREET","locality":"WIGHILL","townOrCity":"TADCASTER","district":"HARROGATE","county":"NORTH YORKSHIRE","ppdCategoryType":"Standard","recordStatus":"Addition","latitude":53.916046,"longitude":-1.276197,"postcodeStart":"LS24 8","postcode":["LS24","8BQ"]}
{"price":65950,"dateOfTransfer":"1996-09-20T00:00:00","postcodeFull":"LS24 8EY","propertyType":"Terraced","oldOrNew":"New build","duration":"Freehold","paon":"55","saon":"","street":"WIGHILL LANE","locality":"TADCASTER","townOrCity":"TADCASTER","district":"YORK","county":"YORK","ppdCategoryType":"Standard","recordStatus":"Addition","latitude":53.888056,"longitude":-1.259777,"postcodeStart":"LS24 8","postcode":["LS24","8EY"]}
{"price":89500,"dateOfTransfer":"1996-02-09T00:00:00","postcodeFull":"LS24 8EX","propertyType":"Detached","oldOrNew":"Established","duration":"Freehold","paon":"88","saon":"","street":"WIGHILL LANE","locality":"TADCASTER","townOrCity":"TADCASTER","district":"SELBY","county":"NORTH YORKSHIRE","ppdCategoryType":"Standard","recordStatus":"Addition","latitude":53.888396,"longitude":-1.259604,"postcodeStart":"LS24 8","postcode":["LS24","8EX"]}
{"price":61000,"dateOfTransfer":"1996-12-20T00:00:00","postcodeFull":"LS24 8HP","propertyType":"Detached","oldOrNew":"Established","duration":"Freehold","paon":"10","saon":"","street":"MANOR ROAD","locality":"TADCASTER","townOrCity":"TADCASTER","district":"SELBY","county":"NORTH YORKSHIRE","ppdCategoryType":"Standard","recordStatus":"Addition","latitude":53.887742,"longitude":-1.257049,"postcodeStart":"LS24 8","postcode":["LS24","8HP"]}
{"price":76153,"dateOfTransfer":"1996-04-12T00:00:00","postcodeFull":"LS24 8EP","propertyType":"Detached","oldOrNew":"Established","duration":"Freehold","paon":"LITTLE RIDGE","saon":"","street":"","locality":"COLTON","townOrCity":"TADCASTER","district":"SELBY","county":"NORTH YORKSHIRE","ppdCategoryType":"Standard","recordStatus":"Addition","latitude":53.896646,"longitude":-1.175333,"postcodeStart":"LS24 8","postcode":["LS24","8EP"]}
{"price":56000,"dateOfTransfer":"1996-07-31T00:00:00","postcodeFull":"LS24 8JF","propertyType":"Detached","oldOrNew":"Established","duration":"Freehold","paon":"26","saon":"","street":"HUDSON WAY","locality":"TADCASTER","townOrCity":"TADCASTER","district":"SELBY","county":"NORTH YORKSHIRE","ppdCategoryType":"Standard","recordStatus":"Addition","latitude":53.890023,"longitude":-1.258084,"postcodeStart":"LS24 8","postcode":["LS24","8JF"]}
{"price":52000,"dateOfTransfer":"1996-08-30T00:00:00","postcodeFull":"LS24 8EX","propertyType":"Semi-detached","oldOrNew":"Established","duration":"Freehold","paon":"68","saon":"","street":"WIGHILL LANE","locality":"TADCASTER","townOrCity":"TADCASTER","district":"SELBY","county":"NORTH YORKSHIRE","ppdCategoryType":"Standard","recordStatus":"Addition","latitude":53.888396,"longitude":-1.259604,"postcodeStart":"LS24 8","postcode":["LS24","8EX"]}
{"price":51250,"dateOfTransfer":"1996-06-21T00:00:00","postcodeFull":"LS24 8AY","propertyType":"Semi-detached","oldOrNew":"Established","duration":"Freehold","paon":"12","saon":"","street":"AUSTER BANK CRESCENT","locality":"TADCASTER","townOrCity":"TADCASTER","district":"SELBY","county":"NORTH YORKSHIRE","ppdCategoryType":"Standard","recordStatus":"Addition","latitude":53.889177,"longitude":-1.250704,"postcodeStart":"LS24 8","postcode":["LS24","8AY"]}
{"price":46000,"dateOfTransfer":"1996-09-06T00:00:00","postcodeFull":"LS24 8EX","propertyType":"Terraced","oldOrNew":"Established","duration":"Freehold","paon":"66","saon":"","street":"WIGHILL LANE","locality":"TADCASTER","townOrCity":"TADCASTER","district":"SELBY","county":"NORTH YORKSHIRE","ppdCategoryType":"Standard","recordStatus":"Addition","latitude":53.888396,"longitude":-1.259604,"postcodeStart":"LS24 8","postcode":["LS24","8EX"]}
{"price":86000,"dateOfTransfer":"1996-12-11T00:00:00","postcodeFull":"LS24 8JE","propertyType":"Detached","oldOrNew":"Established","duration":"Freehold","paon":"6","saon":"","street":"HUDSON VIEW","locality":"TADCASTER","townOrCity":"TADCASTER","district":"SELBY","county":"NORTH YORKSHIRE","ppdCategoryType":"Standard","recordStatus":"Addition","latitude":53.889765,"longitude":-1.260036,"postcodeStart":"LS24 8","postcode":["LS24","8JE"]}
{"price":37000,"dateOfTransfer":"1996-08-09T00:00:00","postcodeFull":"LS24 8AL","propertyType":"Semi-detached","oldOrNew":"Established","duration":"Freehold","paon":"4","saon":"","street":"GRANGE ROAD","locality":"TADCASTER","townOrCity":"TADCASTER","district":"SELBY","county":"NORTH YORKSHIRE","ppdCategoryType":"Standard","recordStatus":"Addition","latitude":53.885919,"longitude":-1.254398,"postcodeStart":"LS24 8","postcode":["LS24","8AL"]}
{"price":49000,"dateOfTransfer":"1996-09-27T00:00:00","postcodeFull":"LS24 8HP","propertyType":"Semi-detached","oldOrNew":"Established","duration":"Freehold","paon":"26","saon":"","street":"MANOR ROAD","locality":"TADCASTER","townOrCity":"TADCASTER","district":"SELBY","county":"NORTH YORKSHIRE","ppdCategoryType":"Standard","recordStatus":"Addition","latitude":53.887742,"longitude":-1.257049,"postcodeStart":"LS24 8","postcode":["LS24","8HP"]}
{"price":42000,"dateOfTransfer":"1996-10-04T00:00:00","postcodeFull":"LS24 8HP","propertyType":"Semi-detached","oldOrNew":"Established","duration":"Freehold","paon":"30","saon":"","street":"MANOR ROAD","locality":"TADCASTER","townOrCity":"TADCASTER","district":"SELBY","county":"NORTH YORKSHIRE","ppdCategoryType":"Standard","recordStatus":"Addition","latitude":53.887742,"longitude":-1.257049,"postcodeStart":"LS24 8","postcode":["LS24","8HP"]}
{"price":44950,"dateOfTransfer":"1996-04-16T00:00:00","postcodeFull":"LS24 8EY","propertyType":"Terraced","oldOrNew":"New build","duration":"Freehold","paon":"51","saon":"","street":"WIGHILL LANE","locality":"TADCASTER","townOrCity":"TADCASTER","district":"YORK","county":"YORK","ppdCategoryType":"Standard","recordStatus":"Addition","latitude":53.888056,"longitude":-1.259777,"postcodeStart":"LS24 8","postcode":["LS24","8EY"]}
{"price":220000,"dateOfTransfer":"1996-07-12T00:00:00","postcodeFull":"LS24 8BQ","propertyType":"Detached","oldOrNew":"Established","duration":"Freehold","paon":"BROOK HALL FARM","saon":"","street":"MAIN STREET","locality":"WIGHILL","townOrCity":"TADCASTER","district":"HARROGATE","county":"NORTH YORKSHIRE","ppdCategoryType":"Standard","recordStatus":"Addition","latitude":53.916046,"longitude":-1.276197,"postcodeStart":"LS24 8","postcode":["LS24","8BQ"]}
{"price":86500,"dateOfTransfer":"1996-07-12T00:00:00","postcodeFull":"LS24 8JX","propertyType":"Semi-detached","oldOrNew":"Established","duration":"Freehold","paon":"18","saon":"","street":"EASTFIELD CLOSE","locality":"TADCASTER","townOrCity":"TADCASTER","district":"SELBY","county":"NORTH YORKSHIRE","ppdCategoryType":"Standard","recordStatus":"Addition","latitude":53.890486,"longitude":-1.245964,"postcodeStart":"LS24 8","postcode":["LS24","8JX"]}
{"price":36000,"dateOfTransfer":"1996-06-21T00:00:00","postcodeFull":"LS24 8HP","propertyType":"Semi-detached","oldOrNew":"Established","duration":"Freehold","paon":"32","saon":"","street":"MANOR ROAD","locality":"TADCASTER","townOrCity":"TADCASTER","district":"SELBY","county":"NORTH YORKSHIRE","ppdCategoryType":"Standard","recordStatus":"Addition","latitude":53.887742,"longitude":-1.257049,"postcodeStart":"LS24 8","postcode":["LS24","8HP"]}
{"price":42500,"dateOfTransfer":"1996-12-10T00:00:00","postcodeFull":"LS24 8AL","propertyType":"Semi-detached","oldOrNew":"Established","duration":"Freehold","paon":"25","saon":"","street":"GRANGE ROAD","locality":"TADCASTER","townOrCity":"TADCASTER","district":"SELBY","county":"NORTH YORKSHIRE","ppdCategoryType":"Standard","recordStatus":"Addition","latitude":53.885919,"longitude":-1.254398,"postcodeStart":"LS24 8","postcode":["LS24","8AL"]}
{"price":102000,"dateOfTransfer":"1996-08-05T00:00:00","postcodeFull":"LS24 8JF","propertyType":"Detached","oldOrNew":"Established","duration":"Freehold","paon":"52","saon":"","street":"HUDSON WAY","locality":"TADCASTER","townOrCity":"TADCASTER","district":"SELBY","county":"NORTH YORKSHIRE","ppdCategoryType":"Standard","recordStatus":"Addition","latitude":53.890023,"longitude":-1.258084,"postcodeStart":"LS24 8","postcode":["LS24","8JF"]}
{"price":90000,"dateOfTransfer":"1996-08-01T00:00:00","postcodeFull":"LS24 8AU","propertyType":"Detached","oldOrNew":"Established","duration":"Freehold","paon":"129","saon":"","street":"YORK ROAD","locality":"TADCASTER","townOrCity":"TADCASTER","district":"SELBY","county":"NORTH YORKSHIRE","ppdCategoryType":"Standard","recordStatus":"Addition","latitude":53.889152,"longitude":-1.248194,"postcodeStart":"LS24 8","postcode":["LS24","8AU"]}
{"price":52000,"dateOfTransfer":"1996-06-14T00:00:00","postcodeFull":"LS24 8JX","propertyType":"Semi-detached","oldOrNew":"Established","duration":"Freehold","paon":"25","saon":"","street":"EASTFIELD CLOSE","locality":"TADCASTER","townOrCity":"TADCASTER","district":"SELBY","county":"NORTH YORKSHIRE","ppdCategoryType":"Standard","recordStatus":"Addition","latitude":53.890486,"longitude":-1.245964,"postcodeStart":"LS24 8","postcode":["LS24","8JX"]}
{"price":53000,"dateOfTransfer":"1996-01-26T00:00:00","postcodeFull":"LS24 8DW","propertyType":"Semi-detached","oldOrNew":"Established","duration":"Freehold","paon":"54","saon":"","street":"PARKLAND DRIVE","locality":"TADCASTER","townOrCity":"TADCASTER","district":"SELBY","county":"NORTH YORKSHIRE","ppdCategoryType":"Standard","recordStatus":"Addition","latitude":53.888998,"longitude":-1.253796,"postcodeStart":"LS24 8","postcode":["LS24","8DW"]}
{"price":46100,"dateOfTransfer":"1996-03-29T00:00:00","postcodeFull":"LS24 8HT","propertyType":"Terraced","oldOrNew":"Established","duration":"Freehold","paon":"27","saon":"","street":"ROCKCLIFFE COURT","locality":"TADCASTER","townOrCity":"TADCASTER","district":"SELBY","county":"NORTH YORKSHIRE","ppdCategoryType":"Standard","recordStatus":"Addition","latitude":53.88707,"longitude":-1.25876,"postcodeStart":"LS24 8","postcode":["LS24","8HT"]}
{"price":73000,"dateOfTransfer":"1996-10-04T00:00:00","postcodeFull":"LS24 8NA","propertyType":"Detached","oldOrNew":"Established","duration":"Freehold","paon":"4","saon":"","street":"MEADOW WAY","locality":"TADCASTER","townOrCity":"TADCASTER","district":"SELBY","county":"NORTH YORKSHIRE","ppdCategoryType":"Standard","recordStatus":"Addition","latitude":53.888664,"longitude":-1.253467,"postcodeStart":"LS24 8","postcode":["LS24","8NA"]}
{"price":35500,"dateOfTransfer":"1996-05-31T00:00:00","postcodeFull":"LS24 8AW","propertyType":"Terraced","oldOrNew":"Established","duration":"Freehold","paon":"10","saon":"","street":"SANDFIELD TERRACE","locality":"TADCASTER","townOrCity":"TADCASTER","district":"SELBY","county":"NORTH YORKSHIRE","ppdCategoryType":"Standard","recordStatus":"Addition","latitude":53.887244,"longitude":-1.253584,"postcodeStart":"LS24 8","postcode":["LS24","8AW"]}
{"price":46000,"dateOfTransfer":"1996-08-01T00:00:00","postcodeFull":"LS24 8AW","propertyType":"Terraced","oldOrNew":"Established","duration":"Freehold","paon":"15","saon":"","street":"SANDFIELD TERRACE","locality":"TADCASTER","townOrCity":"TADCASTER","district":"SELBY","county":"NORTH YORKSHIRE","ppdCategoryType":"Standard","recordStatus":"Addition","latitude":53.887244,"longitude":-1.253584,"postcodeStart":"LS24 8","postcode":["LS24","8AW"]}
{"price":36250,"dateOfTransfer":"1996-03-07T00:00:00","postcodeFull":"LS24 8AP","propertyType":"Terraced","oldOrNew":"Established","duration":"Freehold","paon":"14","saon":"","street":"MAYFIELD TERRACE","locality":"TADCASTER","townOrCity":"TADCASTER","district":"SELBY","county":"NORTH YORKSHIRE","ppdCategoryType":"Standard","recordStatus":"Addition","latitude":53.888287,"longitude":-1.253611,"postcodeStart":"LS24 8","postcode":["LS24","8AP"]}
{"price":61500,"dateOfTransfer":"1996-10-17T00:00:00","postcodeFull":"LS24 8JA","propertyType":"Semi-detached","oldOrNew":"Established","duration":"Freehold","paon":"2","saon":"","street":"HEATHER WAY","locality":"TADCASTER","townOrCity":"TADCASTER","district":"SELBY","county":"NORTH YORKSHIRE","ppdCategoryType":"Standard","recordStatus":"Addition","latitude":53.889086,"longitude":-1.262178,"postcodeStart":"LS24 8","postcode":["LS24","8JA"]}
{"price":105000,"dateOfTransfer":"1996-03-05T00:00:00","postcodeFull":"LS24 8JF","propertyType":"Detached","oldOrNew":"Established","duration":"Freehold","paon":"60","saon":"","street":"HUDSON WAY","locality":"TADCASTER","townOrCity":"TADCASTER","district":"SELBY","county":"NORTH YORKSHIRE","ppdCategoryType":"Standard","recordStatus":"Addition","latitude":53.890023,"longitude":-1.258084,"postcodeStart":"LS24 8","postcode":["LS24","8JF"]}
{"price":43138,"dateOfTransfer":"1996-11-01T00:00:00","postcodeFull":"LS24 8HT","propertyType":"Terraced","oldOrNew":"Established","duration":"Freehold","paon":"27","saon":"","street":"ROCKCLIFFE COURT","locality":"TADCASTER","townOrCity":"TADCASTER","district":"SELBY","county":"NORTH YORKSHIRE","ppdCategoryType":"Standard","recordStatus":"Addition","latitude":53.88707,"longitude":-1.25876,"postcodeStart":"LS24 8","postcode":["LS24","8HT"]}
{"price":55500,"dateOfTransfer":"1996-06-28T00:00:00","postcodeFull":"LS24 8NA","propertyType":"Semi-detached","oldOrNew":"Established","duration":"Freehold","paon":"1","saon":"","street":"MEADOW WAY","locality":"TADCASTER","townOrCity":"TADCASTER","district":"SELBY","county":"NORTH YORKSHIRE","ppdCategoryType":"Standard","recordStatus":"Addition","latitude":53.888664,"longitude":-1.253467,"postcodeStart":"LS24 8","postcode":["LS24","8NA"]}
{"price":50950,"dateOfTransfer":"1996-05-17T00:00:00","postcodeFull":"LS24 8NA","propertyType":"Semi-detached","oldOrNew":"Established","duration":"Freehold","paon":"3","saon":"","street":"MEADOW WAY","locality":"TADCASTER","townOrCity":"TADCASTER","district":"SELBY","county":"NORTH YORKSHIRE","ppdCategoryType":"Standard","recordStatus":"Addition","latitude":53.888664,"longitude":-1.253467,"postcodeStart":"LS24 8","postcode":["LS24","8NA"]}
{"price":39000,"dateOfTransfer":"1996-04-04T00:00:00","postcodeFull":"LS24 8AW","propertyType":"Terraced","oldOrNew":"Established","duration":"Freehold","paon":"18","saon":"","street":"SANDFIELD TERRACE","locality":"TADCASTER","townOrCity":"TADCASTER","district":"SELBY","county":"NORTH YORKSHIRE","ppdCategoryType":"Standard","recordStatus":"Addition","latitude":53.887244,"longitude":-1.253584,"postcodeStart":"LS24 8","postcode":["LS24","8AW"]}
{"price":180000,"dateOfTransfer":"1996-10-14T00:00:00","postcodeFull":"LS24 8EP","propertyType":"Detached","oldOrNew":"Established","duration":"Freehold","paon":"PUMP COTTAGE","saon":"","street":"","locality":"COLTON","townOrCity":"TADCASTER","district":"SELBY","county":"NORTH YORKSHIRE","ppdCategoryType":"Standard","recordStatus":"Addition","latitude":53.896646,"longitude":-1.175333,"postcodeStart":"LS24 8","postcode":["LS24","8EP"]}
{"price":34000,"dateOfTransfer":"1996-12-06T00:00:00","postcodeFull":"LS24 8AS","propertyType":"Terraced","oldOrNew":"Established","duration":"Freehold","paon":"78","saon":"","street":"YORK ROAD","locality":"TADCASTER","townOrCity":"TADCASTER","district":"SELBY","county":"NORTH YORKSHIRE","ppdCategoryType":"Standard","recordStatus":"Addition","latitude":53.887861,"longitude":-1.252979,"postcodeStart":"LS24 8","postcode":["LS24","8AS"]}
{"price":48000,"dateOfTransfer":"1996-12-20T00:00:00","postcodeFull":"LS24 8EX","propertyType":"Semi-detached","oldOrNew":"Established","duration":"Freehold","paon":"70","saon":"","street":"WIGHILL LANE","locality":"TADCASTER","townOrCity":"TADCASTER","district":"SELBY","county":"NORTH YORKSHIRE","ppdCategoryType":"Standard","recordStatus":"Addition","latitude":53.888396,"longitude":-1.259604,"postcodeStart":"LS24 8","postcode":["LS24","8EX"]}
{"price":54750,"dateOfTransfer":"1996-11-21T00:00:00","postcodeFull":"LS24 8HP","propertyType":"Semi-detached","oldOrNew":"Established","duration":"Freehold","paon":"5","saon":"","street":"MANOR ROAD","locality":"TADCASTER","townOrCity":"TADCASTER","district":"SELBY","county":"NORTH YORKSHIRE","ppdCategoryType":"Standard","recordStatus":"Addition","latitude":53.887742,"longitude":-1.257049,"postcodeStart":"LS24 8","postcode":["LS24","8HP"]}
{"price":60000,"dateOfTransfer":"1996-07-17T00:00:00","postcodeFull":"LS24 8HJ","propertyType":"Semi-detached","oldOrNew":"Established","duration":"Freehold","paon":"21","saon":"","street":"PROSPECT DRIVE","locality":"TADCASTER","townOrCity":"TADCASTER","district":"SELBY","county":"NORTH YORKSHIRE","ppdCategoryType":"Standard","recordStatus":"Addition","latitude":53.888791,"longitude":-1.25809,"postcodeStart":"LS24 8","postcode":["LS24","8HJ"]}
{"price":65000,"dateOfTransfer":"1996-01-22T00:00:00","postcodeFull":"LS24 8BQ","propertyType":"Terraced","oldOrNew":"Established","duration":"Freehold","paon":"NURSERY COTTAGES","saon":"1","street":"MAIN STREET","locality":"WIGHILL","townOrCity":"TADCASTER","district":"HARROGATE","county":"NORTH YORKSHIRE","ppdCategoryType":"Standard","recordStatus":"Addition","latitude":53.916046,"longitude":-1.276197,"postcodeStart":"LS24 8","postcode":["LS24","8BQ"]}
{"price":54500,"dateOfTransfer":"1996-05-31T00:00:00","postcodeFull":"LS24 8DW","propertyType":"Semi-detached","oldOrNew":"Established","duration":"Freehold","paon":"24","saon":"","street":"PARKLAND DRIVE","locality":"TADCASTER","townOrCity":"TADCASTER","district":"SELBY","county":"NORTH YORKSHIRE","ppdCategoryType":"Standard","recordStatus":"Addition","latitude":53.888998,"longitude":-1.253796,"postcodeStart":"LS24 8","postcode":["LS24","8DW"]}
{"price":45950,"dateOfTransfer":"1996-02-29T00:00:00","postcodeFull":"LS24 8AD","propertyType":"Terraced","oldOrNew":"Established","duration":"Freehold","paon":"5","saon":"","street":"SPRING HILL","locality":"TADCASTER","townOrCity":"TADCASTER","district":"SELBY","county":"NORTH YORKSHIRE","ppdCategoryType":"Standard","recordStatus":"Addition","latitude":53.886373,"longitude":-1.258093,"postcodeStart":"LS24 8","postcode":["LS24","8AD"]}
{"price":45000,"dateOfTransfer":"1996-01-26T00:00:00","postcodeFull":"LS24 8DP","propertyType":"Flat/Maisonette/Townhouse","oldOrNew":"Established","duration":"Leasehold","paon":"BEECHGROVE HOUSE","saon":"FLAT 4","street":"OUSTON LANE","locality":"TADCASTER","townOrCity":"TADCASTER","district":"SELBY","county":"NORTH YORKSHIRE","ppdCategoryType":"Standard","recordStatus":"Addition","latitude":53.883537,"longitude":-1.25438,"postcodeStart":"LS24 8","postcode":["LS24","8DP"]}
{"price":114500,"dateOfTransfer":"1996-08-09T00:00:00","postcodeFull":"LS24 8JF","propertyType":"Detached","oldOrNew":"Established","duration":"Freehold","paon":"45","saon":"","street":"HUDSON WAY","locality":"TADCASTER","townOrCity":"TADCASTER","district":"SELBY","county":"NORTH YORKSHIRE","ppdCategoryType":"Standard","recordStatus":"Addition","latitude":53.890023,"longitude":-1.258084,"postcodeStart":"LS24 8","postcode":["LS24","8JF"]}
{"price":110000,"dateOfTransfer":"1996-05-01T00:00:00","postcodeFull":"LS24 8BQ","propertyType":"Semi-detached","oldOrNew":"Established","duration":"Freehold","paon":"2","saon":"","street":"THE MOUNT","locality":"WIGHILL","townOrCity":"TADCASTER","district":"HARROGATE","county":"NORTH YORKSHIRE","ppdCategoryType":"Standard","recordStatus":"Addition","latitude":53.916046,"longitude":-1.276197,"postcodeStart":"LS24 8","postcode":["LS24","8BQ"]}
{"price":59950,"dateOfTransfer":"1996-07-19T00:00:00","postcodeFull":"LS24 8EZ","propertyType":"Semi-detached","oldOrNew":"Established","duration":"Freehold","paon":"38","saon":"","street":"HEATHERDENE","locality":"TADCASTER","townOrCity":"TADCASTER","district":"SELBY","county":"NORTH YORKSHIRE","ppdCategoryType":"Standard","recordStatus":"Addition","latitude":53.888522,"longitude":-1.261016,"postcodeStart":"LS24 8","postcode":["LS24","8EZ"]}
{"price":41000,"dateOfTransfer":"1996-12-19T00:00:00","postcodeFull":"LS24 8NA","propertyType":"Semi-detached","oldOrNew":"Established","duration":"Freehold","paon":"15","saon":"","street":"MEADOW WAY","locality":"TADCASTER","townOrCity":"TADCASTER","district":"SELBY","county":"NORTH YORKSHIRE","ppdCategoryType":"Standard","recordStatus":"Addition","latitude":53.888664,"longitude":-1.253467,"postcodeStart":"LS24 8","postcode":["LS24","8NA"]}
{"price":160000,"dateOfTransfer":"1996-09-06T00:00:00","postcodeFull":"LS24 8EP","propertyType":"Detached","oldOrNew":"Established","duration":"Freehold","paon":"HIGHFIELDS","saon":"","street":"MAIN STREET","locality":"COLTON","townOrCity":"TADCASTER","district":"SELBY","county":"NORTH YORKSHIRE","ppdCategoryType":"Standard","recordStatus":"Addition","latitude":53.896646,"longitude":-1.175333,"postcodeStart":"LS24 8","postcode":["LS24","8EP"]}
{"price":87000,"dateOfTransfer":"1997-08-18T00:00:00","postcodeFull":"LS24 8JD","propertyType":"Detached","oldOrNew":"Established","duration":"Freehold","paon":"6","saon":"","street":"HUDSON CLOSE","locality":"TADCASTER","townOrCity":"TADCASTER","district":"SELBY","county":"NORTH YORKSHIRE","ppdCategoryType":"Standard","recordStatus":"Addition","latitude":53.889915,"longitude":-1.259638,"postcodeStart":"LS24 8","postcode":["LS24","8JD"]}
{"price":43500,"dateOfTransfer":"1997-02-21T00:00:00","postcodeFull":"LS24 8AR","propertyType":"Terraced","oldOrNew":"Established","duration":"Freehold","paon":"69","saon":"","street":"YORK ROAD","locality":"TADCASTER","townOrCity":"TADCASTER","district":"SELBY","county":"NORTH YORKSHIRE","ppdCategoryType":"Standard","recordStatus":"Addition","latitude":53.888131,"longitude":-1.253081,"postcodeStart":"LS24 8","postcode":["LS24","8AR"]}
{"price":37000,"dateOfTransfer":"1997-09-05T00:00:00","postcodeFull":"LS24 8AU","propertyType":"Flat/Maisonette/Townhouse","oldOrNew":"Established","duration":"Leasehold","paon":"137","saon":"","street":"YORK ROAD","locality":"TADCASTER","townOrCity":"TADCASTER","district":"SELBY","county":"NORTH YORKSHIRE","ppdCategoryType":"Standard","recordStatus":"Addition","latitude":53.889152,"longitude":-1.248194,"postcodeStart":"LS24 8","postcode":["LS24","8AU"]}
{"price":52000,"dateOfTransfer":"1997-01-30T00:00:00","postcodeFull":"LS24 8AH","propertyType":"Semi-detached","oldOrNew":"Established","duration":"Freehold","paon":"29","saon":"","street":"OXTON DRIVE","locality":"TADCASTER","townOrCity":"TADCASTER","district":"SELBY","county":"NORTH YORKSHIRE","ppdCategoryType":"Standard","recordStatus":"Addition","latitude":53.8844,"longitude":-1.252889,"postcodeStart":"LS24 8","postcode":["LS24","8AH"]}
{"price":38000,"dateOfTransfer":"1997-05-02T00:00:00","postcodeFull":"LS24 8DP","propertyType":"Flat/Maisonette/Townhouse","oldOrNew":"Established","duration":"Leasehold","paon":"BEECHGROVE HOUSE","saon":"FLAT 2","street":"OUSTON LANE","locality":"TADCASTER","townOrCity":"TADCASTER","district":"SELBY","county":"NORTH YORKSHIRE","ppdCategoryType":"Standard","recordStatus":"Addition","latitude":53.883537,"longitude":-1.25438,"postcodeStart":"LS24 8","postcode":["LS24","8DP"]}
{"price":16000,"dateOfTransfer":"1997-08-14T00:00:00","postcodeFull":"LS24 8AL","propertyType":"Terraced","oldOrNew":"Established","duration":"Freehold","paon":"3","saon":"","street":"GRANGE ROAD","locality":"TADCASTER","townOrCity":"TADCASTER","district":"SELBY","county":"NORTH YORKSHIRE","ppdCategoryType":"Standard","recordStatus":"Addition","latitude":53.885919,"longitude":-1.254398,"postcodeStart":"LS24 8","postcode":["LS24","8AL"]}
{"price":110000,"dateOfTransfer":"1997-10-20T00:00:00","postcodeFull":"LS24 8JF","propertyType":"Detached","oldOrNew":"Established","duration":"Freehold","paon":"27","saon":"","street":"HUDSON WAY","locality":"TADCASTER","townOrCity":"TADCASTER","district":"SELBY","county":"NORTH YORKSHIRE","ppdCategoryType":"Standard","recordStatus":"Addition","latitude":53.890023,"longitude":-1.258084,"postcodeStart":"LS24 8","postcode":["LS24","8JF"]}
{"price":53000,"dateOfTransfer":"1997-05-23T00:00:00","postcodeFull":"LS24 8AG","propertyType":"Terraced","oldOrNew":"Established","duration":"Freehold","paon":"14","saon":"","street":"OXTON LANE","locality":"TADCASTER","townOrCity":"TADCASTER","district":"SELBY","county":"NORTH YORKSHIRE","ppdCategoryType":"Standard","recordStatus":"Addition","latitude":53.885892,"longitude":-1.255723,"postcodeStart":"LS24 8","postcode":["LS24","8AG"]}
{"price":74950,"dateOfTransfer":"1997-09-26T00:00:00","postcodeFull":"LS24 8JD","propertyType":"Detached","oldOrNew":"Established","duration":"Freehold","paon":"3","saon":"","street":"HUDSON CLOSE","locality":"TADCASTER","townOrCity":"TADCASTER","district":"SELBY","county":"NORTH YORKSHIRE","ppdCategoryType":"Standard","recordStatus":"Addition","latitude":53.889915,"longitude":-1.259638,"postcodeStart":"LS24 8","postcode":["LS24","8JD"]}
{"price":59150,"dateOfTransfer":"1997-05-30T00:00:00","postcodeFull":"LS24 8EX","propertyType":"Terraced","oldOrNew":"Established","duration":"Freehold","paon":"38","saon":"","street":"WIGHILL LANE","locality":"TADCASTER","townOrCity":"TADCASTER","district":"SELBY","county":"NORTH YORKSHIRE","ppdCategoryType":"Standard","recordStatus":"Addition","latitude":53.888396,"longitude":-1.259604,"postcodeStart":"LS24 8","postcode":["LS24","8EX"]}
{"price":59995,"dateOfTransfer":"1997-10-13T00:00:00","postcodeFull":"LS24 8EQ","propertyType":"Semi-detached","oldOrNew":"Established","duration":"Freehold","paon":"INGLENOOK","saon":"","street":"YORK ROAD","locality":"STEETON","townOrCity":"TADCASTER","district":"SELBY","county":"NORTH YORKSHIRE","ppdCategoryType":"Standard","recordStatus":"Addition","latitude":53.903682,"longitude":-1.19616,"postcodeStart":"LS24 8","postcode":["LS24","8EQ"]}
{"price":17907,"dateOfTransfer":"1997-05-12T00:00:00","postcodeFull":"LS24 8NA","propertyType":"Detached","oldOrNew":"Established","duration":"Freehold","paon":"6","saon":"","street":"MEADOW WAY","locality":"TADCASTER","townOrCity":"TADCASTER","district":"SELBY","county":"NORTH YORKSHIRE","ppdCategoryType":"Standard","recordStatus":"Addition","latitude":53.888664,"longitude":-1.253467,"postcodeStart":"LS24 8","postcode":["LS24","8NA"]}
{"price":59950,"dateOfTransfer":"1997-10-03T00:00:00","postcodeFull":"LS24 8AS","propertyType":"Semi-detached","oldOrNew":"Established","duration":"Freehold","paon":"86","saon":"","street":"YORK ROAD","locality":"TADCASTER","townOrCity":"TADCASTER","district":"SELBY","county":"NORTH YORKSHIRE","ppdCategoryType":"Standard","recordStatus":"Addition","latitude":53.887861,"longitude":-1.252979,"postcodeStart":"LS24 8","postcode":["LS24","8AS"]}
{"price":33000,"dateOfTransfer":"1997-05-09T00:00:00","postcodeFull":"LS24 8AP","propertyType":"Terraced","oldOrNew":"Established","duration":"Freehold","paon":"9","saon":"","street":"MAYFIELD TERRACE","locality":"TADCASTER","townOrCity":"TADCASTER","district":"SELBY","county":"NORTH YORKSHIRE","ppdCategoryType":"Standard","recordStatus":"Addition","latitude":53.888287,"longitude":-1.253611,"postcodeStart":"LS24 8","postcode":["LS24","8AP"]}
{"price":64000,"dateOfTransfer":"1997-01-10T00:00:00","postcodeFull":"LS24 8EZ","propertyType":"Semi-detached","oldOrNew":"Established","duration":"Freehold","paon":"13","saon":"","street":"HEATHERDENE","locality":"TADCASTER","townOrCity":"TADCASTER","district":"SELBY","county":"NORTH YORKSHIRE","ppdCategoryType":"Standard","recordStatus":"Addition","latitude":53.888522,"longitude":-1.261016,"postcodeStart":"LS24 8","postcode":["LS24","8EZ"]}
{"price":40250,"dateOfTransfer":"1997-11-28T00:00:00","postcodeFull":"LS24 8AF","propertyType":"Semi-detached","oldOrNew":"Established","duration":"Freehold","paon":"64","saon":"","street":"YORK ROAD","locality":"TADCASTER","townOrCity":"TADCASTER","district":"SELBY","county":"NORTH YORKSHIRE","ppdCategoryType":"Standard","recordStatus":"Addition","latitude":53.887447,"longitude":-1.255832,"postcodeStart":"LS24 8","postcode":["LS24","8AF"]}
{"price":38000,"dateOfTransfer":"1997-06-13T00:00:00","postcodeFull":"LS24 8AS","propertyType":"Terraced","oldOrNew":"Established","duration":"Freehold","paon":"82","saon":"","street":"YORK ROAD","locality":"TADCASTER","townOrCity":"TADCASTER","district":"SELBY","county":"NORTH YORKSHIRE","ppdCategoryType":"Standard","recordStatus":"Addition","latitude":53.887861,"longitude":-1.252979,"postcodeStart":"LS24 8","postcode":["LS24","8AS"]}
{"price":35000,"dateOfTransfer":"1997-03-10T00:00:00","postcodeFull":"LS24 8AP","propertyType":"Terraced","oldOrNew":"Established","duration":"Freehold","paon":"10","saon":"","street":"MAYFIELD TERRACE","locality":"TADCASTER","townOrCity":"TADCASTER","district":"SELBY","county":"NORTH YORKSHIRE","ppdCategoryType":"Standard","recordStatus":"Addition","latitude":53.888287,"longitude":-1.253611,"postcodeStart":"LS24 8","postcode":["LS24","8AP"]}
{"price":107000,"dateOfTransfer":"1997-09-02T00:00:00","postcodeFull":"LS24 8JF","propertyType":"Detached","oldOrNew":"Established","duration":"Freehold","paon":"54","saon":"","street":"HUDSON WAY","locality":"TADCASTER","townOrCity":"TADCASTER","district":"SELBY","county":"NORTH YORKSHIRE","ppdCategoryType":"Standard","recordStatus":"Addition","latitude":53.890023,"longitude":-1.258084,"postcodeStart":"LS24 8","postcode":["LS24","8JF"]}
{"price":69950,"dateOfTransfer":"1997-04-28T00:00:00","postcodeFull":"LS24 8EY","propertyType":"Semi-detached","oldOrNew":"Established","duration":"Freehold","paon":"77","saon":"","street":"WIGHILL LANE","locality":"TADCASTER","townOrCity":"TADCASTER","district":"SELBY","county":"NORTH YORKSHIRE","ppdCategoryType":"Standard","recordStatus":"Addition","latitude":53.888056,"longitude":-1.259777,"postcodeStart":"LS24 8","postcode":["LS24","8EY"]}
{"price":67000,"dateOfTransfer":"1997-07-01T00:00:00","postcodeFull":"LS24 8HW","propertyType":"Semi-detached","oldOrNew":"Established","duration":"Freehold","paon":"20","saon":"","street":"INGLEBY DRIVE","locality":"TADCASTER","townOrCity":"TADCASTER","district":"SELBY","county":"NORTH YORKSHIRE","ppdCategoryType":"Standard","recordStatus":"Addition","latitude":53.889377,"longitude":-1.258583,"postcodeStart":"LS24 8","postcode":["LS24","8HW"]}
{"price":59950,"dateOfTransfer":"1997-06-30T00:00:00","postcodeFull":"LS24 8JF","propertyType":"Semi-detached","oldOrNew":"Established","duration":"Freehold","paon":"7","saon":"","street":"HUDSON WAY","locality":"TADCASTER","townOrCity":"TADCASTER","district":"SELBY","county":"NORTH YORKSHIRE","ppdCategoryType":"Standard","recordStatus":"Addition","latitude":53.890023,"longitude":-1.258084,"postcodeStart":"LS24 8","postcode":["LS24","8JF"]}
{"price":160000,"dateOfTransfer":"1997-10-15T00:00:00","postcodeFull":"LS24 8ET","propertyType":"Detached","oldOrNew":"Established","duration":"Freehold","paon":"CORYLUS","saon":"","street":"HAGG LANE","locality":"COLTON","townOrCity":"TADCASTER","district":"SELBY","county":"NORTH YORKSHIRE","ppdCategoryType":"Standard","recordStatus":"Addition","latitude":53.903327,"longitude":-1.16785,"postcodeStart":"LS24 8","postcode":["LS24","8ET"]}
{"price":47000,"dateOfTransfer":"1997-09-05T00:00:00","postcodeFull":"LS24 8AF","propertyType":"Semi-detached","oldOrNew":"Established","duration":"Freehold","paon":"46","saon":"","street":"YORK ROAD","locality":"TADCASTER","townOrCity":"TADCASTER","district":"SELBY","county":"NORTH YORKSHIRE","ppdCategoryType":"Standard","recordStatus":"Addition","latitude":53.887447,"longitude":-1.255832,"postcodeStart":"LS24 8","postcode":["LS24","8AF"]}
{"price":44000,"dateOfTransfer":"1997-12-11T00:00:00","postcodeFull":"LS24 8AR","propertyType":"Terraced","oldOrNew":"Established","duration":"Freehold","paon":"71","saon":"","street":"YORK ROAD","locality":"TADCASTER","townOrCity":"TADCASTER","district":"SELBY","county":"NORTH YORKSHIRE","ppdCategoryType":"Standard","recordStatus":"Addition","latitude":53.888131,"longitude":-1.253081,"postcodeStart":"LS24 8","postcode":["LS24","8AR"]}
{"price":50000,"dateOfTransfer":"1997-05-16T00:00:00","postcodeFull":"LS24 8BW","propertyType":"Semi-detached","oldOrNew":"Established","duration":"Freehold","paon":"SKARA-BRAE","saon":"","street":"","locality":"WIGHILL PARK","townOrCity":"TADCASTER","district":"HARROGATE","county":"NORTH YORKSHIRE","ppdCategoryType":"Standard","recordStatus":"Addition","latitude":53.933265,"longitude":-1.290978,"postcodeStart":"LS24 8","postcode":["LS24","8BW"]}
{"price":80500,"dateOfTransfer":"1997-07-10T00:00:00","postcodeFull":"LS24 8JF","propertyType":"Detached","oldOrNew":"Established","duration":"Freehold","paon":"32","saon":"","street":"HUDSON WAY","locality":"TADCASTER","townOrCity":"TADCASTER","district":"SELBY","county":"NORTH YORKSHIRE","ppdCategoryType":"Standard","recordStatus":"Addition","latitude":53.890023,"longitude":-1.258084,"postcodeStart":"LS24 8","postcode":["LS24","8JF"]}
{"price":55000,"dateOfTransfer":"1997-10-31T00:00:00","postcodeFull":"LS24 8BW","propertyType":"Semi-detached","oldOrNew":"Established","duration":"Freehold","paon":"SKARA-BRAE","saon":"","street":"","locality":"WIGHILL PARK","townOrCity":"TADCASTER","district":"HARROGATE","county":"NORTH YORKSHIRE","ppdCategoryType":"Standard","recordStatus":"Addition","latitude":53.933265,"longitude":-1.290978,"postcodeStart":"LS24 8","postcode":["LS24","8BW"]}
{"price":30000,"dateOfTransfer":"1997-12-22T00:00:00","postcodeFull":"LS24 8HR","propertyType":"Terraced","oldOrNew":"Established","duration":"Freehold","paon":"18","saon":"","street":"ROSEMARY COURT","locality":"TADCASTER","townOrCity":"TADCASTER","district":"SELBY","county":"NORTH YORKSHIRE","ppdCategoryType":"Standard","recordStatus":"Addition","latitude":53.886659,"longitude":-1.259178,"postcodeStart":"LS24 8","postcode":["LS24","8HR"]}
{"price":70056,"dateOfTransfer":"1997-05-20T00:00:00","postcodeFull":"LS24 8ER","propertyType":"Detached","oldOrNew":"Established","duration":"Freehold","paon":"BRECKSFIELD HOUSE","saon":"","street":"","locality":"COLTON","townOrCity":"TADCASTER","district":"SELBY","county":"NORTH YORKSHIRE","ppdCategoryType":"Standard","recordStatus":"Addition","latitude":53.893729,"longitude":-1.16543,"postcodeStart":"LS24 8","postcode":["LS24","8ER"]}
{"price":42000,"dateOfTransfer":"1997-04-23T00:00:00","postcodeFull":"LS24 8AD","propertyType":"Terraced","oldOrNew":"Established","duration":"Freehold","paon":"12","saon":"","street":"SPRING HILL","locality":"TADCASTER","townOrCity":"TADCASTER","district":"SELBY","county":"NORTH YORKSHIRE","ppdCategoryType":"Standard","recordStatus":"Addition","latitude":53.886373,"longitude":-1.258093,"postcodeStart":"LS24 8","postcode":["LS24","8AD"]}
{"price":66000,"dateOfTransfer":"1997-05-30T00:00:00","postcodeFull":"LS24 8HJ","propertyType":"Semi-detached","oldOrNew":"Established","duration":"Freehold","paon":"1","saon":"","street":"PROSPECT DRIVE","locality":"TADCASTER","townOrCity":"TADCASTER","district":"SELBY","county":"NORTH YORKSHIRE","ppdCategoryType":"Standard","recordStatus":"Addition","latitude":53.888791,"longitude":-1.25809,"postcodeStart":"LS24 8","postcode":["LS24","8HJ"]}
{"price":247500,"dateOfTransfer":"1997-01-06T00:00:00","postcodeFull":"LS24 8DH","propertyType":"Detached","oldOrNew":"Established","duration":"Freehold","paon":"BECK FARM","saon":"","street":"","locality":"CATTERTON","townOrCity":"TADCASTER","district":"SELBY","county":"NORTH YORKSHIRE","ppdCategoryType":"Standard","recordStatus":"Addition","latitude":53.906566,"longitude":-1.224693,"postcodeStart":"LS24 8","postcode":["LS24","8DH"]}
{"price":44000,"dateOfTransfer":"1997-10-17T00:00:00","postcodeFull":"LS24 8HS","propertyType":"Terraced","oldOrNew":"Established","duration":"Freehold","paon":"3","saon":"","street":"ROSEMARY ROW","locality":"TADCASTER","townOrCity":"TADCASTER","district":"SELBY","county":"NORTH YORKSHIRE","ppdCategoryType":"Standard","recordStatus":"Addition","latitude":53.887281,"longitude":-1.259562,"postcodeStart":"LS24 8","postcode":["LS24","8HS"]}
{"price":23500,"dateOfTransfer":"1997-03-17T00:00:00","postcodeFull":"LS24 8EG","propertyType":"Semi-detached","oldOrNew":"Established","duration":"Freehold","paon":"STEETON THATCHED BUNGALOW","saon":"","street":"YORK ROAD","locality":"STEETON","townOrCity":"TADCASTER","district":"SELBY","county":"NORTH YORKSHIRE","ppdCategoryType":"Standard","recordStatus":"Addition","latitude":53.899521,"longitude":-1.200342,"postcodeStart":"LS24 8","postcode":["LS24","8EG"]}
{"price":49500,"dateOfTransfer":"1997-10-17T00:00:00","postcodeFull":"LS24 8NA","propertyType":"Semi-detached","oldOrNew":"Established","duration":"Freehold","paon":"19","saon":"","street":"MEADOW WAY","locality":"TADCASTER","townOrCity":"TADCASTER","district":"SELBY","county":"NORTH YORKSHIRE","ppdCategoryType":"Standard","recordStatus":"Addition","latitude":53.888664,"longitude":-1.253467,"postcodeStart":"LS24 8","postcode":["LS24","8NA"]}
{"price":54500,"dateOfTransfer":"1997-01-10T00:00:00","postcodeFull":"LS24 8HS","propertyType":"Semi-detached","oldOrNew":"Established","duration":"Freehold","paon":"6","saon":"","street":"ROSEMARY ROW","locality":"TADCASTER","townOrCity":"TADCASTER","district":"SELBY","county":"NORTH YORKSHIRE","ppdCategoryType":"Standard","recordStatus":"Addition","latitude":53.887281,"longitude":-1.259562,"postcodeStart":"LS24 8","postcode":["LS24","8HS"]}
{"price":124000,"dateOfTransfer":"1997-06-30T00:00:00","postcodeFull":"LS24 8AD","propertyType":"Detached","oldOrNew":"Established","duration":"Freehold","paon":"9A","saon":"","street":"SPRING HILL","locality":"","townOrCity":"TADCASTER","district":"SELBY","county":"NORTH YORKSHIRE","ppdCategoryType":"Standard","recordStatus":"Addition","latitude":53.886373,"longitude":-1.258093,"postcodeStart":"LS24 8","postcode":["LS24","8AD"]}
{"price":110000,"dateOfTransfer":"1997-07-14T00:00:00","postcodeFull":"LS24 8DW","propertyType":"Detached","oldOrNew":"Established","duration":"Freehold","paon":"15","saon":"","street":"PARKLAND DRIVE","locality":"TADCASTER","townOrCity":"TADCASTER","district":"SELBY","county":"NORTH YORKSHIRE","ppdCategoryType":"Standard","recordStatus":"Addition","latitude":53.888998,"longitude":-1.253796,"postcodeStart":"LS24 8","postcode":["LS24","8DW"]}
{"price":41000,"dateOfTransfer":"1997-09-12T00:00:00","postcodeFull":"LS24 8EY","propertyType":"Terraced","oldOrNew":"Established","duration":"Freehold","paon":"43","saon":"","street":"WIGHILL LANE","locality":"TADCASTER","townOrCity":"TADCASTER","district":"SELBY","county":"NORTH YORKSHIRE","ppdCategoryType":"Standard","recordStatus":"Addition","latitude":53.888056,"longitude":-1.259777,"postcodeStart":"LS24 8","postcode":["LS24","8EY"]}
{"price":53000,"dateOfTransfer":"1997-01-10T00:00:00","postcodeFull":"LS24 8HP","propertyType":"Semi-detached","oldOrNew":"Established","duration":"Freehold","paon":"35","saon":"","street":"MANOR ROAD","locality":"TADCASTER","townOrCity":"TADCASTER","district":"SELBY","county":"NORTH YORKSHIRE","ppdCategoryType":"Standard","recordStatus":"Addition","latitude":53.887742,"longitude":-1.257049,"postcodeStart":"LS24 8","postcode":["LS24","8HP"]}
{"price":76000,"dateOfTransfer":"1997-01-10T00:00:00","postcodeFull":"LS24 8EZ","propertyType":"Detached","oldOrNew":"Established","duration":"Freehold","paon":"7","saon":"","street":"HEATHERDENE","locality":"TADCASTER","townOrCity":"TADCASTER","district":"SELBY","county":"NORTH YORKSHIRE","ppdCategoryType":"Standard","recordStatus":"Addition","latitude":53.888522,"longitude":-1.261016,"postcodeStart":"LS24 8","postcode":["LS24","8EZ"]}
{"price":42000,"dateOfTransfer":"1997-12-23T00:00:00","postcodeFull":"LS24 8AE","propertyType":"Terraced","oldOrNew":"Established","duration":"Freehold","paon":"41","saon":"","street":"YORK ROAD","locality":"TADCASTER","townOrCity":"TADCASTER","district":"SELBY","county":"NORTH YORKSHIRE","ppdCategoryType":"Standard","recordStatus":"Addition","latitude":53.887839,"longitude":-1.255216,"postcodeStart":"LS24 8","postcode":["LS24","8AE"]}
{"price":41000,"dateOfTransfer":"1997-12-22T00:00:00","postcodeFull":"LS24 8AP","propertyType":"Semi-detached","oldOrNew":"Established","duration":"Freehold","paon":"13","saon":"","street":"MAYFIELD TERRACE","locality":"TADCASTER","townOrCity":"TADCASTER","district":"SELBY","county":"NORTH YORKSHIRE","ppdCategoryType":"Standard","recordStatus":"Addition","latitude":53.888287,"longitude":-1.253611,"postcodeStart":"LS24 8","postcode":["LS24","8AP"]}
{"price":113000,"dateOfTransfer":"1997-07-30T00:00:00","postcodeFull":"LS24 8JS","propertyType":"Detached","oldOrNew":"Established","duration":"Freehold","paon":"7","saon":"","street":"TURNPIKE ROAD","locality":"TADCASTER","townOrCity":"TADCASTER","district":"SELBY","county":"NORTH YORKSHIRE","ppdCategoryType":"Standard","recordStatus":"Addition","latitude":53.890768,"longitude":-1.245015,"postcodeStart":"LS24 8","postcode":["LS24","8JS"]}
{"price":52000,"dateOfTransfer":"1997-07-18T00:00:00","postcodeFull":"LS24 8HW","propertyType":"Detached","oldOrNew":"Established","duration":"Freehold","paon":"14","saon":"","street":"INGLEBY DRIVE","locality":"TADCASTER","townOrCity":"TADCASTER","district":"SELBY","county":"NORTH YORKSHIRE","ppdCategoryType":"Standard","recordStatus":"Addition","latitude":53.889377,"longitude":-1.258583,"postcodeStart":"LS24 8","postcode":["LS24","8HW"]}
{"price":42000,"dateOfTransfer":"1997-07-30T00:00:00","postcodeFull":"LS24 8HU","propertyType":"Detached","oldOrNew":"Established","duration":"Leasehold","paon":"32","saon":"","street":"ROMAN CLOSE","locality":"TADCASTER","townOrCity":"TADCASTER","district":"SELBY","county":"NORTH YORKSHIRE","ppdCategoryType":"Standard","recordStatus":"Addition","latitude":53.887292,"longitude":-1.25833,"postcodeStart":"LS24 8","postcode":["LS24","8HU"]}
{"price":49000,"dateOfTransfer":"1997-02-21T00:00:00","postcodeFull":"LS24 8AS","propertyType":"Semi-detached","oldOrNew":"Established","duration":"Freehold","paon":"88","saon":"","street":"YORK ROAD","locality":"TADCASTER","townOrCity":"TADCASTER","district":"SELBY","county":"NORTH YORKSHIRE","ppdCategoryType":"Standard","recordStatus":"Addition","latitude":53.887861,"longitude":-1.252979,"postcodeStart":"LS24 8","postcode":["LS24","8AS"]}
{"price":84500,"dateOfTransfer":"1997-06-27T00:00:00","postcodeFull":"LS24 8HY","propertyType":"Detached","oldOrNew":"Established","duration":"Freehold","paon":"12","saon":"","street":"PROSPECT COURT","locality":"TADCASTER","townOrCity":"TADCASTER","district":"SELBY","county":"NORTH YORKSHIRE","ppdCategoryType":"Standard","recordStatus":"Addition","latitude":53.889479,"longitude":-1.255887,"postcodeStart":"LS24 8","postcode":["LS24","8HY"]}
{"price":59000,"dateOfTransfer":"1997-05-02T00:00:00","postcodeFull":"LS24 8JF","propertyType":"Terraced","oldOrNew":"Established","duration":"Freehold","paon":"13","saon":"","street":"HUDSON WAY","locality":"TADCASTER","townOrCity":"TADCASTER","district":"SELBY","county":"NORTH YORKSHIRE","ppdCategoryType":"Standard","recordStatus":"Addition","latitude":53.890023,"longitude":-1.258084,"postcodeStart":"LS24 8","postcode":["LS24","8JF"]}
{"price":58000,"dateOfTransfer":"1997-06-27T00:00:00","postcodeFull":"LS24 8JX","propertyType":"Detached","oldOrNew":"Established","duration":"Freehold","paon":"14","saon":"","street":"EASTFIELD CLOSE","locality":"TADCASTER","townOrCity":"TADCASTER","district":"SELBY","county":"NORTH YORKSHIRE","ppdCategoryType":"Standard","recordStatus":"Addition","latitude":53.890486,"longitude":-1.245964,"postcodeStart":"LS24 8","postcode":["LS24","8JX"]}
{"price":49500,"dateOfTransfer":"1997-01-24T00:00:00","postcodeFull":"LS24 8AW","propertyType":"Semi-detached","oldOrNew":"Established","duration":"Freehold","paon":"2A","saon":"","street":"SANDFIELD TERRACE","locality":"TADCASTER","townOrCity":"TADCASTER","district":"SELBY","county":"NORTH YORKSHIRE","ppdCategoryType":"Standard","recordStatus":"Addition","latitude":53.887244,"longitude":-1.253584,"postcodeStart":"LS24 8","postcode":["LS24","8AW"]}
{"price":83000,"dateOfTransfer":"1997-11-13T00:00:00","postcodeFull":"LS24 8JX","propertyType":"Detached","oldOrNew":"Established","duration":"Freehold","paon":"19","saon":"","street":"EASTFIELD CLOSE","locality":"TADCASTER","townOrCity":"TADCASTER","district":"SELBY","county":"NORTH YORKSHIRE","ppdCategoryType":"Standard","recordStatus":"Addition","latitude":53.890486,"longitude":-1.245964,"postcodeStart":"LS24 8","postcode":["LS24","8JX"]}
{"price":58500,"dateOfTransfer":"1997-06-20T00:00:00","postcodeFull":"LS24 8AN","propertyType":"Semi-detached","oldOrNew":"Established","duration":"Freehold","paon":"43","saon":"","street":"GRANGE AVENUE","locality":"TADCASTER","townOrCity":"TADCASTER","district":"SELBY","county":"NORTH YORKSHIRE","ppdCategoryType":"Standard","recordStatus":"Addition","latitude":53.886509,"longitude":-1.253916,"postcodeStart":"LS24 8","postcode":["LS24","8AN"]}
{"price":54000,"dateOfTransfer":"1997-11-28T00:00:00","postcodeFull":"LS24 8LZ","propertyType":"Semi-detached","oldOrNew":"Established","duration":"Freehold","paon":"1","saon":"","street":"MEADOW RISE","locality":"TADCASTER","townOrCity":"TADCASTER","district":"SELBY","county":"NORTH YORKSHIRE","ppdCategoryType":"Standard","recordStatus":"Addition","latitude":53.889538,"longitude":-1.252463,"postcodeStart":"LS24 8","postcode":["LS24","8LZ"]}
{"price":110000,"dateOfTransfer":"1997-05-02T00:00:00","postcodeFull":"LS24 8HY","propertyType":"Detached","oldOrNew":"Established","duration":"Freehold","paon":"6","saon":"","street":"PROSPECT COURT","locality":"TADCASTER","townOrCity":"TADCASTER","district":"SELBY","county":"NORTH YORKSHIRE","ppdCategoryType":"Standard","recordStatus":"Addition","latitude":53.889479,"longitude":-1.255887,"postcodeStart":"LS24 8","postcode":["LS24","8HY"]}
{"price":80000,"dateOfTransfer":"1997-06-05T00:00:00","postcodeFull":"LS24 8EZ","propertyType":"Detached","oldOrNew":"Established","duration":"Freehold","paon":"10","saon":"","street":"HEATHERDENE","locality":"TADCASTER","townOrCity":"TADCASTER","district":"SELBY","county":"NORTH YORKSHIRE","ppdCategoryType":"Standard","recordStatus":"Addition","latitude":53.888522,"longitude":-1.261016,"postcodeStart":"LS24 8","postcode":["LS24","8EZ"]}
{"price":98500,"dateOfTransfer":"1997-10-14T00:00:00","postcodeFull":"LS24 8DW","propertyType":"Detached","oldOrNew":"Established","duration":"Freehold","paon":"15","saon":"","street":"PARKLAND DRIVE","locality":"TADCASTER","townOrCity":"TADCASTER","district":"SELBY","county":"NORTH YORKSHIRE","ppdCategoryType":"Standard","recordStatus":"Addition","latitude":53.888998,"longitude":-1.253796,"postcodeStart":"LS24 8","postcode":["LS24","8DW"]}
{"price":92000,"dateOfTransfer":"1997-07-30T00:00:00","postcodeFull":"LS24 8DW","propertyType":"Detached","oldOrNew":"Established","duration":"Freehold","paon":"36","saon":"","street":"PARKLAND DRIVE","locality":"TADCASTER","townOrCity":"TADCASTER","district":"SELBY","county":"NORTH YORKSHIRE","ppdCategoryType":"Standard","recordStatus":"Addition","latitude":53.888998,"longitude":-1.253796,"postcodeStart":"LS24 8","postcode":["LS24","8DW"]}
{"price":121000,"dateOfTransfer":"1997-04-25T00:00:00","postcodeFull":"LS24 8HE","propertyType":"Detached","oldOrNew":"Established","duration":"Freehold","paon":"116","saon":"","street":"WIGHILL LANE","locality":"TADCASTER","townOrCity":"TADCASTER","district":"SELBY","county":"NORTH YORKSHIRE","ppdCategoryType":"Standard","recordStatus":"Addition","latitude":53.891009,"longitude":-1.262038,"postcodeStart":"LS24 8","postcode":["LS24","8HE"]}
{"price":49000,"dateOfTransfer":"1997-06-27T00:00:00","postcodeFull":"LS24 8BB","propertyType":"Terraced","oldOrNew":"Established","duration":"Freehold","paon":"20","saon":"","street":"FIELD DRIVE","locality":"TADCASTER","townOrCity":"TADCASTER","district":"SELBY","county":"NORTH YORKSHIRE","ppdCategoryType":"Standard","recordStatus":"Addition","latitude":53.890572,"longitude":-1.247058,"postcodeStart":"LS24 8","postcode":["LS24","8BB"]}
{"price":42000,"dateOfTransfer":"1997-08-27T00:00:00","postcodeFull":"LS24 8NA","propertyType":"Terraced","oldOrNew":"Established","duration":"Freehold","paon":"9","saon":"","street":"MEADOW WAY","locality":"TADCASTER","townOrCity":"TADCASTER","district":"SELBY","county":"NORTH YORKSHIRE","ppdCategoryType":"Standard","recordStatus":"Addition","latitude":53.888664,"longitude":-1.253467,"postcodeStart":"LS24 8","postcode":["LS24","8NA"]}
{"price":42500,"dateOfTransfer":"1997-06-20T00:00:00","postcodeFull":"LS24 8AR","propertyType":"Terraced","oldOrNew":"Established","duration":"Freehold","paon":"75","saon":"","street":"YORK ROAD","locality":"TADCASTER","townOrCity":"TADCASTER","district":"SELBY","county":"NORTH YORKSHIRE","ppdCategoryType":"Standard","recordStatus":"Addition","latitude":53.888131,"longitude":-1.253081,"postcodeStart":"LS24 8","postcode":["LS24","8AR"]}
{"price":36000,"dateOfTransfer":"1997-06-13T00:00:00","postcodeFull":"LS24 8AR","propertyType":"Terraced","oldOrNew":"Established","duration":"Freehold","paon":"65","saon":"","street":"YORK ROAD","locality":"TADCASTER","townOrCity":"TADCASTER","district":"SELBY","county":"NORTH YORKSHIRE","ppdCategoryType":"Standard","recordStatus":"Addition","latitude":53.888131,"longitude":-1.253081,"postcodeStart":"LS24 8","postcode":["LS24","8AR"]}
{"price":107000,"dateOfTransfer":"1997-09-15T00:00:00","postcodeFull":"LS24 8DW","propertyType":"Detached","oldOrNew":"Established","duration":"Freehold","paon":"38","saon":"","street":"PARKLAND DRIVE","locality":"TADCASTER","townOrCity":"TADCASTER","district":"SELBY","county":"NORTH YORKSHIRE","ppdCategoryType":"Standard","recordStatus":"Addition","latitude":53.888998,"longitude":-1.253796,"postcodeStart":"LS24 8","postcode":["LS24","8DW"]}
{"price":117000,"dateOfTransfer":"1997-12-19T00:00:00","postcodeFull":"LS24 8DH","propertyType":"Semi-detached","oldOrNew":"Established","duration":"Freehold","paon":"PLUM TREE COTTAGE","saon":"","street":"","locality":"CATTERTON","townOrCity":"TADCASTER","district":"SELBY","county":"NORTH YORKSHIRE","ppdCategoryType":"Standard","recordStatus":"Addition","latitude":53.906566,"longitude":-1.224693,"postcodeStart":"LS24 8","postcode":["LS24","8DH"]}
{"price":55000,"dateOfTransfer":"1997-09-05T00:00:00","postcodeFull":"LS24 8DW","propertyType":"Semi-detached","oldOrNew":"Established","duration":"Freehold","paon":"39","saon":"","street":"PARKLAND DRIVE","locality":"TADCASTER","townOrCity":"TADCASTER","district":"SELBY","county":"NORTH YORKSHIRE","ppdCategoryType":"Standard","recordStatus":"Addition","latitude":53.888998,"longitude":-1.253796,"postcodeStart":"LS24 8","postcode":["LS24","8DW"]}
{"price":40000,"dateOfTransfer":"1997-11-13T00:00:00","postcodeFull":"LS24 8HT","propertyType":"Flat/Maisonette/Townhouse","oldOrNew":"Established","duration":"Leasehold","paon":"12","saon":"","street":"ROCKCLIFFE COURT","locality":"TADCASTER","townOrCity":"TADCASTER","district":"SELBY","county":"NORTH YORKSHIRE","ppdCategoryType":"Standard","recordStatus":"Addition","latitude":53.88707,"longitude":-1.25876,"postcodeStart":"LS24 8","postcode":["LS24","8HT"]}
{"price":50000,"dateOfTransfer":"1997-06-20T00:00:00","postcodeFull":"LS24 8DP","propertyType":"Semi-detached","oldOrNew":"Established","duration":"Freehold","paon":"2","saon":"","street":"OUSTON VILLAS","locality":"TADCASTER","townOrCity":"TADCASTER","district":"SELBY","county":"NORTH YORKSHIRE","ppdCategoryType":"Standard","recordStatus":"Addition","latitude":53.883537,"longitude":-1.25438,"postcodeStart":"LS24 8","postcode":["LS24","8DP"]}
{"price":58000,"dateOfTransfer":"1998-09-30T00:00:00","postcodeFull":"LS24 8AN","propertyType":"Semi-detached","oldOrNew":"Established","duration":"Freehold","paon":"43","saon":"","street":"GRANGE AVENUE","locality":"TADCASTER","townOrCity":"TADCASTER","district":"SELBY","county":"NORTH YORKSHIRE","ppdCategoryType":"Standard","recordStatus":"Addition","latitude":53.886509,"longitude":-1.253916,"postcodeStart":"LS24 8","postcode":["LS24","8AN"]}
{"price":68000,"dateOfTransfer":"1998-06-03T00:00:00","postcodeFull":"LS24 8HW","propertyType":"Semi-detached","oldOrNew":"Established","duration":"Freehold","paon":"35","saon":"","street":"INGLEBY DRIVE","locality":"TADCASTER","townOrCity":"TADCASTER","district":"SELBY","county":"NORTH YORKSHIRE","ppdCategoryType":"Standard","recordStatus":"Addition","latitude":53.889377,"longitude":-1.258583,"postcodeStart":"LS24 8","postcode":["LS24","8HW"]}
{"price":55000,"dateOfTransfer":"1998-07-10T00:00:00","postcodeFull":"LS24 8AX","propertyType":"Semi-detached","oldOrNew":"Established","duration":"Freehold","paon":"16","saon":"","street":"AUSTER BANK ROAD","locality":"TADCASTER","townOrCity":"TADCASTER","district":"SELBY","county":"NORTH YORKSHIRE","ppdCategoryType":"Standard","recordStatus":"Addition","latitude":53.889607,"longitude":-1.249038,"postcodeStart":"LS24 8","postcode":["LS24","8AX"]}
{"price":52000,"dateOfTransfer":"1998-07-02T00:00:00","postcodeFull":"LS24 8AX","propertyType":"Semi-detached","oldOrNew":"Established","duration":"Freehold","paon":"7","saon":"","street":"AUSTER BANK ROAD","locality":"TADCASTER","townOrCity":"TADCASTER","district":"SELBY","county":"NORTH YORKSHIRE","ppdCategoryType":"Standard","recordStatus":"Addition","latitude":53.889607,"longitude":-1.249038,"postcodeStart":"LS24 8","postcode":["LS24","8AX"]}
{"price":48000,"dateOfTransfer":"1998-07-06T00:00:00","postcodeFull":"LS24 8AQ","propertyType":"Semi-detached","oldOrNew":"Established","duration":"Freehold","paon":"19","saon":"","street":"GRANGE CRESCENT","locality":"TADCASTER","townOrCity":"TADCASTER","district":"SELBY","county":"NORTH YORKSHIRE","ppdCategoryType":"Standard","recordStatus":"Addition","latitude":53.885593,"longitude":-1.256854,"postcodeStart":"LS24 8","postcode":["LS24","8AQ"]}
{"price":46500,"dateOfTransfer":"1998-03-06T00:00:00","postcodeFull":"LS24 8AW","propertyType":"Terraced","oldOrNew":"Established","duration":"Freehold","paon":"22","saon":"","street":"SANDFIELD TERRACE","locality":"TADCASTER","townOrCity":"TADCASTER","district":"SELBY","county":"NORTH YORKSHIRE","ppdCategoryType":"Standard","recordStatus":"Addition","latitude":53.887244,"longitude":-1.253584,"postcodeStart":"LS24 8","postcode":["LS24","8AW"]}
{"price":46500,"dateOfTransfer":"1998-11-27T00:00:00","postcodeFull":"LS24 8AD","propertyType":"Terraced","oldOrNew":"Established","duration":"Freehold","paon":"13","saon":"","street":"SPRING HILL","locality":"TADCASTER","townOrCity":"TADCASTER","district":"SELBY","county":"NORTH YORKSHIRE","ppdCategoryType":"Standard","recordStatus":"Addition","latitude":53.886373,"longitude":-1.258093,"postcodeStart":"LS24 8","postcode":["LS24","8AD"]}
{"price":6000,"dateOfTransfer":"1998-12-23T00:00:00","postcodeFull":"LS24 8AU","propertyType":"Terraced","oldOrNew":"Established","duration":"Freehold","paon":"143","saon":"","street":"YORK ROAD","locality":"TADCASTER","townOrCity":"TADCASTER","district":"SELBY","county":"NORTH YORKSHIRE","ppdCategoryType":"Standard","recordStatus":"Addition","latitude":53.889152,"longitude":-1.248194,"postcodeStart":"LS24 8","postcode":["LS24","8AU"]}
{"price":58500,"dateOfTransfer":"1998-07-10T00:00:00","postcodeFull":"LS24 8DW","propertyType":"Semi-detached","oldOrNew":"Established","duration":"Freehold","paon":"56","saon":"","street":"PARKLAND DRIVE","locality":"TADCASTER","townOrCity":"TADCASTER","district":"SELBY","county":"NORTH YORKSHIRE","ppdCategoryType":"Standard","recordStatus":"Addition","latitude":53.888998,"longitude":-1.253796,"postcodeStart":"LS24 8","postcode":["LS24","8DW"]}
{"price":46500,"dateOfTransfer":"1998-08-04T00:00:00","postcodeFull":"LS24 8EX","propertyType":"Terraced","oldOrNew":"Established","duration":"Freehold","paon":"76","saon":"","street":"WIGHILL LANE","locality":"TADCASTER","townOrCity":"TADCASTER","district":"SELBY","county":"NORTH YORKSHIRE","ppdCategoryType":"Standard","recordStatus":"Addition","latitude":53.888396,"longitude":-1.259604,"postcodeStart":"LS24 8","postcode":["LS24","8EX"]}
{"price":56000,"dateOfTransfer":"1998-02-27T00:00:00","postcodeFull":"LS24 8LZ","propertyType":"Semi-detached","oldOrNew":"Established","duration":"Freehold","paon":"2","saon":"","street":"MEADOW RISE","locality":"TADCASTER","townOrCity":"TADCASTER","district":"SELBY","county":"NORTH YORKSHIRE","ppdCategoryType":"Standard","recordStatus":"Addition","latitude":53.889538,"longitude":-1.252463,"postcodeStart":"LS24 8","postcode":["LS24","8LZ"]}
{"price":45000,"dateOfTransfer":"1998-07-10T00:00:00","postcodeFull":"LS24 8HS","propertyType":"Terraced","oldOrNew":"Established","duration":"Freehold","paon":"1","saon":"","street":"ROSEMARY ROW","locality":"TADCASTER","townOrCity":"TADCASTER","district":"SELBY","county":"NORTH YORKSHIRE","ppdCategoryType":"Standard","recordStatus":"Addition","latitude":53.887281,"longitude":-1.259562,"postcodeStart":"LS24 8","postcode":["LS24","8HS"]}
{"price":49950,"dateOfTransfer":"1998-05-29T00:00:00","postcodeFull":"LS24 8AF","propertyType":"Terraced","oldOrNew":"Established","duration":"Freehold","paon":"42","saon":"","street":"YORK ROAD","locality":"TADCASTER","townOrCity":"TADCASTER","district":"SELBY","county":"NORTH YORKSHIRE","ppdCategoryType":"Standard","recordStatus":"Addition","latitude":53.887447,"longitude":-1.255832,"postcodeStart":"LS24 8","postcode":["LS24","8AF"]}
{"price":44500,"dateOfTransfer":"1998-12-04T00:00:00","postcodeFull":"LS24 8AS","propertyType":"Terraced","oldOrNew":"Established","duration":"Freehold","paon":"84","saon":"","street":"YORK ROAD","locality":"TADCASTER","townOrCity":"TADCASTER","district":"SELBY","county":"NORTH YORKSHIRE","ppdCategoryType":"Standard","recordStatus":"Addition","latitude":53.887861,"longitude":-1.252979,"postcodeStart":"LS24 8","postcode":["LS24","8AS"]}
{"price":26250,"dateOfTransfer":"1998-08-10T00:00:00","postcodeFull":"LS24 8HR","propertyType":"Flat/Maisonette/Townhouse","oldOrNew":"Established","duration":"Leasehold","paon":"8","saon":"","street":"ROSEMARY COURT","locality":"TADCASTER","townOrCity":"TADCASTER","district":"SELBY","county":"NORTH YORKSHIRE","ppdCategoryType":"Standard","recordStatus":"Addition","latitude":53.886659,"longitude":-1.259178,"postcodeStart":"LS24 8","postcode":["LS24","8HR"]}
{"price":113750,"dateOfTransfer":"1998-04-16T00:00:00","postcodeFull":"LS24 8JF","propertyType":"Detached","oldOrNew":"Established","duration":"Freehold","paon":"60","saon":"","street":"HUDSON WAY","locality":"TADCASTER","townOrCity":"TADCASTER","district":"SELBY","county":"NORTH YORKSHIRE","ppdCategoryType":"Standard","recordStatus":"Addition","latitude":53.890023,"longitude":-1.258084,"postcodeStart":"LS24 8","postcode":["LS24","8JF"]}
{"price":57000,"dateOfTransfer":"1998-07-06T00:00:00","postcodeFull":"LS24 8AG","propertyType":"Semi-detached","oldOrNew":"Established","duration":"Freehold","paon":"8","saon":"","street":"OXTON LANE","locality":"TADCASTER","townOrCity":"TADCASTER","district":"SELBY","county":"NORTH YORKSHIRE","ppdCategoryType":"Standard","recordStatus":"Addition","latitude":53.885892,"longitude":-1.255723,"postcodeStart":"LS24 8","postcode":["LS24","8AG"]}
{"price":42000,"dateOfTransfer":"1998-11-27T00:00:00","postcodeFull":"LS24 8NA","propertyType":"Semi-detached","oldOrNew":"Established","duration":"Freehold","paon":"11","saon":"","street":"MEADOW WAY","locality":"TADCASTER","townOrCity":"TADCASTER","district":"SELBY","county":"NORTH YORKSHIRE","ppdCategoryType":"Standard","recordStatus":"Addition","latitude":53.888664,"longitude":-1.253467,"postcodeStart":"LS24 8","postcode":["LS24","8NA"]}
{"price":57995,"dateOfTransfer":"1998-12-04T00:00:00","postcodeFull":"LS24 8AE","propertyType":"Terraced","oldOrNew":"Established","duration":"Freehold","paon":"43","saon":"","street":"YORK ROAD","locality":"TADCASTER","townOrCity":"TADCASTER","district":"SELBY","county":"NORTH YORKSHIRE","ppdCategoryType":"Standard","recordStatus":"Addition","latitude":53.887839,"longitude":-1.255216,"postcodeStart":"LS24 8","postcode":["LS24","8AE"]}
{"price":91250,"dateOfTransfer":"1998-08-14T00:00:00","postcodeFull":"LS24 8HY","propertyType":"Detached","oldOrNew":"Established","duration":"Freehold","paon":"4","saon":"","street":"PROSPECT COURT","locality":"TADCASTER","townOrCity":"TADCASTER","district":"SELBY","county":"NORTH YORKSHIRE","ppdCategoryType":"Standard","recordStatus":"Addition","latitude":53.889479,"longitude":-1.255887,"postcodeStart":"LS24 8","postcode":["LS24","8HY"]}
{"price":60000,"dateOfTransfer":"1998-03-23T00:00:00","postcodeFull":"LS24 8JQ","propertyType":"Detached","oldOrNew":"New build","duration":"Freehold","paon":"4","saon":"","street":"OLD LANE COURT","locality":"COLTON","townOrCity":"TADCASTER","district":"SELBY","county":"NORTH YORKSHIRE","ppdCategoryType":"Standard","recordStatus":"Addition","latitude":53.897101,"longitude":-1.174837,"postcodeStart":"LS24 8","postcode":["LS24","8JQ"]}
{"price":200000,"dateOfTransfer":"1998-04-27T00:00:00","postcodeFull":"LS24 8JQ","propertyType":"Semi-detached","oldOrNew":"New build","duration":"Freehold","paon":"5","saon":"","street":"OLD LANE COURT","locality":"COLTON","townOrCity":"TADCASTER","district":"SELBY","county":"NORTH YORKSHIRE","ppdCategoryType":"Standard","recordStatus":"Addition","latitude":53.897101,"longitude":-1.174837,"postcodeStart":"LS24 8","postcode":["LS24","8JQ"]}
{"price":56500,"dateOfTransfer":"1998-04-17T00:00:00","postcodeFull":"LS24 8DW","propertyType":"Terraced","oldOrNew":"Established","duration":"Freehold","paon":"32","saon":"","street":"PARKLAND DRIVE","locality":"TADCASTER","townOrCity":"TADCASTER","district":"SELBY","county":"NORTH YORKSHIRE","ppdCategoryType":"Standard","recordStatus":"Addition","latitude":53.888998,"longitude":-1.253796,"postcodeStart":"LS24 8","postcode":["LS24","8DW"]}
{"price":55000,"dateOfTransfer":"1998-10-02T00:00:00","postcodeFull":"LS24 8AN","propertyType":"Semi-detached","oldOrNew":"Established","duration":"Freehold","paon":"26","saon":"","street":"GRANGE AVENUE","locality":"TADCASTER","townOrCity":"TADCASTER","district":"SELBY","county":"NORTH YORKSHIRE","ppdCategoryType":"Standard","recordStatus":"Addition","latitude":53.886509,"longitude":-1.253916,"postcodeStart":"LS24 8","postcode":["LS24","8AN"]}
{"price":45000,"dateOfTransfer":"1998-03-27T00:00:00","postcodeFull":"LS24 8AW","propertyType":"Terraced","oldOrNew":"Established","duration":"Freehold","paon":"1","saon":"","street":"SANDFIELD TERRACE","locality":"TADCASTER","townOrCity":"TADCASTER","district":"SELBY","county":"NORTH YORKSHIRE","ppdCategoryType":"Standard","recordStatus":"Addition","latitude":53.887244,"longitude":-1.253584,"postcodeStart":"LS24 8","postcode":["LS24","8AW"]}
{"price":34500,"dateOfTransfer":"1998-10-28T00:00:00","postcodeFull":"LS24 8JF","propertyType":"Detached","oldOrNew":"Established","duration":"Freehold","paon":"44","saon":"","street":"HUDSON WAY","locality":"TADCASTER","townOrCity":"TADCASTER","district":"SELBY","county":"NORTH YORKSHIRE","ppdCategoryType":"Standard","recordStatus":"Addition","latitude":53.890023,"longitude":-1.258084,"postcodeStart":"LS24 8","postcode":["LS24","8JF"]}
{"price":128000,"dateOfTransfer":"1998-06-17T00:00:00","postcodeFull":"LS24 8AU","propertyType":"Detached","oldOrNew":"Established","duration":"Freehold","paon":"107A","saon":"","street":"YORK ROAD","locality":"TADCASTER","townOrCity":"TADCASTER","district":"SELBY","county":"NORTH YORKSHIRE","ppdCategoryType":"Standard","recordStatus":"Addition","latitude":53.889152,"longitude":-1.248194,"postcodeStart":"LS24 8","postcode":["LS24","8AU"]}
{"price":41500,"dateOfTransfer":"1998-04-09T00:00:00","postcodeFull":"LS24 8AR","propertyType":"Terraced","oldOrNew":"Established","duration":"Freehold","paon":"77","saon":"","street":"YORK ROAD","locality":"TADCASTER","townOrCity":"TADCASTER","district":"SELBY","county":"NORTH YORKSHIRE","ppdCategoryType":"Standard","recordStatus":"Addition","latitude":53.888131,"longitude":-1.253081,"postcodeStart":"LS24 8","postcode":["LS24","8AR"]}
{"price":47000,"dateOfTransfer":"1998-08-07T00:00:00","postcodeFull":"LS24 8AW","propertyType":"Semi-detached","oldOrNew":"Established","duration":"Freehold","paon":"6","saon":"","street":"SANDFIELD TERRACE","locality":"TADCASTER","townOrCity":"TADCASTER","district":"SELBY","county":"NORTH YORKSHIRE","ppdCategoryType":"Standard","recordStatus":"Addition","latitude":53.887244,"longitude":-1.253584,"postcodeStart":"LS24 8","postcode":["LS24","8AW"]}
{"price":90000,"dateOfTransfer":"1998-07-10T00:00:00","postcodeFull":"LS24 8EP","propertyType":"Detached","oldOrNew":"Established","duration":"Freehold","paon":"THE MEADOWS","saon":"","street":"","locality":"COLTON","townOrCity":"TADCASTER","district":"SELBY","county":"NORTH YORKSHIRE","ppdCategoryType":"Standard","recordStatus":"Addition","latitude":53.896646,"longitude":-1.175333,"postcodeStart":"LS24 8","postcode":["LS24","8EP"]}
{"price":47000,"dateOfTransfer":"1998-03-13T00:00:00","postcodeFull":"LS24 8EX","propertyType":"Terraced","oldOrNew":"Established","duration":"Freehold","paon":"66","saon":"","street":"WIGHILL LANE","locality":"TADCASTER","townOrCity":"TADCASTER","district":"SELBY","county":"NORTH YORKSHIRE","ppdCategoryType":"Standard","recordStatus":"Addition","latitude":53.888396,"longitude":-1.259604,"postcodeStart":"LS24 8","postcode":["LS24","8EX"]}
{"price":47500,"dateOfTransfer":"1998-01-30T00:00:00","postcodeFull":"LS24 8AH","propertyType":"Semi-detached","oldOrNew":"Established","duration":"Freehold","paon":"15","saon":"","street":"OXTON DRIVE","locality":"TADCASTER","townOrCity":"TADCASTER","district":"SELBY","county":"NORTH YORKSHIRE","ppdCategoryType":"Standard","recordStatus":"Addition","latitude":53.8844,"longitude":-1.252889,"postcodeStart":"LS24 8","postcode":["LS24","8AH"]}
{"price":22000,"dateOfTransfer":"1998-07-03T00:00:00","postcodeFull":"LS24 8AR","propertyType":"Terraced","oldOrNew":"Established","duration":"Freehold","paon":"83","saon":"","street":"YORK ROAD","locality":"","townOrCity":"TADCASTER","district":"SELBY","county":"NORTH YORKSHIRE","ppdCategoryType":"Standard","recordStatus":"Addition","latitude":53.888131,"longitude":-1.253081,"postcodeStart":"LS24 8","postcode":["LS24","8AR"]}
{"price":123000,"dateOfTransfer":"1998-12-23T00:00:00","postcodeFull":"LS24 8JS","propertyType":"Detached","oldOrNew":"Established","duration":"Freehold","paon":"1","saon":"","street":"TURNPIKE ROAD","locality":"TADCASTER","townOrCity":"TADCASTER","district":"SELBY","county":"NORTH YORKSHIRE","ppdCategoryType":"Standard","recordStatus":"Addition","latitude":53.890768,"longitude":-1.245015,"postcodeStart":"LS24 8","postcode":["LS24","8JS"]}
{"price":42000,"dateOfTransfer":"1998-01-30T00:00:00","postcodeFull":"LS24 8HU","propertyType":"Flat/Maisonette/Townhouse","oldOrNew":"Established","duration":"Leasehold","paon":"1","saon":"","street":"ROMAN CLOSE","locality":"TADCASTER","townOrCity":"TADCASTER","district":"SELBY","county":"NORTH YORKSHIRE","ppdCategoryType":"Standard","recordStatus":"Addition","latitude":53.887292,"longitude":-1.25833,"postcodeStart":"LS24 8","postcode":["LS24","8HU"]}
{"price":345000,"dateOfTransfer":"1998-07-15T00:00:00","postcodeFull":"LS24 8BQ","propertyType":"Detached","oldOrNew":"Established","duration":"Freehold","paon":"FLAXMILL","saon":"","street":"MAIN STREET","locality":"WIGHILL","townOrCity":"TADCASTER","district":"HARROGATE","county":"NORTH YORKSHIRE","ppdCategoryType":"Standard","recordStatus":"Addition","latitude":53.916046,"longitude":-1.276197,"postcodeStart":"LS24 8","postcode":["LS24","8BQ"]}
{"price":245000,"dateOfTransfer":"1998-02-27T00:00:00","postcodeFull":"LS24 8BZ","propertyType":"Detached","oldOrNew":"Established","duration":"Freehold","paon":"WIGHILL LANE FARM","saon":"","street":"WIGHILL LANE","locality":"HEALAUGH","townOrCity":"TADCASTER","district":"SELBY","county":"NORTH YORKSHIRE","ppdCategoryType":"Standard","recordStatus":"Addition","latitude":53.922991,"longitude":-1.243688,"postcodeStart":"LS24 8","postcode":["LS24","8BZ"]}
{"price":85000,"dateOfTransfer":"1998-08-07T00:00:00","postcodeFull":"LS24 8JT","propertyType":"Detached","oldOrNew":"Established","duration":"Freehold","paon":"7","saon":"","street":"TOLL BAR WAY","locality":"TADCASTER","townOrCity":"TADCASTER","district":"SELBY","county":"NORTH YORKSHIRE","ppdCategoryType":"Standard","recordStatus":"Addition","latitude":53.890642,"longitude":-1.243618,"postcodeStart":"LS24 8","postcode":["LS24","8JT"]}
{"price":55000,"dateOfTransfer":"1998-11-19T00:00:00","postcodeFull":"LS24 8AY","propertyType":"Semi-detached","oldOrNew":"Established","duration":"Freehold","paon":"16","saon":"","street":"AUSTER BANK CRESCENT","locality":"TADCASTER","townOrCity":"TADCASTER","district":"SELBY","county":"NORTH YORKSHIRE","ppdCategoryType":"Standard","recordStatus":"Addition","latitude":53.889177,"longitude":-1.250704,"postcodeStart":"LS24 8","postcode":["LS24","8AY"]}
{"price":24780,"dateOfTransfer":"1998-06-29T00:00:00","postcodeFull":"LS24 8AU","propertyType":"Terraced","oldOrNew":"Established","duration":"Freehold","paon":"147","saon":"","street":"YORK ROAD","locality":"TADCASTER","townOrCity":"TADCASTER","district":"SELBY","county":"NORTH YORKSHIRE","ppdCategoryType":"Standard","recordStatus":"Addition","latitude":53.889152,"longitude":-1.248194,"postcodeStart":"LS24 8","postcode":["LS24","8AU"]}
{"price":59000,"dateOfTransfer":"1998-06-12T00:00:00","postcodeFull":"LS24 8DG","propertyType":"Semi-detached","oldOrNew":"Established","duration":"Freehold","paon":"4","saon":"","street":"SOUTH VIEW","locality":"HEALAUGH","townOrCity":"TADCASTER","district":"SELBY","county":"NORTH YORKSHIRE","ppdCategoryType":"Standard","recordStatus":"Addition","latitude":53.921094,"longitude":-1.237891,"postcodeStart":"LS24 8","postcode":["LS24","8DG"]}
{"price":60000,"dateOfTransfer":"1998-05-08T00:00:00","postcodeFull":"LS24 8HJ","propertyType":"Semi-detached","oldOrNew":"Established","duration":"Freehold","paon":"19","saon":"","street":"PROSPECT DRIVE","locality":"TADCASTER","townOrCity":"TADCASTER","district":"SELBY","county":"NORTH YORKSHIRE","ppdCategoryType":"Standard","recordStatus":"Addition","latitude":53.888791,"longitude":-1.25809,"postcodeStart":"LS24 8","postcode":["LS24","8HJ"]}
{"price":74500,"dateOfTransfer":"1998-11-13T00:00:00","postcodeFull":"LS24 8DP","propertyType":"Flat/Maisonette/Townhouse","oldOrNew":"Established","duration":"Leasehold","paon":"BEECHGROVE HOUSE","saon":"FLAT 5","street":"OUSTON LANE","locality":"TADCASTER","townOrCity":"TADCASTER","district":"SELBY","county":"NORTH YORKSHIRE","ppdCategoryType":"Standard","recordStatus":"Addition","latitude":53.883537,"longitude":-1.25438,"postcodeStart":"LS24 8","postcode":["LS24","8DP"]}
{"price":35000,"dateOfTransfer":"1998-04-27T00:00:00","postcodeFull":"LS24 8HU","propertyType":"Flat/Maisonette/Townhouse","oldOrNew":"Established","duration":"Leasehold","paon":"26","saon":"","street":"ROMAN CLOSE","locality":"TADCASTER","townOrCity":"TADCASTER","district":"SELBY","county":"NORTH YORKSHIRE","ppdCategoryType":"Standard","recordStatus":"Addition","latitude":53.887292,"longitude":-1.25833,"postcodeStart":"LS24 8","postcode":["LS24","8HU"]}
{"price":43000,"dateOfTransfer":"1998-11-13T00:00:00","postcodeFull":"LS24 8HU","propertyType":"Flat/Maisonette/Townhouse","oldOrNew":"Established","duration":"Leasehold","paon":"5","saon":"","street":"ROMAN CLOSE","locality":"TADCASTER","townOrCity":"TADCASTER","district":"SELBY","county":"NORTH YORKSHIRE","ppdCategoryType":"Standard","recordStatus":"Addition","latitude":53.887292,"longitude":-1.25833,"postcodeStart":"LS24 8","postcode":["LS24","8HU"]}
{"price":57000,"dateOfTransfer":"1998-06-15T00:00:00","postcodeFull":"LS24 8AE","propertyType":"Semi-detached","oldOrNew":"Established","duration":"Freehold","paon":"37","saon":"","street":"YORK ROAD","locality":"TADCASTER","townOrCity":"TADCASTER","district":"SELBY","county":"NORTH YORKSHIRE","ppdCategoryType":"Standard","recordStatus":"Addition","latitude":53.887839,"longitude":-1.255216,"postcodeStart":"LS24 8","postcode":["LS24","8AE"]}
{"price":42500,"dateOfTransfer":"1998-03-27T00:00:00","postcodeFull":"LS24 8AF","propertyType":"Terraced","oldOrNew":"Established","duration":"Freehold","paon":"28","saon":"","street":"YORK ROAD","locality":"TADCASTER","townOrCity":"TADCASTER","district":"SELBY","county":"NORTH YORKSHIRE","ppdCategoryType":"Standard","recordStatus":"Addition","latitude":53.887447,"longitude":-1.255832,"postcodeStart":"LS24 8","postcode":["LS24","8AF"]}
{"price":57000,"dateOfTransfer":"1998-01-23T00:00:00","postcodeFull":"LS24 8JF","propertyType":"Semi-detached","oldOrNew":"Established","duration":"Freehold","paon":"24","saon":"","street":"HUDSON WAY","locality":"TADCASTER","townOrCity":"TADCASTER","district":"SELBY","county":"NORTH YORKSHIRE","ppdCategoryType":"Standard","recordStatus":"Addition","latitude":53.890023,"longitude":-1.258084,"postcodeStart":"LS24 8","postcode":["LS24","8JF"]}
{"price":42500,"dateOfTransfer":"1998-08-14T00:00:00","postcodeFull":"LS24 8AP","propertyType":"Terraced","oldOrNew":"Established","duration":"Freehold","paon":"7","saon":"","street":"MAYFIELD TERRACE","locality":"TADCASTER","townOrCity":"TADCASTER","district":"SELBY","county":"NORTH YORKSHIRE","ppdCategoryType":"Standard","recordStatus":"Addition","latitude":53.888287,"longitude":-1.253611,"postcodeStart":"LS24 8","postcode":["LS24","8AP"]}
