{"price":30000,"dateOfTransfer":"1995-03-02T00:00:00","postcodeFull":"M28 3DN","propertyType":"Semi-detached","oldOrNew":"Established","duration":"Leasehold","paon":"17","saon":"","street":"BLANTYRE AVENUE","locality":"WORSLEY","townOrCity":"MANCHESTER","district":"SALFORD","county":"GREATER MANCHESTER","ppdCategoryType":"Standard","recordStatus":"Addition","latitude":53.521226,"longitude":-2.392006,"postcodeStart":"M28 3","postcode":["M28","3DN"]}
{"price":38400,"dateOfTransfer":"1995-09-25T00:00:00","postcodeFull":"M28 3NF","propertyType":"Terraced","oldOrNew":"Established","duration":"Leasehold","paon":"4","saon":"","street":"MOSS LANE","locality":"WORSLEY","townOrCity":"MANCHESTER","district":"SALFORD","county":"GREATER MANCHESTER","ppdCategoryType":"Standard","recordStatus":"Addition","latitude":53.52516,"longitude":-2.381255,"postcodeStart":"M28 3","postcode":["M28","3NF"]}
{"price":57000,"dateOfTransfer":"1995-08-23T00:00:00","postcodeFull":"M28 3GR","propertyType":"Detached","oldOrNew":"New build","duration":"Leasehold","paon":"3","saon":"","street":"BRYONY CLOSE","locality":"WORSLEY","townOrCity":"MANCHESTER","district":"SALFORD","county":"GREATER MANCHESTER","ppdCategoryType":"Standard","recordStatus":"Addition","latitude":53.532052,"longitude":-2.399046,"postcodeStart":"M28 3","postcode":["M28","3GR"]}
{"price":43000,"dateOfTransfer":"1995-05-10T00:00:00","postcodeFull":"M28 3JA","propertyType":"Terraced","oldOrNew":"Established","duration":"Freehold","paon":"11","saon":"","street":"LONGLEY ROAD","locality":"WORSLEY","townOrCity":"MANCHESTER","district":"SALFORD","county":"GREATER MANCHESTER","ppdCategoryType":"Standard","recordStatus":"Addition","latitude":53.522171,"longitude":-2.399677,"postcodeStart":"M28 3","postcode":["M28","3JA"]}
{"price":39950,"dateOfTransfer":"1995-07-14T00:00:00","postcodeFull":"M28 3WT","propertyType":"Terraced","oldOrNew":"Established","duration":"Freehold","paon":"11","saon":"","street":"WHITTLE STREET","locality":"WORSLEY","townOrCity":"MANCHESTER","district":"SALFORD","county":"GREATER MANCHESTER","ppdCategoryType":"Standard","recordStatus":"Addition","latitude":53.523379,"longitude":-2.390351,"postcodeStart":"M28 3","postcode":["M28","3WT"]}
{"price":35000,"dateOfTransfer":"1995-04-19T00:00:00","postcodeFull":"M28 3NX","propertyType":"Terraced","oldOrNew":"Established","duration":"Freehold","paon":"87","saon":"","street":"WHITTLE STREET","locality":"WORSLEY","townOrCity":"MANCHESTER","district":"SALFORD","county":"GREATER MANCHESTER","ppdCategoryType":"Standard","recordStatus":"Addition","latitude":53.525508,"longitude":-2.390884,"postcodeStart":"M28 3","postcode":["M28","3NX"]}
{"price":39500,"dateOfTransfer":"1995-07-10T00:00:00","postcodeFull":"M28 3AL","propertyType":"Semi-detached","oldOrNew":"Established","duration":"Leasehold","paon":"15","saon":"","street":"ST GEORGES CRESCENT","locality":"WORSLEY","townOrCity":"MANCHESTER","district":"SALFORD","county":"GREATER MANCHESTER","ppdCategoryType":"Standard","recordStatus":"Addition","latitude":53.520274,"longitude":-2.399734,"postcodeStart":"M28 3","postcode":["M28","3AL"]}
{"price":44000,"dateOfTransfer":"1995-06-09T00:00:00","postcodeFull":"M28 3FS","propertyType":"Semi-detached","oldOrNew":"Established","duration":"Freehold","paon":"2","saon":"","street":"HOWCLOUGH DRIVE","locality":"WORSLEY","townOrCity":"MANCHESTER","district":"SALFORD","county":"GREATER MANCHESTER","ppdCategoryType":"Standard","recordStatus":"Addition","latitude":53.520172,"longitude":-2.384259,"postcodeStart":"M28 3","postcode":["M28","3FS"]}
{"price":53500,"dateOfTransfer":"1995-04-21T00:00:00","postcodeFull":"M28 3GP","propertyType":"Detached","oldOrNew":"Established","duration":"Leasehold","paon":"6","saon":"","street":"BLACKLEACH DRIVE","locality":"WORSLEY","townOrCity":"MANCHESTER","district":"SALFORD","county":"GREATER MANCHESTER","ppdCategoryType":"Standard","recordStatus":"Addition","latitude":53.532638,"longitude":-2.397782,"postcodeStart":"M28 3","postcode":["M28","3GP"]}
{"price":37000,"dateOfTransfer":"1995-04-19T00:00:00","postcodeFull":"M28 3LH","propertyType":"Terraced","oldOrNew":"Established","duration":"Freehold","paon":"21","saon":"","street":"EGERTON GROVE","locality":"WORSLEY","townOrCity":"MANCHESTER","district":"SALFORD","county":"GREATER MANCHESTER","ppdCategoryType":"Standard","recordStatus":"Addition","latitude":53.525512,"longitude":-2.395258,"postcodeStart":"M28 3","postcode":["M28","3LH"]}
{"price":37000,"dateOfTransfer":"1995-12-21T00:00:00","postcodeFull":"M28 3ZB","propertyType":"Terraced","oldOrNew":"Established","duration":"Leasehold","paon":"7","saon":"","street":"FARNDALE SQUARE","locality":"WORSLEY","townOrCity":"MANCHESTER","district":"SALFORD","county":"GREATER MANCHESTER","ppdCategoryType":"Standard","recordStatus":"Addition","latitude":53.526691,"longitude":-2.405436,"postcodeStart":"M28 3","postcode":["M28","3ZB"]}
{"price":53250,"dateOfTransfer":"1995-07-17T00:00:00","postcodeFull":"M28 3WW","propertyType":"Terraced","oldOrNew":"New build","duration":"Leasehold","paon":"10","saon":"","street":"LINNETS WOOD MEWS","locality":"WORSLEY","townOrCity":"MANCHESTER","district":"SALFORD","county":"GREATER MANCHESTER","ppdCategoryType":"Standard","recordStatus":"Addition","latitude":53.525725,"longitude":-2.387778,"postcodeStart":"M28 3","postcode":["M28","3WW"]}
{"price":47950,"dateOfTransfer":"1995-05-31T00:00:00","postcodeFull":"M28 3AN","propertyType":"Terraced","oldOrNew":"Established","duration":"Freehold","paon":"24","saon":"","street":"ST GEORGES CRESCENT","locality":"WORSLEY","townOrCity":"MANCHESTER","district":"SALFORD","county":"GREATER MANCHESTER","ppdCategoryType":"Standard","recordStatus":"Addition","latitude":53.519861,"longitude":-2.399715,"postcodeStart":"M28 3","postcode":["M28","3AN"]}
{"price":27250,"dateOfTransfer":"1995-12-20T00:00:00","postcodeFull":"M28 3LE","propertyType":"Terraced","oldOrNew":"Established","duration":"Leasehold","paon":"45","saon":"","street":"CECIL STREET","locality":"WORSLEY","townOrCity":"MANCHESTER","district":"SALFORD","county":"GREATER MANCHESTER","ppdCategoryType":"Standard","recordStatus":"Addition","latitude":53.526333,"longitude":-2.39682,"postcodeStart":"M28 3","postcode":["M28","3LE"]}
{"price":48950,"dateOfTransfer":"1995-12-15T00:00:00","postcodeFull":"M28 3WW","propertyType":"Terraced","oldOrNew":"New build","duration":"Leasehold","paon":"12","saon":"","street":"LINNETS WOOD MEWS","locality":"WORSLEY","townOrCity":"MANCHESTER","district":"SALFORD","county":"GREATER MANCHESTER","ppdCategoryType":"Standard","recordStatus":"Addition","latitude":53.525725,"longitude":-2.387778,"postcodeStart":"M28 3","postcode":["M28","3WW"]}
{"price":38000,"dateOfTransfer":"1995-02-17T00:00:00","postcodeFull":"M28 3HF","propertyType":"Flat/Maisonette/Townhouse","oldOrNew":"Established","duration":"Leasehold","paon":"4","saon":"","street":"CAWDOR STREET","locality":"WORSLEY","townOrCity":"MANCHESTER","district":"SALFORD","county":"GREATER MANCHESTER","ppdCategoryType":"Standard","recordStatus":"Addition","latitude":53.52264,"longitude":-2.388052,"postcodeStart":"M28 3","postcode":["M28","3HF"]}
{"price":33000,"dateOfTransfer":"1995-12-15T00:00:00","postcodeFull":"M28 3RR","propertyType":"Semi-detached","oldOrNew":"Established","duration":"Leasehold","paon":"37","saon":"","street":"PORTLAND ROAD","locality":"WORSLEY","townOrCity":"MANCHESTER","district":"SALFORD","county":"GREATER MANCHESTER","ppdCategoryType":"Standard","recordStatus":"Addition","latitude":53.531928,"longitude":-2.406256,"postcodeStart":"M28 3","postcode":["M28","3RR"]}
{"price":34000,"dateOfTransfer":"1995-09-04T00:00:00","postcodeFull":"M28 3GW","propertyType":"Terraced","oldOrNew":"Established","duration":"Leasehold","paon":"56","saon":"","street":"WORSLEY ROAD NORTH","locality":"WORSLEY","townOrCity":"MANCHESTER","district":"SALFORD","county":"GREATER MANCHESTER","ppdCategoryType":"Standard","recordStatus":"Addition","latitude":53.532209,"longitude":-2.400224,"postcodeStart":"M28 3","postcode":["M28","3GW"]}
{"price":34950,"dateOfTransfer":"1995-10-06T00:00:00","postcodeFull":"M28 3SD","propertyType":"Terraced","oldOrNew":"Established","duration":"Leasehold","paon":"1","saon":"","street":"PARSONAGE ROAD","locality":"WORSLEY","townOrCity":"MANCHESTER","district":"SALFORD","county":"GREATER MANCHESTER","ppdCategoryType":"Standard","recordStatus":"Addition","latitude":53.518862,"longitude":-2.404773,"postcodeStart":"M28 3","postcode":["M28","3SD"]}
{"price":38000,"dateOfTransfer":"1995-02-22T00:00:00","postcodeFull":"M28 3HH","propertyType":"Terraced","oldOrNew":"Established","duration":"Leasehold","paon":"277","saon":"","street":"MANCHESTER ROAD","locality":"WORSLEY","townOrCity":"MANCHESTER","district":"SALFORD","county":"GREATER MANCHESTER","ppdCategoryType":"Standard","recordStatus":"Addition","latitude":53.522969,"longitude":-2.383801,"postcodeStart":"M28 3","postcode":["M28","3HH"]}
{"price":39995,"dateOfTransfer":"1995-05-05T00:00:00","postcodeFull":"M28 3AE","propertyType":"Terraced","oldOrNew":"New build","duration":"Leasehold","paon":"52","saon":"","street":"BRIDGEWATER ROAD","locality":"WORSLEY","townOrCity":"MANCHESTER","district":"SALFORD","county":"GREATER MANCHESTER","ppdCategoryType":"Standard","recordStatus":"Addition","latitude":53.519401,"longitude":-2.402773,"postcodeStart":"M28 3","postcode":["M28","3AE"]}
{"price":26000,"dateOfTransfer":"1995-01-27T00:00:00","postcodeFull":"M28 3RW","propertyType":"Semi-detached","oldOrNew":"Established","duration":"Freehold","paon":"21","saon":"","street":"GROSVENOR DRIVE","locality":"WORSLEY","townOrCity":"MANCHESTER","district":"SALFORD","county":"GREATER MANCHESTER","ppdCategoryType":"Standard","recordStatus":"Addition","latitude":53.534051,"longitude":-2.405703,"postcodeStart":"M28 3","postcode":["M28","3RW"]}
{"price":41500,"dateOfTransfer":"1995-11-14T00:00:00","postcodeFull":"M28 3JY","propertyType":"Semi-detached","oldOrNew":"Established","duration":"Leasehold","paon":"40","saon":"","street":"EGERTON ROAD","locality":"WORSLEY","townOrCity":"MANCHESTER","district":"SALFORD","county":"GREATER MANCHESTER","ppdCategoryType":"Standard","recordStatus":"Addition","latitude":53.524589,"longitude":-2.396394,"postcodeStart":"M28 3","postcode":["M28","3JY"]}
{"price":38000,"dateOfTransfer":"1995-12-21T00:00:00","postcodeFull":"M28 3GX","propertyType":"Detached","oldOrNew":"Established","duration":"Leasehold","paon":"89","saon":"","street":"BRACKLEY STREET","locality":"WORSLEY","townOrCity":"MANCHESTER","district":"SALFORD","county":"GREATER MANCHESTER","ppdCategoryType":"Standard","recordStatus":"Addition","latitude":53.528339,"longitude":-2.404472,"postcodeStart":"M28 3","postcode":["M28","3GX"]}
{"price":58500,"dateOfTransfer":"1995-06-23T00:00:00","postcodeFull":"M28 3PN","propertyType":"Semi-detached","oldOrNew":"Established","duration":"Freehold","paon":"5","saon":"","street":"HOPEFOLD DRIVE","locality":"WORSLEY","townOrCity":"MANCHESTER","district":"SALFORD","county":"GREATER MANCHESTER","ppdCategoryType":"Standard","recordStatus":"Addition","latitude":53.521236,"longitude":-2.388854,"postcodeStart":"M28 3","postcode":["M28","3PN"]}
{"price":22000,"dateOfTransfer":"1995-01-20T00:00:00","postcodeFull":"M28 3QU","propertyType":"Terraced","oldOrNew":"Established","duration":"Leasehold","paon":"14","saon":"","street":"DAGMAR STREET","locality":"WORSLEY","townOrCity":"MANCHESTER","district":"SALFORD","county":"GREATER MANCHESTER","ppdCategoryType":"Standard","recordStatus":"Addition","latitude":53.528879,"longitude":-2.401475,"postcodeStart":"M28 3","postcode":["M28","3QU"]}
{"price":53250,"dateOfTransfer":"1995-11-15T00:00:00","postcodeFull":"M28 3WW","propertyType":"Terraced","oldOrNew":"New build","duration":"Leasehold","paon":"15","saon":"","street":"LINNETS WOOD MEWS","locality":"WORSLEY","townOrCity":"MANCHESTER","district":"SALFORD","county":"GREATER MANCHESTER","ppdCategoryType":"Standard","recordStatus":"Addition","latitude":53.525725,"longitude":-2.387778,"postcodeStart":"M28 3","postcode":["M28","3WW"]}
{"price":48000,"dateOfTransfer":"1995-03-31T00:00:00","postcodeFull":"M28 3HS","propertyType":"Semi-detached","oldOrNew":"Established","duration":"Leasehold","paon":"22","saon":"","street":"SPRINGCLOUGH DRIVE","locality":"WORSLEY","townOrCity":"MANCHESTER","district":"SALFORD","county":"GREATER MANCHESTER","ppdCategoryType":"Standard","recordStatus":"Addition","latitude":53.521836,"longitude":-2.384138,"postcodeStart":"M28 3","postcode":["M28","3HS"]}
{"price":29950,"dateOfTransfer":"1995-10-11T00:00:00","postcodeFull":"M28 3AU","propertyType":"Terraced","oldOrNew":"Established","duration":"Freehold","paon":"26","saon":"","street":"HODGE ROAD","locality":"WORSLEY","townOrCity":"MANCHESTER","district":"SALFORD","county":"GREATER MANCHESTER","ppdCategoryType":"Standard","recordStatus":"Addition","latitude":53.521684,"longitude":-2.396925,"postcodeStart":"M28 3","postcode":["M28","3AU"]}
{"price":21000,"dateOfTransfer":"1995-03-17T00:00:00","postcodeFull":"M28 3LE","propertyType":"Terraced","oldOrNew":"Established","duration":"Leasehold","paon":"36","saon":"","street":"CECIL STREET","locality":"WORSLEY","townOrCity":"MANCHESTER","district":"SALFORD","county":"GREATER MANCHESTER","ppdCategoryType":"Standard","recordStatus":"Addition","latitude":53.526333,"longitude":-2.39682,"postcodeStart":"M28 3","postcode":["M28","3LE"]}
{"price":38000,"dateOfTransfer":"1995-12-19T00:00:00","postcodeFull":"M28 3TE","propertyType":"Terraced","oldOrNew":"Established","duration":"Leasehold","paon":"459","saon":"","street":"HILTON LANE","locality":"WORSLEY","townOrCity":"MANCHESTER","district":"SALFORD","county":"GREATER MANCHESTER","ppdCategoryType":"Standard","recordStatus":"Addition","latitude":53.518794,"longitude":-2.406824,"postcodeStart":"M28 3","postcode":["M28","3TE"]}
{"price":39000,"dateOfTransfer":"1995-10-27T00:00:00","postcodeFull":"M28 3DY","propertyType":"Flat/Maisonette/Townhouse","oldOrNew":"Established","duration":"Leasehold","paon":"108","saon":"","street":"WALKDEN ROAD","locality":"WORSLEY","townOrCity":"MANCHESTER","district":"SALFORD","county":"GREATER MANCHESTER","ppdCategoryType":"Standard","recordStatus":"Addition","latitude":53.520385,"longitude":-2.396236,"postcodeStart":"M28 3","postcode":["M28","3DY"]}
{"price":48000,"dateOfTransfer":"1995-07-31T00:00:00","postcodeFull":"M28 3LG","propertyType":"Detached","oldOrNew":"Established","duration":"Leasehold","paon":"22","saon":"","street":"TRINITY CRESCENT","locality":"WORSLEY","townOrCity":"MANCHESTER","district":"SALFORD","county":"GREATER MANCHESTER","ppdCategoryType":"Standard","recordStatus":"Addition","latitude":53.523454,"longitude":-2.391692,"postcodeStart":"M28 3","postcode":["M28","3LG"]}
{"price":48950,"dateOfTransfer":"1995-05-26T00:00:00","postcodeFull":"M28 3WW","propertyType":"Terraced","oldOrNew":"New build","duration":"Leasehold","paon":"38","saon":"","street":"LINNETS WOOD MEWS","locality":"WORSLEY","townOrCity":"MANCHESTER","district":"SALFORD","county":"GREATER MANCHESTER","ppdCategoryType":"Standard","recordStatus":"Addition","latitude":53.525725,"longitude":-2.387778,"postcodeStart":"M28 3","postcode":["M28","3WW"]}
{"price":47000,"dateOfTransfer":"1995-09-01T00:00:00","postcodeFull":"M28 3SE","propertyType":"Semi-detached","oldOrNew":"Established","duration":"Leasehold","paon":"22","saon":"","street":"HYDE ROAD","locality":"WORSLEY","townOrCity":"MANCHESTER","district":"SALFORD","county":"GREATER MANCHESTER","ppdCategoryType":"Standard","recordStatus":"Addition","latitude":53.519764,"longitude":-2.407135,"postcodeStart":"M28 3","postcode":["M28","3SE"]}
{"price":35000,"dateOfTransfer":"1995-12-22T00:00:00","postcodeFull":"M28 3AH","propertyType":"Terraced","oldOrNew":"Established","duration":"Leasehold","paon":"29","saon":"","street":"BRIDGEWATER ROAD","locality":"WORSLEY","townOrCity":"MANCHESTER","district":"SALFORD","county":"GREATER MANCHESTER","ppdCategoryType":"Standard","recordStatus":"Addition","latitude":53.520871,"longitude":-2.400778,"postcodeStart":"M28 3","postcode":["M28","3AH"]}
{"price":35500,"dateOfTransfer":"1995-10-06T00:00:00","postcodeFull":"M28 3LE","propertyType":"Terraced","oldOrNew":"Established","duration":"Leasehold","paon":"30","saon":"","street":"CECIL STREET","locality":"WORSLEY","townOrCity":"MANCHESTER","district":"SALFORD","county":"GREATER MANCHESTER","ppdCategoryType":"Standard","recordStatus":"Addition","latitude":53.526333,"longitude":-2.39682,"postcodeStart":"M28 3","postcode":["M28","3LE"]}
{"price":16000,"dateOfTransfer":"1995-12-01T00:00:00","postcodeFull":"M28 3DN","propertyType":"Terraced","oldOrNew":"Established","duration":"Leasehold","paon":"12","saon":"","street":"BLANTYRE AVENUE","locality":"WORSLEY","townOrCity":"MANCHESTER","district":"SALFORD","county":"GREATER MANCHESTER","ppdCategoryType":"Standard","recordStatus":"Addition","latitude":53.521226,"longitude":-2.392006,"postcodeStart":"M28 3","postcode":["M28","3DN"]}
{"price":42000,"dateOfTransfer":"1995-04-28T00:00:00","postcodeFull":"M28 3DY","propertyType":"Flat/Maisonette/Townhouse","oldOrNew":"Established","duration":"Leasehold","paon":"108","saon":"","street":"WALKDEN ROAD","locality":"WORSLEY","townOrCity":"MANCHESTER","district":"SALFORD","county":"GREATER MANCHESTER","ppdCategoryType":"Standard","recordStatus":"Addition","latitude":53.520385,"longitude":-2.396236,"postcodeStart":"M28 3","postcode":["M28","3DY"]}
{"price":19000,"dateOfTransfer":"1995-05-03T00:00:00","postcodeFull":"M28 3QD","propertyType":"Terraced","oldOrNew":"Established","duration":"Leasehold","paon":"99","saon":"","street":"WORSLEY ROAD NORTH","locality":"WORSLEY","townOrCity":"MANCHESTER","district":"SALFORD","county":"GREATER MANCHESTER","ppdCategoryType":"Standard","recordStatus":"Addition","latitude":53.534185,"longitude":-2.40062,"postcodeStart":"M28 3","postcode":["M28","3QD"]}
{"price":30000,"dateOfTransfer":"1995-04-28T00:00:00","postcodeFull":"M28 3DP","propertyType":"Semi-detached","oldOrNew":"Established","duration":"Leasehold","paon":"8","saon":"","street":"CHILHAM ROAD","locality":"WORSLEY","townOrCity":"MANCHESTER","district":"SALFORD","county":"GREATER MANCHESTER","ppdCategoryType":"Standard","recordStatus":"Addition","latitude":53.521348,"longitude":-2.392399,"postcodeStart":"M28 3","postcode":["M28","3DP"]}
{"price":21500,"dateOfTransfer":"1995-11-03T00:00:00","postcodeFull":"M28 3HE","propertyType":"Flat/Maisonette/Townhouse","oldOrNew":"Established","duration":"Leasehold","paon":"215F","saon":"","street":"MANCHESTER ROAD","locality":"WORSLEY","townOrCity":"MANCHESTER","district":"SALFORD","county":"GREATER MANCHESTER","ppdCategoryType":"Standard","recordStatus":"Addition","latitude":53.522817,"longitude":-2.38653,"postcodeStart":"M28 3","postcode":["M28","3HE"]}
{"price":52500,"dateOfTransfer":"1995-11-24T00:00:00","postcodeFull":"M28 3NB","propertyType":"Semi-detached","oldOrNew":"Established","duration":"Freehold","paon":"12","saon":"","street":"FIRFIELD GROVE","locality":"WORSLEY","townOrCity":"MANCHESTER","district":"SALFORD","county":"GREATER MANCHESTER","ppdCategoryType":"Standard","recordStatus":"Addition","latitude":53.524141,"longitude":-2.385577,"postcodeStart":"M28 3","postcode":["M28","3NB"]}
{"price":22000,"dateOfTransfer":"1995-11-30T00:00:00","postcodeFull":"M28 3BL","propertyType":"Flat/Maisonette/Townhouse","oldOrNew":"Established","duration":"Leasehold","paon":"19","saon":"","street":"ST PAULS COURT","locality":"WORSLEY","townOrCity":"MANCHESTER","district":"SALFORD","county":"GREATER MANCHESTER","ppdCategoryType":"Standard","recordStatus":"Addition","latitude":53.522376,"longitude":-2.397567,"postcodeStart":"M28 3","postcode":["M28","3BL"]}
{"price":22000,"dateOfTransfer":"1995-09-19T00:00:00","postcodeFull":"M28 3QB","propertyType":"Terraced","oldOrNew":"Established","duration":"Leasehold","paon":"257","saon":"","street":"BOLTON ROAD","locality":"WORSLEY","townOrCity":"MANCHESTER","district":"SALFORD","county":"GREATER MANCHESTER","ppdCategoryType":"Standard","recordStatus":"Addition","latitude":53.530077,"longitude":-2.400762,"postcodeStart":"M28 3","postcode":["M28","3QB"]}
{"price":57500,"dateOfTransfer":"1995-08-04T00:00:00","postcodeFull":"M28 3GR","propertyType":"Detached","oldOrNew":"Established","duration":"Leasehold","paon":"5","saon":"","street":"BRYONY CLOSE","locality":"WORSLEY","townOrCity":"MANCHESTER","district":"SALFORD","county":"GREATER MANCHESTER","ppdCategoryType":"Standard","recordStatus":"Addition","latitude":53.532052,"longitude":-2.399046,"postcodeStart":"M28 3","postcode":["M28","3GR"]}
{"price":33000,"dateOfTransfer":"1995-09-29T00:00:00","postcodeFull":"M28 3QG","propertyType":"Terraced","oldOrNew":"Established","duration":"Leasehold","paon":"33","saon":"","street":"HILL TOP ROAD","locality":"WORSLEY","townOrCity":"MANCHESTER","district":"SALFORD","county":"GREATER MANCHESTER","ppdCategoryType":"Standard","recordStatus":"Addition","latitude":53.529952,"longitude":-2.39806,"postcodeStart":"M28 3","postcode":["M28","3QG"]}
{"price":50000,"dateOfTransfer":"1995-07-28T00:00:00","postcodeFull":"M28 3PN","propertyType":"Semi-detached","oldOrNew":"Established","duration":"Freehold","paon":"14","saon":"","street":"HOPEFOLD DRIVE","locality":"WORSLEY","townOrCity":"MANCHESTER","district":"SALFORD","county":"GREATER MANCHESTER","ppdCategoryType":"Standard","recordStatus":"Addition","latitude":53.521236,"longitude":-2.388854,"postcodeStart":"M28 3","postcode":["M28","3PN"]}
{"price":44500,"dateOfTransfer":"1995-04-28T00:00:00","postcodeFull":"M28 3PW","propertyType":"Semi-detached","oldOrNew":"Established","duration":"Freehold","paon":"61","saon":"","street":"HOPEFOLD DRIVE","locality":"WORSLEY","townOrCity":"MANCHESTER","district":"SALFORD","county":"GREATER MANCHESTER","ppdCategoryType":"Standard","recordStatus":"Addition","latitude":53.520196,"longitude":-2.38806,"postcodeStart":"M28 3","postcode":["M28","3PW"]}
{"price":54950,"dateOfTransfer":"1995-03-28T00:00:00","postcodeFull":"M28 3LG","propertyType":"Semi-detached","oldOrNew":"Established","duration":"Leasehold","paon":"11","saon":"","street":"TRINITY CRESCENT","locality":"WORSLEY","townOrCity":"MANCHESTER","district":"SALFORD","county":"GREATER MANCHESTER","ppdCategoryType":"Standard","recordStatus":"Addition","latitude":53.523454,"longitude":-2.391692,"postcodeStart":"M28 3","postcode":["M28","3LG"]}
{"price":38000,"dateOfTransfer":"1995-06-05T00:00:00","postcodeFull":"M28 3BJ","propertyType":"Terraced","oldOrNew":"Established","duration":"Leasehold","paon":"205","saon":"","street":"BOLTON ROAD","locality":"WORSLEY","townOrCity":"MANCHESTER","district":"SALFORD","county":"GREATER MANCHESTER","ppdCategoryType":"Standard","recordStatus":"Addition","latitude":53.528982,"longitude":-2.40045,"postcodeStart":"M28 3","postcode":["M28","3BJ"]}
{"price":39500,"dateOfTransfer":"1995-02-27T00:00:00","postcodeFull":"M28 3NT","propertyType":"Terraced","oldOrNew":"Established","duration":"Leasehold","paon":"107","saon":"","street":"MANCHESTER ROAD","locality":"WORSLEY","townOrCity":"MANCHESTER","district":"SALFORD","county":"GREATER MANCHESTER","ppdCategoryType":"Standard","recordStatus":"Addition","latitude":53.522198,"longitude":-2.391562,"postcodeStart":"M28 3","postcode":["M28","3NT"]}
{"price":34995,"dateOfTransfer":"1995-06-30T00:00:00","postcodeFull":"M28 3RW","propertyType":"Terraced","oldOrNew":"Established","duration":"Freehold","paon":"37","saon":"","street":"GROSVENOR DRIVE","locality":"WORSLEY","townOrCity":"MANCHESTER","district":"SALFORD","county":"GREATER MANCHESTER","ppdCategoryType":"Standard","recordStatus":"Addition","latitude":53.534051,"longitude":-2.405703,"postcodeStart":"M28 3","postcode":["M28","3RW"]}
{"price":57950,"dateOfTransfer":"1995-03-31T00:00:00","postcodeFull":"M28 3WW","propertyType":"Terraced","oldOrNew":"New build","duration":"Leasehold","paon":"7","saon":"","street":"LINNETS WOOD MEWS","locality":"WORSLEY","townOrCity":"MANCHESTER","district":"SALFORD","county":"GREATER MANCHESTER","ppdCategoryType":"Standard","recordStatus":"Addition","latitude":53.525725,"longitude":-2.387778,"postcodeStart":"M28 3","postcode":["M28","3WW"]}
{"price":26000,"dateOfTransfer":"1995-03-24T00:00:00","postcodeFull":"M28 3GB","propertyType":"Terraced","oldOrNew":"Established","duration":"Leasehold","paon":"39","saon":"","street":"WORSLEY ROAD NORTH","locality":"WORSLEY","townOrCity":"MANCHESTER","district":"SALFORD","county":"GREATER MANCHESTER","ppdCategoryType":"Standard","recordStatus":"Addition","latitude":53.532423,"longitude":-2.400814,"postcodeStart":"M28 3","postcode":["M28","3GB"]}
{"price":51000,"dateOfTransfer":"1995-04-24T00:00:00","postcodeFull":"M28 3NB","propertyType":"Semi-detached","oldOrNew":"Established","duration":"Freehold","paon":"14","saon":"","street":"FIRFIELD GROVE","locality":"WORSLEY","townOrCity":"MANCHESTER","district":"SALFORD","county":"GREATER MANCHESTER","ppdCategoryType":"Standard","recordStatus":"Addition","latitude":53.524141,"longitude":-2.385577,"postcodeStart":"M28 3","postcode":["M28","3NB"]}
{"price":46500,"dateOfTransfer":"1995-12-18T00:00:00","postcodeFull":"M28 3AN","propertyType":"Semi-detached","oldOrNew":"Established","duration":"Leasehold","paon":"8","saon":"","street":"ST GEORGES CRESCENT","locality":"WORSLEY","townOrCity":"MANCHESTER","district":"SALFORD","county":"GREATER MANCHESTER","ppdCategoryType":"Standard","recordStatus":"Addition","latitude":53.519861,"longitude":-2.399715,"postcodeStart":"M28 3","postcode":["M28","3AN"]}
{"price":22500,"dateOfTransfer":"1995-01-20T00:00:00","postcodeFull":"M28 3LE","propertyType":"Terraced","oldOrNew":"Established","duration":"Leasehold","paon":"42","saon":"","street":"CECIL STREET","locality":"WORSLEY","townOrCity":"MANCHESTER","district":"SALFORD","county":"GREATER MANCHESTER","ppdCategoryType":"Standard","recordStatus":"Addition","latitude":53.526333,"longitude":-2.39682,"postcodeStart":"M28 3","postcode":["M28","3LE"]}
{"price":58950,"dateOfTransfer":"1995-06-02T00:00:00","postcodeFull":"M28 3DN","propertyType":"Semi-detached","oldOrNew":"New build","duration":"Leasehold","paon":"39","saon":"","street":"BLANTYRE AVENUE","locality":"WORSLEY","townOrCity":"MANCHESTER","district":"SALFORD","county":"GREATER MANCHESTER","ppdCategoryType":"Standard","recordStatus":"Addition","latitude":53.521226,"longitude":-2.392006,"postcodeStart":"M28 3","postcode":["M28","3DN"]}
{"price":48000,"dateOfTransfer":"1995-07-14T00:00:00","postcodeFull":"M28 3TP","propertyType":"Semi-detached","oldOrNew":"New build","duration":"Leasehold","paon":"14","saon":"","street":"HELMSDALE","locality":"WORSLEY","townOrCity":"MANCHESTER","district":"SALFORD","county":"GREATER MANCHESTER","ppdCategoryType":"Standard","recordStatus":"Addition","latitude":53.519722,"longitude":-2.40086,"postcodeStart":"M28 3","postcode":["M28","3TP"]}
{"price":43950,"dateOfTransfer":"1995-09-28T00:00:00","postcodeFull":"M28 3GX","propertyType":"Terraced","oldOrNew":"Established","duration":"Leasehold","paon":"85","saon":"","street":"BRACKLEY STREET","locality":"WORSLEY","townOrCity":"MANCHESTER","district":"SALFORD","county":"GREATER MANCHESTER","ppdCategoryType":"Standard","recordStatus":"Addition","latitude":53.528339,"longitude":-2.404472,"postcodeStart":"M28 3","postcode":["M28","3GX"]}
{"price":52000,"dateOfTransfer":"1995-10-31T00:00:00","postcodeFull":"M28 3DF","propertyType":"Semi-detached","oldOrNew":"Established","duration":"Leasehold","paon":"4","saon":"","street":"OLD OAKE CLOSE","locality":"WORSLEY","townOrCity":"MANCHESTER","district":"SALFORD","county":"GREATER MANCHESTER","ppdCategoryType":"Standard","recordStatus":"Addition","latitude":53.51987,"longitude":-2.391586,"postcodeStart":"M28 3","postcode":["M28","3DF"]}
{"price":67000,"dateOfTransfer":"1995-03-28T00:00:00","postcodeFull":"M28 3FS","propertyType":"Detached","oldOrNew":"Established","duration":"Leasehold","paon":"20","saon":"","street":"HOWCLOUGH DRIVE","locality":"WORSLEY","townOrCity":"MANCHESTER","district":"SALFORD","county":"GREATER MANCHESTER","ppdCategoryType":"Standard","recordStatus":"Addition","latitude":53.520172,"longitude":-2.384259,"postcodeStart":"M28 3","postcode":["M28","3FS"]}
{"price":49000,"dateOfTransfer":"1995-10-13T00:00:00","postcodeFull":"M28 3DN","propertyType":"Semi-detached","oldOrNew":"New build","duration":"Leasehold","paon":"31","saon":"","street":"BLANTYRE AVENUE","locality":"WORSLEY","townOrCity":"MANCHESTER","district":"SALFORD","county":"GREATER MANCHESTER","ppdCategoryType":"Standard","recordStatus":"Addition","latitude":53.521226,"longitude":-2.392006,"postcodeStart":"M28 3","postcode":["M28","3DN"]}
{"price":29000,"dateOfTransfer":"1995-06-16T00:00:00","postcodeFull":"M28 3QU","propertyType":"Terraced","oldOrNew":"Established","duration":"Leasehold","paon":"4","saon":"","street":"DAGMAR STREET","locality":"WORSLEY","townOrCity":"MANCHESTER","district":"SALFORD","county":"GREATER MANCHESTER","ppdCategoryType":"Standard","recordStatus":"Addition","latitude":53.528879,"longitude":-2.401475,"postcodeStart":"M28 3","postcode":["M28","3QU"]}
{"price":85000,"dateOfTransfer":"1995-12-20T00:00:00","postcodeFull":"M28 3GR","propertyType":"Detached","oldOrNew":"Established","duration":"Leasehold","paon":"3","saon":"","street":"BRYONY CLOSE","locality":"WORSLEY","townOrCity":"MANCHESTER","district":"SALFORD","county":"GREATER MANCHESTER","ppdCategoryType":"Standard","recordStatus":"Addition","latitude":53.532052,"longitude":-2.399046,"postcodeStart":"M28 3","postcode":["M28","3GR"]}
{"price":53000,"dateOfTransfer":"1995-10-06T00:00:00","postcodeFull":"M28 3GG","propertyType":"Semi-detached","oldOrNew":"Established","duration":"Leasehold","paon":"20","saon":"","street":"WESTMEADE ROAD","locality":"WORSLEY","townOrCity":"MANCHESTER","district":"SALFORD","county":"GREATER MANCHESTER","ppdCategoryType":"Standard","recordStatus":"Addition","latitude":53.534834,"longitude":-2.405409,"postcodeStart":"M28 3","postcode":["M28","3GG"]}
{"price":54950,"dateOfTransfer":"1995-04-07T00:00:00","postcodeFull":"M28 3BZ","propertyType":"Terraced","oldOrNew":"New build","duration":"Leasehold","paon":"14","saon":"","street":"GRATTEN COURT","locality":"WORSLEY","townOrCity":"MANCHESTER","district":"SALFORD","county":"GREATER MANCHESTER","ppdCategoryType":"Standard","recordStatus":"Addition","latitude":53.531189,"longitude":-2.401753,"postcodeStart":"M28 3","postcode":["M28","3BZ"]}
{"price":54950,"dateOfTransfer":"1995-03-17T00:00:00","postcodeFull":"M28 3BZ","propertyType":"Terraced","oldOrNew":"New build","duration":"Leasehold","paon":"8","saon":"","street":"GRATTEN COURT","locality":"WORSLEY","townOrCity":"MANCHESTER","district":"SALFORD","county":"GREATER MANCHESTER","ppdCategoryType":"Standard","recordStatus":"Addition","latitude":53.531189,"longitude":-2.401753,"postcodeStart":"M28 3","postcode":["M28","3BZ"]}
{"price":36000,"dateOfTransfer":"1995-05-05T00:00:00","postcodeFull":"M28 3RJ","propertyType":"Terraced","oldOrNew":"Established","duration":"Freehold","paon":"19","saon":"","street":"ALEXANDRA ROAD","locality":"WORSLEY","townOrCity":"MANCHESTER","district":"SALFORD","county":"GREATER MANCHESTER","ppdCategoryType":"Standard","recordStatus":"Addition","latitude":53.532815,"longitude":-2.401768,"postcodeStart":"M28 3","postcode":["M28","3RJ"]}
{"price":35000,"dateOfTransfer":"1995-04-13T00:00:00","postcodeFull":"M28 3LW","propertyType":"Semi-detached","oldOrNew":"Established","duration":"Leasehold","paon":"12","saon":"","street":"CHURCH ROAD","locality":"WORSLEY","townOrCity":"MANCHESTER","district":"SALFORD","county":"GREATER MANCHESTER","ppdCategoryType":"Standard","recordStatus":"Addition","latitude":53.523251,"longitude":-2.39385,"postcodeStart":"M28 3","postcode":["M28","3LW"]}
{"price":48000,"dateOfTransfer":"1995-09-08T00:00:00","postcodeFull":"M28 3GX","propertyType":"Terraced","oldOrNew":"Established","duration":"Leasehold","paon":"85","saon":"","street":"BRACKLEY STREET","locality":"WORSLEY","townOrCity":"MANCHESTER","district":"SALFORD","county":"GREATER MANCHESTER","ppdCategoryType":"Standard","recordStatus":"Addition","latitude":53.528339,"longitude":-2.404472,"postcodeStart":"M28 3","postcode":["M28","3GX"]}
{"price":25000,"dateOfTransfer":"1995-05-09T00:00:00","postcodeFull":"M28 3AE","propertyType":"Terraced","oldOrNew":"Established","duration":"Leasehold","paon":"62","saon":"","street":"BRIDGEWATER ROAD","locality":"WORSLEY","townOrCity":"MANCHESTER","district":"SALFORD","county":"GREATER MANCHESTER","ppdCategoryType":"Standard","recordStatus":"Addition","latitude":53.519401,"longitude":-2.402773,"postcodeStart":"M28 3","postcode":["M28","3AE"]}
{"price":34000,"dateOfTransfer":"1995-01-06T00:00:00","postcodeFull":"M28 3QE","propertyType":"Terraced","oldOrNew":"Established","duration":"Freehold","paon":"14","saon":"","street":"GORTON GROVE","locality":"WORSLEY","townOrCity":"MANCHESTER","district":"SALFORD","county":"GREATER MANCHESTER","ppdCategoryType":"Standard","recordStatus":"Addition","latitude":53.535616,"longitude":-2.402866,"postcodeStart":"M28 3","postcode":["M28","3QE"]}
{"price":37500,"dateOfTransfer":"1995-09-25T00:00:00","postcodeFull":"M28 3AH","propertyType":"Terraced","oldOrNew":"Established","duration":"Leasehold","paon":"33","saon":"","street":"BRIDGEWATER ROAD","locality":"WORSLEY","townOrCity":"MANCHESTER","district":"SALFORD","county":"GREATER MANCHESTER","ppdCategoryType":"Standard","recordStatus":"Addition","latitude":53.520871,"longitude":-2.400778,"postcodeStart":"M28 3","postcode":["M28","3AH"]}
{"price":17000,"dateOfTransfer":"1995-01-09T00:00:00","postcodeFull":"M28 3RJ","propertyType":"Terraced","oldOrNew":"Established","duration":"Freehold","paon":"19","saon":"","street":"ALEXANDRA ROAD","locality":"WORSLEY","townOrCity":"MANCHESTER","district":"SALFORD","county":"GREATER MANCHESTER","ppdCategoryType":"Standard","recordStatus":"Addition","latitude":53.532815,"longitude":-2.401768,"postcodeStart":"M28 3","postcode":["M28","3RJ"]}
{"price":48950,"dateOfTransfer":"1995-08-04T00:00:00","postcodeFull":"M28 3WW","propertyType":"Terraced","oldOrNew":"New build","duration":"Leasehold","paon":"9","saon":"","street":"LINNETS WOOD MEWS","locality":"WORSLEY","townOrCity":"MANCHESTER","district":"SALFORD","county":"GREATER MANCHESTER","ppdCategoryType":"Standard","recordStatus":"Addition","latitude":53.525725,"longitude":-2.387778,"postcodeStart":"M28 3","postcode":["M28","3WW"]}
{"price":32950,"dateOfTransfer":"1995-11-30T00:00:00","postcodeFull":"M28 3LE","propertyType":"Terraced","oldOrNew":"Established","duration":"Leasehold","paon":"19","saon":"","street":"CECIL STREET","locality":"WORSLEY","townOrCity":"MANCHESTER","district":"SALFORD","county":"GREATER MANCHESTER","ppdCategoryType":"Standard","recordStatus":"Addition","latitude":53.526333,"longitude":-2.39682,"postcodeStart":"M28 3","postcode":["M28","3LE"]}
{"price":30000,"dateOfTransfer":"1995-04-07T00:00:00","postcodeFull":"M28 3LT","propertyType":"Terraced","oldOrNew":"Established","duration":"Freehold","paon":"18","saon":"","street":"WARREN ROAD","locality":"WORSLEY","townOrCity":"MANCHESTER","district":"SALFORD","county":"GREATER MANCHESTER","ppdCategoryType":"Standard","recordStatus":"Addition","latitude":53.524889,"longitude":-2.387756,"postcodeStart":"M28 3","postcode":["M28","3LT"]}
{"price":225000,"dateOfTransfer":"1995-08-25T00:00:00","postcodeFull":"M28 3BT","propertyType":"Detached","oldOrNew":"Established","duration":"Freehold","paon":"UNIT 60","saon":"","street":"ELLESMERE SHOPPING CENTRE","locality":"WORSLEY","townOrCity":"MANCHESTER","district":"SALFORD","county":"GREATER MANCHESTER","ppdCategoryType":"Standard","recordStatus":"Addition","latitude":53.525923,"longitude":-2.401145,"postcodeStart":"M28 3","postcode":["M28","3BT"]}
{"price":42000,"dateOfTransfer":"1995-01-30T00:00:00","postcodeFull":"M28 3LW","propertyType":"Terraced","oldOrNew":"Established","duration":"Freehold","paon":"15","saon":"","street":"CHURCH ROAD","locality":"WORSLEY","townOrCity":"MANCHESTER","district":"SALFORD","county":"GREATER MANCHESTER","ppdCategoryType":"Standard","recordStatus":"Addition","latitude":53.523251,"longitude":-2.39385,"postcodeStart":"M28 3","postcode":["M28","3LW"]}
{"price":56950,"dateOfTransfer":"1995-03-24T00:00:00","postcodeFull":"M28 3RH","propertyType":"Terraced","oldOrNew":"Established","duration":"Leasehold","paon":"23","saon":"","street":"JACKSON STREET","locality":"WORSLEY","townOrCity":"MANCHESTER","district":"SALFORD","county":"GREATER MANCHESTER","ppdCategoryType":"Standard","recordStatus":"Addition","latitude":53.53162,"longitude":-2.401848,"postcodeStart":"M28 3","postcode":["M28","3RH"]}
{"price":12500,"dateOfTransfer":"1995-09-06T00:00:00","postcodeFull":"M28 3DA","propertyType":"Terraced","oldOrNew":"Established","duration":"Leasehold","paon":"15","saon":"","street":"WALKDEN ROAD","locality":"WORSLEY","townOrCity":"MANCHESTER","district":"SALFORD","county":"GREATER MANCHESTER","ppdCategoryType":"Standard","recordStatus":"Addition","latitude":53.521949,"longitude":-2.395781,"postcodeStart":"M28 3","postcode":["M28","3DA"]}
{"price":36000,"dateOfTransfer":"1995-12-04T00:00:00","postcodeFull":"M28 3DB","propertyType":"Terraced","oldOrNew":"Established","duration":"Leasehold","paon":"54","saon":"","street":"WALKDEN ROAD","locality":"WORSLEY","townOrCity":"MANCHESTER","district":"SALFORD","county":"GREATER MANCHESTER","ppdCategoryType":"Standard","recordStatus":"Addition","latitude":53.521475,"longitude":-2.395553,"postcodeStart":"M28 3","postcode":["M28","3DB"]}
{"price":48000,"dateOfTransfer":"1995-10-23T00:00:00","postcodeFull":"M28 3DN","propertyType":"Semi-detached","oldOrNew":"New build","duration":"Leasehold","paon":"35","saon":"","street":"BLANTYRE AVENUE","locality":"WORSLEY","townOrCity":"MANCHESTER","district":"SALFORD","county":"GREATER MANCHESTER","ppdCategoryType":"Standard","recordStatus":"Addition","latitude":53.521226,"longitude":-2.392006,"postcodeStart":"M28 3","postcode":["M28","3DN"]}
{"price":48950,"dateOfTransfer":"1995-11-30T00:00:00","postcodeFull":"M28 3WW","propertyType":"Terraced","oldOrNew":"New build","duration":"Leasehold","paon":"32","saon":"","street":"LINNETS WOOD MEWS","locality":"WORSLEY","townOrCity":"MANCHESTER","district":"SALFORD","county":"GREATER MANCHESTER","ppdCategoryType":"Standard","recordStatus":"Addition","latitude":53.525725,"longitude":-2.387778,"postcodeStart":"M28 3","postcode":["M28","3WW"]}
{"price":20400,"dateOfTransfer":"1995-11-10T00:00:00","postcodeFull":"M28 3SL","propertyType":"Semi-detached","oldOrNew":"Established","duration":"Leasehold","paon":"32","saon":"","street":"PARSONAGE ROAD","locality":"WORSLEY","townOrCity":"MANCHESTER","district":"SALFORD","county":"GREATER MANCHESTER","ppdCategoryType":"Standard","recordStatus":"Addition","latitude":53.520842,"longitude":-2.404762,"postcodeStart":"M28 3","postcode":["M28","3SL"]}
{"price":38000,"dateOfTransfer":"1995-10-27T00:00:00","postcodeFull":"M28 3PY","propertyType":"Terraced","oldOrNew":"Established","duration":"Leasehold","paon":"7","saon":"","street":"ABBEYDALE GARDENS","locality":"WORSLEY","townOrCity":"MANCHESTER","district":"SALFORD","county":"GREATER MANCHESTER","ppdCategoryType":"Standard","recordStatus":"Addition","latitude":53.526828,"longitude":-2.40488,"postcodeStart":"M28 3","postcode":["M28","3PY"]}
{"price":16000,"dateOfTransfer":"1995-07-28T00:00:00","postcodeFull":"M28 3HE","propertyType":"Flat/Maisonette/Townhouse","oldOrNew":"Established","duration":"Leasehold","paon":"215G","saon":"","street":"MANCHESTER ROAD","locality":"WORSLEY","townOrCity":"MANCHESTER","district":"SALFORD","county":"GREATER MANCHESTER","ppdCategoryType":"Standard","recordStatus":"Addition","latitude":53.522817,"longitude":-2.38653,"postcodeStart":"M28 3","postcode":["M28","3HE"]}
{"price":60000,"dateOfTransfer":"1995-10-23T00:00:00","postcodeFull":"M28 3AX","propertyType":"Terraced","oldOrNew":"Established","duration":"Freehold","paon":"13","saon":"","street":"BOLTON ROAD","locality":"WORSLEY","townOrCity":"MANCHESTER","district":"SALFORD","county":"GREATER MANCHESTER","ppdCategoryType":"Standard","recordStatus":"Addition","latitude":53.524247,"longitude":-2.399227,"postcodeStart":"M28 3","postcode":["M28","3AX"]}
{"price":22600,"dateOfTransfer":"1995-02-01T00:00:00","postcodeFull":"M28 3DA","propertyType":"Terraced","oldOrNew":"Established","duration":"Freehold","paon":"37","saon":"","street":"WALKDEN ROAD","locality":"WORSLEY","townOrCity":"MANCHESTER","district":"SALFORD","county":"GREATER MANCHESTER","ppdCategoryType":"Standard","recordStatus":"Addition","latitude":53.521949,"longitude":-2.395781,"postcodeStart":"M28 3","postcode":["M28","3DA"]}
{"price":19500,"dateOfTransfer":"1995-02-15T00:00:00","postcodeFull":"M28 3JY","propertyType":"Semi-detached","oldOrNew":"Established","duration":"Leasehold","paon":"15","saon":"","street":"EGERTON ROAD","locality":"WORSLEY","townOrCity":"MANCHESTER","district":"SALFORD","county":"GREATER MANCHESTER","ppdCategoryType":"Standard","recordStatus":"Addition","latitude":53.524589,"longitude":-2.396394,"postcodeStart":"M28 3","postcode":["M28","3JY"]}
{"price":49950,"dateOfTransfer":"1995-11-01T00:00:00","postcodeFull":"M28 3DN","propertyType":"Semi-detached","oldOrNew":"New build","duration":"Leasehold","paon":"33","saon":"","street":"BLANTYRE AVENUE","locality":"WORSLEY","townOrCity":"MANCHESTER","district":"SALFORD","county":"GREATER MANCHESTER","ppdCategoryType":"Standard","recordStatus":"Addition","latitude":53.521226,"longitude":-2.392006,"postcodeStart":"M28 3","postcode":["M28","3DN"]}
{"price":35500,"dateOfTransfer":"1995-01-20T00:00:00","postcodeFull":"M28 3TE","propertyType":"Terraced","oldOrNew":"Established","duration":"Leasehold","paon":"479","saon":"","street":"HILTON LANE","locality":"WORSLEY","townOrCity":"MANCHESTER","district":"SALFORD","county":"GREATER MANCHESTER","ppdCategoryType":"Standard","recordStatus":"Addition","latitude":53.518794,"longitude":-2.406824,"postcodeStart":"M28 3","postcode":["M28","3TE"]}
{"price":12000,"dateOfTransfer":"1995-04-10T00:00:00","postcodeFull":"M28 3QW","propertyType":"Terraced","oldOrNew":"Established","duration":"Leasehold","paon":"114","saon":"","street":"WORSLEY ROAD NORTH","locality":"WORSLEY","townOrCity":"MANCHESTER","district":"SALFORD","county":"GREATER MANCHESTER","ppdCategoryType":"Standard","recordStatus":"Addition","latitude":53.535579,"longitude":-2.399952,"postcodeStart":"M28 3","postcode":["M28","3QW"]}
{"price":48950,"dateOfTransfer":"1995-03-10T00:00:00","postcodeFull":"M28 3WW","propertyType":"Terraced","oldOrNew":"New build","duration":"Leasehold","paon":"4","saon":"","street":"LINNETS WOOD MEWS","locality":"WORSLEY","townOrCity":"MANCHESTER","district":"SALFORD","county":"GREATER MANCHESTER","ppdCategoryType":"Standard","recordStatus":"Addition","latitude":53.525725,"longitude":-2.387778,"postcodeStart":"M28 3","postcode":["M28","3WW"]}
{"price":22750,"dateOfTransfer":"1995-08-25T00:00:00","postcodeFull":"M28 3LE","propertyType":"Terraced","oldOrNew":"Established","duration":"Leasehold","paon":"34","saon":"","street":"CECIL STREET","locality":"WORSLEY","townOrCity":"MANCHESTER","district":"SALFORD","county":"GREATER MANCHESTER","ppdCategoryType":"Standard","recordStatus":"Addition","latitude":53.526333,"longitude":-2.39682,"postcodeStart":"M28 3","postcode":["M28","3LE"]}
{"price":58950,"dateOfTransfer":"1995-10-04T00:00:00","postcodeFull":"M28 3DP","propertyType":"Semi-detached","oldOrNew":"New build","duration":"Leasehold","paon":"34","saon":"","street":"CHILHAM ROAD","locality":"WORSLEY","townOrCity":"MANCHESTER","district":"SALFORD","county":"GREATER MANCHESTER","ppdCategoryType":"Standard","recordStatus":"Addition","latitude":53.521348,"longitude":-2.392399,"postcodeStart":"M28 3","postcode":["M28","3DP"]}
{"price":51500,"dateOfTransfer":"1995-08-08T00:00:00","postcodeFull":"M28 3HR","propertyType":"Semi-detached","oldOrNew":"Established","duration":"Leasehold","paon":"15","saon":"","street":"WOODSIDE AVENUE","locality":"WORSLEY","townOrCity":"MANCHESTER","district":"SALFORD","county":"GREATER MANCHESTER","ppdCategoryType":"Standard","recordStatus":"Addition","latitude":53.520785,"longitude":-2.380989,"postcodeStart":"M28 3","postcode":["M28","3HR"]}
{"price":36500,"dateOfTransfer":"1995-09-12T00:00:00","postcodeFull":"M28 3DB","propertyType":"Terraced","oldOrNew":"Established","duration":"Leasehold","paon":"28","saon":"","street":"WALKDEN ROAD","locality":"WORSLEY","townOrCity":"MANCHESTER","district":"SALFORD","county":"GREATER MANCHESTER","ppdCategoryType":"Standard","recordStatus":"Addition","latitude":53.521475,"longitude":-2.395553,"postcodeStart":"M28 3","postcode":["M28","3DB"]}
{"price":49500,"dateOfTransfer":"1995-06-30T00:00:00","postcodeFull":"M28 3BZ","propertyType":"Terraced","oldOrNew":"New build","duration":"Leasehold","paon":"3","saon":"","street":"GRATTEN COURT","locality":"WORSLEY","townOrCity":"MANCHESTER","district":"SALFORD","county":"GREATER MANCHESTER","ppdCategoryType":"Standard","recordStatus":"Addition","latitude":53.531189,"longitude":-2.401753,"postcodeStart":"M28 3","postcode":["M28","3BZ"]}
{"price":22000,"dateOfTransfer":"1995-08-18T00:00:00","postcodeFull":"M28 3AF","propertyType":"Terraced","oldOrNew":"Established","duration":"Leasehold","paon":"151","saon":"","street":"BRIDGEWATER ROAD","locality":"WORSLEY","townOrCity":"MANCHESTER","district":"SALFORD","county":"GREATER MANCHESTER","ppdCategoryType":"Standard","recordStatus":"Addition","latitude":53.518611,"longitude":-2.402644,"postcodeStart":"M28 3","postcode":["M28","3AF"]}
{"price":49950,"dateOfTransfer":"1995-12-15T00:00:00","postcodeFull":"M28 3WW","propertyType":"Terraced","oldOrNew":"New build","duration":"Leasehold","paon":"11","saon":"","street":"LINNETS WOOD MEWS","locality":"WORSLEY","townOrCity":"MANCHESTER","district":"SALFORD","county":"GREATER MANCHESTER","ppdCategoryType":"Standard","recordStatus":"Addition","latitude":53.525725,"longitude":-2.387778,"postcodeStart":"M28 3","postcode":["M28","3WW"]}
{"price":30500,"dateOfTransfer":"1995-06-05T00:00:00","postcodeFull":"M28 3LB","propertyType":"Terraced","oldOrNew":"Established","duration":"Leasehold","paon":"35","saon":"","street":"ALFRED STREET","locality":"WORSLEY","townOrCity":"MANCHESTER","district":"SALFORD","county":"GREATER MANCHESTER","ppdCategoryType":"Standard","recordStatus":"Addition","latitude":53.525638,"longitude":-2.39719,"postcodeStart":"M28 3","postcode":["M28","3LB"]}
{"price":48750,"dateOfTransfer":"1995-10-09T00:00:00","postcodeFull":"M28 3BZ","propertyType":"Terraced","oldOrNew":"Established","duration":"Leasehold","paon":"1","saon":"","street":"GRATTEN COURT","locality":"WORSLEY","townOrCity":"MANCHESTER","district":"SALFORD","county":"GREATER MANCHESTER","ppdCategoryType":"Standard","recordStatus":"Addition","latitude":53.531189,"longitude":-2.401753,"postcodeStart":"M28 3","postcode":["M28","3BZ"]}
{"price":36500,"dateOfTransfer":"1995-10-06T00:00:00","postcodeFull":"M28 3AE","propertyType":"Terraced","oldOrNew":"Established","duration":"Freehold","paon":"104","saon":"","street":"BRIDGEWATER ROAD","locality":"WORSLEY","townOrCity":"MANCHESTER","district":"SALFORD","county":"GREATER MANCHESTER","ppdCategoryType":"Standard","recordStatus":"Addition","latitude":53.519401,"longitude":-2.402773,"postcodeStart":"M28 3","postcode":["M28","3AE"]}
{"price":53250,"dateOfTransfer":"1995-05-26T00:00:00","postcodeFull":"M28 3WW","propertyType":"Terraced","oldOrNew":"New build","duration":"Leasehold","paon":"3","saon":"","street":"LINNETS WOOD MEWS","locality":"WORSLEY","townOrCity":"MANCHESTER","district":"SALFORD","county":"GREATER MANCHESTER","ppdCategoryType":"Standard","recordStatus":"Addition","latitude":53.525725,"longitude":-2.387778,"postcodeStart":"M28 3","postcode":["M28","3WW"]}
{"price":43000,"dateOfTransfer":"1995-06-30T00:00:00","postcodeFull":"M28 3AJ","propertyType":"Terraced","oldOrNew":"Established","duration":"Freehold","paon":"3","saon":"","street":"WILFRED ROAD","locality":"WORSLEY","townOrCity":"MANCHESTER","district":"SALFORD","county":"GREATER MANCHESTER","ppdCategoryType":"Standard","recordStatus":"Addition","latitude":53.520717,"longitude":-2.398939,"postcodeStart":"M28 3","postcode":["M28","3AJ"]}
{"price":16000,"dateOfTransfer":"1995-05-01T00:00:00","postcodeFull":"M28 3QW","propertyType":"Terraced","oldOrNew":"Established","duration":"Leasehold","paon":"84","saon":"","street":"WORSLEY ROAD NORTH","locality":"WORSLEY","townOrCity":"MANCHESTER","district":"SALFORD","county":"GREATER MANCHESTER","ppdCategoryType":"Standard","recordStatus":"Addition","latitude":53.535579,"longitude":-2.399952,"postcodeStart":"M28 3","postcode":["M28","3QW"]}
{"price":52300,"dateOfTransfer":"1995-06-02T00:00:00","postcodeFull":"M28 3DN","propertyType":"Semi-detached","oldOrNew":"New build","duration":"Leasehold","paon":"37","saon":"","street":"BLANTYRE AVENUE","locality":"WORSLEY","townOrCity":"MANCHESTER","district":"SALFORD","county":"GREATER MANCHESTER","ppdCategoryType":"Standard","recordStatus":"Addition","latitude":53.521226,"longitude":-2.392006,"postcodeStart":"M28 3","postcode":["M28","3DN"]}
{"price":32000,"dateOfTransfer":"1995-03-24T00:00:00","postcodeFull":"M28 3HF","propertyType":"Flat/Maisonette/Townhouse","oldOrNew":"Established","duration":"Leasehold","paon":"4","saon":"","street":"CAWDOR STREET","locality":"WORSLEY","townOrCity":"MANCHESTER","district":"SALFORD","county":"GREATER MANCHESTER","ppdCategoryType":"Standard","recordStatus":"Addition","latitude":53.52264,"longitude":-2.388052,"postcodeStart":"M28 3","postcode":["M28","3HF"]}
{"price":28000,"dateOfTransfer":"1995-06-02T00:00:00","postcodeFull":"M28 3BJ","propertyType":"Terraced","oldOrNew":"Established","duration":"Leasehold","paon":"187","saon":"","street":"BOLTON ROAD","locality":"WORSLEY","townOrCity":"MANCHESTER","district":"SALFORD","county":"GREATER MANCHESTER","ppdCategoryType":"Standard","recordStatus":"Addition","latitude":53.528982,"longitude":-2.40045,"postcodeStart":"M28 3","postcode":["M28","3BJ"]}
{"price":49950,"dateOfTransfer":"1995-05-26T00:00:00","postcodeFull":"M28 3DN","propertyType":"Semi-detached","oldOrNew":"New build","duration":"Leasehold","paon":"29","saon":"","street":"BLANTYRE AVENUE","locality":"WORSLEY","townOrCity":"MANCHESTER","district":"SALFORD","county":"GREATER MANCHESTER","ppdCategoryType":"Standard","recordStatus":"Addition","latitude":53.521226,"longitude":-2.392006,"postcodeStart":"M28 3","postcode":["M28","3DN"]}
{"price":35000,"dateOfTransfer":"1995-06-30T00:00:00","postcodeFull":"M28 3QU","propertyType":"Terraced","oldOrNew":"Established","duration":"Leasehold","paon":"8","saon":"","street":"DAGMAR STREET","locality":"WORSLEY","townOrCity":"MANCHESTER","district":"SALFORD","county":"GREATER MANCHESTER","ppdCategoryType":"Standard","recordStatus":"Addition","latitude":53.528879,"longitude":-2.401475,"postcodeStart":"M28 3","postcode":["M28","3QU"]}
{"price":52250,"dateOfTransfer":"1995-08-11T00:00:00","postcodeFull":"M28 3WW","propertyType":"Terraced","oldOrNew":"New build","duration":"Leasehold","paon":"35","saon":"","street":"LINNETS WOOD MEWS","locality":"WORSLEY","townOrCity":"MANCHESTER","district":"SALFORD","county":"GREATER MANCHESTER","ppdCategoryType":"Standard","recordStatus":"Addition","latitude":53.525725,"longitude":-2.387778,"postcodeStart":"M28 3","postcode":["M28","3WW"]}
{"price":56950,"dateOfTransfer":"1995-02-24T00:00:00","postcodeFull":"M28 3BZ","propertyType":"Terraced","oldOrNew":"New build","duration":"Leasehold","paon":"2","saon":"","street":"GRATTEN COURT","locality":"WORSLEY","townOrCity":"MANCHESTER","district":"SALFORD","county":"GREATER MANCHESTER","ppdCategoryType":"Standard","recordStatus":"Addition","latitude":53.531189,"longitude":-2.401753,"postcodeStart":"M28 3","postcode":["M28","3BZ"]}
{"price":19000,"dateOfTransfer":"1995-01-03T00:00:00","postcodeFull":"M28 3LB","propertyType":"Terraced","oldOrNew":"Established","duration":"Leasehold","paon":"29","saon":"","street":"ALFRED STREET","locality":"WORSLEY","townOrCity":"MANCHESTER","district":"SALFORD","county":"GREATER MANCHESTER","ppdCategoryType":"Standard","recordStatus":"Addition","latitude":53.525638,"longitude":-2.39719,"postcodeStart":"M28 3","postcode":["M28","3LB"]}
{"price":56950,"dateOfTransfer":"1995-11-10T00:00:00","postcodeFull":"M28 3WW","propertyType":"Terraced","oldOrNew":"New build","duration":"Leasehold","paon":"6","saon":"","street":"LINNETS WOOD MEWS","locality":"WORSLEY","townOrCity":"MANCHESTER","district":"SALFORD","county":"GREATER MANCHESTER","ppdCategoryType":"Standard","recordStatus":"Addition","latitude":53.525725,"longitude":-2.387778,"postcodeStart":"M28 3","postcode":["M28","3WW"]}
{"price":35000,"dateOfTransfer":"1995-08-11T00:00:00","postcodeFull":"M28 3QA","propertyType":"Terraced","oldOrNew":"Established","duration":"Leasehold","paon":"100","saon":"","street":"HARRIET STREET","locality":"WORSLEY","townOrCity":"MANCHESTER","district":"SALFORD","county":"GREATER MANCHESTER","ppdCategoryType":"Standard","recordStatus":"Addition","latitude":53.527022,"longitude":-2.397988,"postcodeStart":"M28 3","postcode":["M28","3QA"]}
{"price":36500,"dateOfTransfer":"1995-02-06T00:00:00","postcodeFull":"M28 3LW","propertyType":"Terraced","oldOrNew":"Established","duration":"Freehold","paon":"17","saon":"","street":"CHURCH ROAD","locality":"WORSLEY","townOrCity":"MANCHESTER","district":"SALFORD","county":"GREATER MANCHESTER","ppdCategoryType":"Standard","recordStatus":"Addition","latitude":53.523251,"longitude":-2.39385,"postcodeStart":"M28 3","postcode":["M28","3LW"]}
{"price":30000,"dateOfTransfer":"1995-01-12T00:00:00","postcodeFull":"M28 3QD","propertyType":"Terraced","oldOrNew":"Established","duration":"Leasehold","paon":"95","saon":"","street":"WORSLEY ROAD NORTH","locality":"WORSLEY","townOrCity":"MANCHESTER","district":"SALFORD","county":"GREATER MANCHESTER","ppdCategoryType":"Standard","recordStatus":"Addition","latitude":53.534185,"longitude":-2.40062,"postcodeStart":"M28 3","postcode":["M28","3QD"]}
{"price":28950,"dateOfTransfer":"1995-08-04T00:00:00","postcodeFull":"M28 3BJ","propertyType":"Terraced","oldOrNew":"Established","duration":"Leasehold","paon":"187","saon":"","street":"BOLTON ROAD","locality":"WORSLEY","townOrCity":"MANCHESTER","district":"SALFORD","county":"GREATER MANCHESTER","ppdCategoryType":"Standard","recordStatus":"Addition","latitude":53.528982,"longitude":-2.40045,"postcodeStart":"M28 3","postcode":["M28","3BJ"]}
{"price":49950,"dateOfTransfer":"1995-12-08T00:00:00","postcodeFull":"M28 3WW","propertyType":"Terraced","oldOrNew":"New build","duration":"Leasehold","paon":"8","saon":"","street":"LINNETS WOOD MEWS","locality":"WORSLEY","townOrCity":"MANCHESTER","district":"SALFORD","county":"GREATER MANCHESTER","ppdCategoryType":"Standard","recordStatus":"Addition","latitude":53.525725,"longitude":-2.387778,"postcodeStart":"M28 3","postcode":["M28","3WW"]}
{"price":18500,"dateOfTransfer":"1995-07-12T00:00:00","postcodeFull":"M28 3WS","propertyType":"Terraced","oldOrNew":"Established","duration":"Leasehold","paon":"57","saon":"","street":"MANCHESTER ROAD","locality":"WORSLEY","townOrCity":"MANCHESTER","district":"SALFORD","county":"GREATER MANCHESTER","ppdCategoryType":"Standard","recordStatus":"Addition","latitude":53.52229,"longitude":-2.393584,"postcodeStart":"M28 3","postcode":["M28","3WS"]}
{"price":45500,"dateOfTransfer":"1996-09-06T00:00:00","postcodeFull":"M28 3HN","propertyType":"Detached","oldOrNew":"Established","duration":"Leasehold","paon":"OAKWOOD LODGE","saon":"","street":"OAKWOOD DRIVE","locality":"WORSLEY","townOrCity":"MANCHESTER","district":"SALFORD","county":"GREATER MANCHESTER","ppdCategoryType":"Standard","recordStatus":"Addition","latitude":53.521939,"longitude":-2.379855,"postcodeStart":"M28 3","postcode":["M28","3HN"]}
{"price":33000,"dateOfTransfer":"1996-08-02T00:00:00","postcodeFull":"M28 3AF","propertyType":"Semi-detached","oldOrNew":"Established","duration":"Leasehold","paon":"93","saon":"","street":"BRIDGEWATER ROAD","locality":"WORSLEY","townOrCity":"MANCHESTER","district":"SALFORD","county":"GREATER MANCHESTER","ppdCategoryType":"Standard","recordStatus":"Addition","latitude":53.518611,"longitude":-2.402644,"postcodeStart":"M28 3","postcode":["M28","3AF"]}
{"price":29000,"dateOfTransfer":"1996-07-31T00:00:00","postcodeFull":"M28 3HL","propertyType":"Terraced","oldOrNew":"Established","duration":"Leasehold","paon":"431","saon":"","street":"MANCHESTER ROAD","locality":"WORSLEY","townOrCity":"MANCHESTER","district":"SALFORD","county":"GREATER MANCHESTER","ppdCategoryType":"Standard","recordStatus":"Addition","latitude":53.522534,"longitude":-2.376663,"postcodeStart":"M28 3","postcode":["M28","3HL"]}
{"price":53250,"dateOfTransfer":"1996-11-29T00:00:00","postcodeFull":"M28 3WW","propertyType":"Terraced","oldOrNew":"New build","duration":"Leasehold","paon":"45","saon":"","street":"LINNETS WOOD MEWS","locality":"WORSLEY","townOrCity":"MANCHESTER","district":"SALFORD","county":"GREATER MANCHESTER","ppdCategoryType":"Standard","recordStatus":"Addition","latitude":53.525725,"longitude":-2.387778,"postcodeStart":"M28 3","postcode":["M28","3WW"]}
{"price":27000,"dateOfTransfer":"1996-06-28T00:00:00","postcodeFull":"M28 3RL","propertyType":"Semi-detached","oldOrNew":"Established","duration":"Freehold","paon":"61","saon":"","street":"GROSVENOR ROAD","locality":"WORSLEY","townOrCity":"MANCHESTER","district":"SALFORD","county":"GREATER MANCHESTER","ppdCategoryType":"Standard","recordStatus":"Addition","latitude":53.532997,"longitude":-2.403913,"postcodeStart":"M28 3","postcode":["M28","3RL"]}
{"price":41000,"dateOfTransfer":"1996-04-01T00:00:00","postcodeFull":"M28 3DA","propertyType":"Terraced","oldOrNew":"Established","duration":"Leasehold","paon":"13","saon":"","street":"WALKDEN ROAD","locality":"WORSLEY","townOrCity":"MANCHESTER","district":"SALFORD","county":"GREATER MANCHESTER","ppdCategoryType":"Standard","recordStatus":"Addition","latitude":53.521949,"longitude":-2.395781,"postcodeStart":"M28 3","postcode":["M28","3DA"]}
{"price":40000,"dateOfTransfer":"1996-03-22T00:00:00","postcodeFull":"M28 3TE","propertyType":"Terraced","oldOrNew":"Established","duration":"Freehold","paon":"493","saon":"","street":"HILTON LANE","locality":"WORSLEY","townOrCity":"MANCHESTER","district":"SALFORD","county":"GREATER MANCHESTER","ppdCategoryType":"Standard","recordStatus":"Addition","latitude":53.518794,"longitude":-2.406824,"postcodeStart":"M28 3","postcode":["M28","3TE"]}
{"price":20000,"dateOfTransfer":"1996-03-29T00:00:00","postcodeFull":"M28 3FE","propertyType":"Terraced","oldOrNew":"Established","duration":"Leasehold","paon":"289","saon":"","street":"BOLTON ROAD","locality":"WORSLEY","townOrCity":"MANCHESTER","district":"SALFORD","county":"GREATER MANCHESTER","ppdCategoryType":"Standard","recordStatus":"Addition","latitude":53.531191,"longitude":-2.400969,"postcodeStart":"M28 3","postcode":["M28","3FE"]}
{"price":27000,"dateOfTransfer":"1996-04-19T00:00:00","postcodeFull":"M28 3PF","propertyType":"Terraced","oldOrNew":"Established","duration":"Freehold","paon":"5","saon":"","street":"MEADOWSIDE AVENUE","locality":"WORSLEY","townOrCity":"MANCHESTER","district":"SALFORD","county":"GREATER MANCHESTER","ppdCategoryType":"Standard","recordStatus":"Addition","latitude":53.527169,"longitude":-2.391427,"postcodeStart":"M28 3","postcode":["M28","3PF"]}
{"price":52950,"dateOfTransfer":"1996-11-22T00:00:00","postcodeFull":"M28 3PN","propertyType":"Semi-detached","oldOrNew":"Established","duration":"Freehold","paon":"21","saon":"","street":"HOPEFOLD DRIVE","locality":"WORSLEY","townOrCity":"MANCHESTER","district":"SALFORD","county":"GREATER MANCHESTER","ppdCategoryType":"Standard","recordStatus":"Addition","latitude":53.521236,"longitude":-2.388854,"postcodeStart":"M28 3","postcode":["M28","3PN"]}
{"price":27000,"dateOfTransfer":"1996-12-06T00:00:00","postcodeFull":"M28 3AG","propertyType":"Terraced","oldOrNew":"Established","duration":"Leasehold","paon":"38","saon":"","street":"MEMORIAL ROAD","locality":"WORSLEY","townOrCity":"MANCHESTER","district":"SALFORD","county":"GREATER MANCHESTER","ppdCategoryType":"Standard","recordStatus":"Addition","latitude":53.521576,"longitude":-2.397439,"postcodeStart":"M28 3","postcode":["M28","3AG"]}
{"price":53250,"dateOfTransfer":"1996-11-14T00:00:00","postcodeFull":"M28 3WW","propertyType":"Semi-detached","oldOrNew":"New build","duration":"Leasehold","paon":"44","saon":"","street":"LINNETS WOOD MEWS","locality":"WORSLEY","townOrCity":"MANCHESTER","district":"SALFORD","county":"GREATER MANCHESTER","ppdCategoryType":"Standard","recordStatus":"Addition","latitude":53.525725,"longitude":-2.387778,"postcodeStart":"M28 3","postcode":["M28","3WW"]}
{"price":49950,"dateOfTransfer":"1996-08-09T00:00:00","postcodeFull":"M28 3WW","propertyType":"Terraced","oldOrNew":"New build","duration":"Leasehold","paon":"17","saon":"","street":"LINNETS WOOD MEWS","locality":"WORSLEY","townOrCity":"MANCHESTER","district":"SALFORD","county":"GREATER MANCHESTER","ppdCategoryType":"Standard","recordStatus":"Addition","latitude":53.525725,"longitude":-2.387778,"postcodeStart":"M28 3","postcode":["M28","3WW"]}
{"price":16000,"dateOfTransfer":"1996-08-05T00:00:00","postcodeFull":"M28 3HZ","propertyType":"Terraced","oldOrNew":"Established","duration":"Leasehold","paon":"39","saon":"","street":"OLD CLOUGH LANE","locality":"WORSLEY","townOrCity":"MANCHESTER","district":"SALFORD","county":"GREATER MANCHESTER","ppdCategoryType":"Standard","recordStatus":"Addition","latitude":53.521913,"longitude":-2.382465,"postcodeStart":"M28 3","postcode":["M28","3HZ"]}
{"price":35000,"dateOfTransfer":"1996-09-23T00:00:00","postcodeFull":"M28 3HZ","propertyType":"Terraced","oldOrNew":"Established","duration":"Leasehold","paon":"53","saon":"","street":"OLD CLOUGH LANE","locality":"WORSLEY","townOrCity":"MANCHESTER","district":"SALFORD","county":"GREATER MANCHESTER","ppdCategoryType":"Standard","recordStatus":"Addition","latitude":53.521913,"longitude":-2.382465,"postcodeStart":"M28 3","postcode":["M28","3HZ"]}
{"price":65000,"dateOfTransfer":"1996-11-29T00:00:00","postcodeFull":"M28 3HH","propertyType":"Detached","oldOrNew":"Established","duration":"Leasehold","paon":"323","saon":"","street":"MANCHESTER ROAD","locality":"WORSLEY","townOrCity":"MANCHESTER","district":"SALFORD","county":"GREATER MANCHESTER","ppdCategoryType":"Standard","recordStatus":"Addition","latitude":53.522969,"longitude":-2.383801,"postcodeStart":"M28 3","postcode":["M28","3HH"]}
{"price":54500,"dateOfTransfer":"1996-10-04T00:00:00","postcodeFull":"M28 3AN","propertyType":"Terraced","oldOrNew":"Established","duration":"Freehold","paon":"22","saon":"","street":"ST GEORGES CRESCENT","locality":"WORSLEY","townOrCity":"MANCHESTER","district":"SALFORD","county":"GREATER MANCHESTER","ppdCategoryType":"Standard","recordStatus":"Addition","latitude":53.519861,"longitude":-2.399715,"postcodeStart":"M28 3","postcode":["M28","3AN"]}
{"price":165000,"dateOfTransfer":"1996-09-04T00:00:00","postcodeFull":"M28 3WS","propertyType":"Detached","oldOrNew":"Established","duration":"Freehold","paon":"41","saon":"","street":"MANCHESTER ROAD","locality":"WORSLEY","townOrCity":"MANCHESTER","district":"SALFORD","county":"GREATER MANCHESTER","ppdCategoryType":"Standard","recordStatus":"Addition","latitude":53.52229,"longitude":-2.393584,"postcodeStart":"M28 3","postcode":["M28","3WS"]}
{"price":18000,"dateOfTransfer":"1996-01-30T00:00:00","postcodeFull":"M28 3JH","propertyType":"Terraced","oldOrNew":"Established","duration":"Freehold","paon":"1","saon":"","street":"HIGH STREET","locality":"WORSLEY","townOrCity":"MANCHESTER","district":"SALFORD","county":"GREATER MANCHESTER","ppdCategoryType":"Standard","recordStatus":"Addition","latitude":53.52377,"longitude":-2.400144,"postcodeStart":"M28 3","postcode":["M28","3JH"]}
{"price":47950,"dateOfTransfer":"1996-10-15T00:00:00","postcodeFull":"M28 3PW","propertyType":"Semi-detached","oldOrNew":"Established","duration":"Freehold","paon":"63","saon":"","street":"HOPEFOLD DRIVE","locality":"WORSLEY","townOrCity":"MANCHESTER","district":"SALFORD","county":"GREATER MANCHESTER","ppdCategoryType":"Standard","recordStatus":"Addition","latitude":53.520196,"longitude":-2.38806,"postcodeStart":"M28 3","postcode":["M28","3PW"]}
{"price":29000,"dateOfTransfer":"1996-07-26T00:00:00","postcodeFull":"M28 3LE","propertyType":"Terraced","oldOrNew":"Established","duration":"Freehold","paon":"12","saon":"","street":"CECIL STREET","locality":"WORSLEY","townOrCity":"MANCHESTER","district":"SALFORD","county":"GREATER MANCHESTER","ppdCategoryType":"Standard","recordStatus":"Addition","latitude":53.526333,"longitude":-2.39682,"postcodeStart":"M28 3","postcode":["M28","3LE"]}
{"price":50950,"dateOfTransfer":"1996-08-23T00:00:00","postcodeFull":"M28 3WW","propertyType":"Terraced","oldOrNew":"New build","duration":"Leasehold","paon":"22","saon":"","street":"LINNETS WOOD MEWS","locality":"WORSLEY","townOrCity":"MANCHESTER","district":"SALFORD","county":"GREATER MANCHESTER","ppdCategoryType":"Standard","recordStatus":"Addition","latitude":53.525725,"longitude":-2.387778,"postcodeStart":"M28 3","postcode":["M28","3WW"]}
{"price":27750,"dateOfTransfer":"1996-10-11T00:00:00","postcodeFull":"M28 3GB","propertyType":"Terraced","oldOrNew":"Established","duration":"Leasehold","paon":"47","saon":"","street":"WORSLEY ROAD NORTH","locality":"WORSLEY","townOrCity":"MANCHESTER","district":"SALFORD","county":"GREATER MANCHESTER","ppdCategoryType":"Standard","recordStatus":"Addition","latitude":53.532423,"longitude":-2.400814,"postcodeStart":"M28 3","postcode":["M28","3GB"]}
{"price":34950,"dateOfTransfer":"1996-03-22T00:00:00","postcodeFull":"M28 3LZ","propertyType":"Terraced","oldOrNew":"Established","duration":"Leasehold","paon":"248","saon":"","street":"MANCHESTER ROAD","locality":"WORSLEY","townOrCity":"MANCHESTER","district":"SALFORD","county":"GREATER MANCHESTER","ppdCategoryType":"Standard","recordStatus":"Addition","latitude":53.523261,"longitude":-2.385177,"postcodeStart":"M28 3","postcode":["M28","3LZ"]}
{"price":54000,"dateOfTransfer":"1996-12-06T00:00:00","postcodeFull":"M28 3HG","propertyType":"Terraced","oldOrNew":"Established","duration":"Freehold","paon":"60","saon":"","street":"OLD CLOUGH LANE","locality":"WORSLEY","townOrCity":"MANCHESTER","district":"SALFORD","county":"GREATER MANCHESTER","ppdCategoryType":"Standard","recordStatus":"Addition","latitude":53.520576,"longitude":-2.381864,"postcodeStart":"M28 3","postcode":["M28","3HG"]}
{"price":49950,"dateOfTransfer":"1996-12-18T00:00:00","postcodeFull":"M28 3WW","propertyType":"Terraced","oldOrNew":"New build","duration":"Leasehold","paon":"42","saon":"","street":"LINNETS WOOD MEWS","locality":"WORSLEY","townOrCity":"MANCHESTER","district":"SALFORD","county":"GREATER MANCHESTER","ppdCategoryType":"Standard","recordStatus":"Addition","latitude":53.525725,"longitude":-2.387778,"postcodeStart":"M28 3","postcode":["M28","3WW"]}
{"price":45000,"dateOfTransfer":"1996-05-21T00:00:00","postcodeFull":"M28 3WW","propertyType":"Terraced","oldOrNew":"New build","duration":"Leasehold","paon":"14","saon":"","street":"LINNETS WOOD MEWS","locality":"WORSLEY","townOrCity":"MANCHESTER","district":"SALFORD","county":"GREATER MANCHESTER","ppdCategoryType":"Standard","recordStatus":"Addition","latitude":53.525725,"longitude":-2.387778,"postcodeStart":"M28 3","postcode":["M28","3WW"]}
{"price":40000,"dateOfTransfer":"1996-04-03T00:00:00","postcodeFull":"M28 3DJ","propertyType":"Semi-detached","oldOrNew":"Established","duration":"Leasehold","paon":"5","saon":"","street":"COLLYHURST AVENUE","locality":"WORSLEY","townOrCity":"MANCHESTER","district":"SALFORD","county":"GREATER MANCHESTER","ppdCategoryType":"Standard","recordStatus":"Addition","latitude":53.521545,"longitude":-2.393246,"postcodeStart":"M28 3","postcode":["M28","3DJ"]}
{"price":48500,"dateOfTransfer":"1996-06-28T00:00:00","postcodeFull":"M28 3PN","propertyType":"Semi-detached","oldOrNew":"Established","duration":"Freehold","paon":"14","saon":"","street":"HOPEFOLD DRIVE","locality":"WORSLEY","townOrCity":"MANCHESTER","district":"SALFORD","county":"GREATER MANCHESTER","ppdCategoryType":"Standard","recordStatus":"Addition","latitude":53.521236,"longitude":-2.388854,"postcodeStart":"M28 3","postcode":["M28","3PN"]}
{"price":37000,"dateOfTransfer":"1996-03-15T00:00:00","postcodeFull":"M28 3HJ","propertyType":"Terraced","oldOrNew":"Established","duration":"Leasehold","paon":"349","saon":"","street":"MANCHESTER ROAD","locality":"WORSLEY","townOrCity":"MANCHESTER","district":"SALFORD","county":"GREATER MANCHESTER","ppdCategoryType":"Standard","recordStatus":"Addition","latitude":53.522961,"longitude":-2.38089,"postcodeStart":"M28 3","postcode":["M28","3HJ"]}
{"price":49950,"dateOfTransfer":"1996-10-31T00:00:00","postcodeFull":"M28 3WW","propertyType":"Terraced","oldOrNew":"New build","duration":"Leasehold","paon":"23","saon":"","street":"LINNETS WOOD MEWS","locality":"WORSLEY","townOrCity":"MANCHESTER","district":"SALFORD","county":"GREATER MANCHESTER","ppdCategoryType":"Standard","recordStatus":"Addition","latitude":53.525725,"longitude":-2.387778,"postcodeStart":"M28 3","postcode":["M28","3WW"]}
{"price":25000,"dateOfTransfer":"1996-08-01T00:00:00","postcodeFull":"M28 3EG","propertyType":"Semi-detached","oldOrNew":"Established","duration":"Leasehold","paon":"83","saon":"","street":"OLD CLOUGH LANE","locality":"WORSLEY","townOrCity":"MANCHESTER","district":"SALFORD","county":"GREATER MANCHESTER","ppdCategoryType":"Standard","recordStatus":"Addition","latitude":53.520609,"longitude":-2.382499,"postcodeStart":"M28 3","postcode":["M28","3EG"]}
{"price":44000,"dateOfTransfer":"1996-03-08T00:00:00","postcodeFull":"M28 3HW","propertyType":"Semi-detached","oldOrNew":"Established","duration":"Leasehold","paon":"12","saon":"","street":"OAKWOOD AVENUE","locality":"WORSLEY","townOrCity":"MANCHESTER","district":"SALFORD","county":"GREATER MANCHESTER","ppdCategoryType":"Standard","recordStatus":"Addition","latitude":53.522629,"longitude":-2.380691,"postcodeStart":"M28 3","postcode":["M28","3HW"]}
{"price":42500,"dateOfTransfer":"1996-01-05T00:00:00","postcodeFull":"M28 3AQ","propertyType":"Terraced","oldOrNew":"Established","duration":"Freehold","paon":"7","saon":"","street":"MEMORIAL ROAD","locality":"WORSLEY","townOrCity":"MANCHESTER","district":"SALFORD","county":"GREATER MANCHESTER","ppdCategoryType":"Standard","recordStatus":"Addition","latitude":53.522811,"longitude":-2.398534,"postcodeStart":"M28 3","postcode":["M28","3AQ"]}
{"price":34950,"dateOfTransfer":"1996-09-06T00:00:00","postcodeFull":"M28 3GW","propertyType":"Terraced","oldOrNew":"Established","duration":"Leasehold","paon":"32","saon":"","street":"WORSLEY ROAD NORTH","locality":"WORSLEY","townOrCity":"MANCHESTER","district":"SALFORD","county":"GREATER MANCHESTER","ppdCategoryType":"Standard","recordStatus":"Addition","latitude":53.532209,"longitude":-2.400224,"postcodeStart":"M28 3","postcode":["M28","3GW"]}
{"price":50950,"dateOfTransfer":"1996-05-31T00:00:00","postcodeFull":"M28 3WW","propertyType":"Semi-detached","oldOrNew":"New build","duration":"Leasehold","paon":"29","saon":"","street":"LINNETS WOOD MEWS","locality":"WORSLEY","townOrCity":"MANCHESTER","district":"SALFORD","county":"GREATER MANCHESTER","ppdCategoryType":"Standard","recordStatus":"Addition","latitude":53.525725,"longitude":-2.387778,"postcodeStart":"M28 3","postcode":["M28","3WW"]}
{"price":32500,"dateOfTransfer":"1996-12-20T00:00:00","postcodeFull":"M28 3JH","propertyType":"Terraced","oldOrNew":"Established","duration":"Leasehold","paon":"21","saon":"","street":"HIGH STREET","locality":"WORSLEY","townOrCity":"MANCHESTER","district":"SALFORD","county":"GREATER MANCHESTER","ppdCategoryType":"Standard","recordStatus":"Addition","latitude":53.52377,"longitude":-2.400144,"postcodeStart":"M28 3","postcode":["M28","3JH"]}
{"price":49950,"dateOfTransfer":"1996-08-30T00:00:00","postcodeFull":"M28 3WJ","propertyType":"Semi-detached","oldOrNew":"Established","duration":"Leasehold","paon":"424","saon":"","street":"MANCHESTER ROAD","locality":"WORSLEY","townOrCity":"MANCHESTER","district":"SALFORD","county":"GREATER MANCHESTER","ppdCategoryType":"Standard","recordStatus":"Addition","latitude":53.52126,"longitude":-2.36991,"postcodeStart":"M28 3","postcode":["M28","3WJ"]}
{"price":23000,"dateOfTransfer":"1996-06-11T00:00:00","postcodeFull":"M28 3PH","propertyType":"Terraced","oldOrNew":"Established","duration":"Freehold","paon":"4","saon":"","street":"WAYSIDE GROVE","locality":"WORSLEY","townOrCity":"MANCHESTER","district":"SALFORD","county":"GREATER MANCHESTER","ppdCategoryType":"Standard","recordStatus":"Addition","latitude":53.527716,"longitude":-2.391915,"postcodeStart":"M28 3","postcode":["M28","3PH"]}
{"price":49950,"dateOfTransfer":"1996-11-14T00:00:00","postcodeFull":"M28 3WW","propertyType":"Terraced","oldOrNew":"New build","duration":"Leasehold","paon":"43","saon":"","street":"LINNETS WOOD MEWS","locality":"WORSLEY","townOrCity":"MANCHESTER","district":"SALFORD","county":"GREATER MANCHESTER","ppdCategoryType":"Standard","recordStatus":"Addition","latitude":53.525725,"longitude":-2.387778,"postcodeStart":"M28 3","postcode":["M28","3WW"]}
{"price":50950,"dateOfTransfer":"1996-11-29T00:00:00","postcodeFull":"M28 3WW","propertyType":"Semi-detached","oldOrNew":"New build","duration":"Leasehold","paon":"49","saon":"","street":"LINNETS WOOD MEWS","locality":"WORSLEY","townOrCity":"MANCHESTER","district":"SALFORD","county":"GREATER MANCHESTER","ppdCategoryType":"Standard","recordStatus":"Addition","latitude":53.525725,"longitude":-2.387778,"postcodeStart":"M28 3","postcode":["M28","3WW"]}
{"price":20000,"dateOfTransfer":"1996-01-19T00:00:00","postcodeFull":"M28 3LA","propertyType":"Terraced","oldOrNew":"Established","duration":"Leasehold","paon":"6","saon":"","street":"MALVERN GROVE","locality":"WORSLEY","townOrCity":"MANCHESTER","district":"SALFORD","county":"GREATER MANCHESTER","ppdCategoryType":"Standard","recordStatus":"Addition","latitude":53.524967,"longitude":-2.396973,"postcodeStart":"M28 3","postcode":["M28","3LA"]}
{"price":43000,"dateOfTransfer":"1996-08-30T00:00:00","postcodeFull":"M28 3AH","propertyType":"Semi-detached","oldOrNew":"Established","duration":"Leasehold","paon":"17A","saon":"","street":"BRIDGEWATER ROAD","locality":"WORSLEY","townOrCity":"MANCHESTER","district":"SALFORD","county":"GREATER MANCHESTER","ppdCategoryType":"Standard","recordStatus":"Addition","latitude":53.520871,"longitude":-2.400778,"postcodeStart":"M28 3","postcode":["M28","3AH"]}
{"price":59950,"dateOfTransfer":"1996-06-14T00:00:00","postcodeFull":"M28 3HX","propertyType":"Semi-detached","oldOrNew":"Established","duration":"Leasehold","paon":"11","saon":"","street":"HOWCLOUGH CLOSE","locality":"WORSLEY","townOrCity":"MANCHESTER","district":"SALFORD","county":"GREATER MANCHESTER","ppdCategoryType":"Standard","recordStatus":"Addition","latitude":53.520618,"longitude":-2.385288,"postcodeStart":"M28 3","postcode":["M28","3HX"]}
{"price":39950,"dateOfTransfer":"1996-05-31T00:00:00","postcodeFull":"M28 3AG","propertyType":"Terraced","oldOrNew":"Established","duration":"Freehold","paon":"64","saon":"","street":"MEMORIAL ROAD","locality":"WORSLEY","townOrCity":"MANCHESTER","district":"SALFORD","county":"GREATER MANCHESTER","ppdCategoryType":"Standard","recordStatus":"Addition","latitude":53.521576,"longitude":-2.397439,"postcodeStart":"M28 3","postcode":["M28","3AG"]}
{"price":45000,"dateOfTransfer":"1996-04-12T00:00:00","postcodeFull":"M28 3LU","propertyType":"Detached","oldOrNew":"Established","duration":"Leasehold","paon":"158","saon":"","street":"MANCHESTER ROAD","locality":"WORSLEY","townOrCity":"MANCHESTER","district":"SALFORD","county":"GREATER MANCHESTER","ppdCategoryType":"Standard","recordStatus":"Addition","latitude":53.523172,"longitude":-2.387135,"postcodeStart":"M28 3","postcode":["M28","3LU"]}
{"price":32000,"dateOfTransfer":"1996-11-29T00:00:00","postcodeFull":"M28 3LA","propertyType":"Terraced","oldOrNew":"Established","duration":"Leasehold","paon":"12","saon":"","street":"MALVERN GROVE","locality":"WORSLEY","townOrCity":"MANCHESTER","district":"SALFORD","county":"GREATER MANCHESTER","ppdCategoryType":"Standard","recordStatus":"Addition","latitude":53.524967,"longitude":-2.396973,"postcodeStart":"M28 3","postcode":["M28","3LA"]}
{"price":15000,"dateOfTransfer":"1996-01-08T00:00:00","postcodeFull":"M28 3AE","propertyType":"Terraced","oldOrNew":"Established","duration":"Freehold","paon":"98","saon":"","street":"BRIDGEWATER ROAD","locality":"WORSLEY","townOrCity":"MANCHESTER","district":"SALFORD","county":"GREATER MANCHESTER","ppdCategoryType":"Standard","recordStatus":"Addition","latitude":53.519401,"longitude":-2.402773,"postcodeStart":"M28 3","postcode":["M28","3AE"]}
{"price":18000,"dateOfTransfer":"1996-07-29T00:00:00","postcodeFull":"M28 3QH","propertyType":"Semi-detached","oldOrNew":"Established","duration":"Freehold","paon":"39","saon":"","street":"HIRST AVENUE","locality":"WORSLEY","townOrCity":"MANCHESTER","district":"SALFORD","county":"GREATER MANCHESTER","ppdCategoryType":"Standard","recordStatus":"Addition","latitude":53.535771,"longitude":-2.40234,"postcodeStart":"M28 3","postcode":["M28","3QH"]}
{"price":37500,"dateOfTransfer":"1996-09-06T00:00:00","postcodeFull":"M28 3AG","propertyType":"Terraced","oldOrNew":"Established","duration":"Freehold","paon":"62","saon":"","street":"MEMORIAL ROAD","locality":"WORSLEY","townOrCity":"MANCHESTER","district":"SALFORD","county":"GREATER MANCHESTER","ppdCategoryType":"Standard","recordStatus":"Addition","latitude":53.521576,"longitude":-2.397439,"postcodeStart":"M28 3","postcode":["M28","3AG"]}
{"price":31500,"dateOfTransfer":"1996-09-06T00:00:00","postcodeFull":"M28 3LE","propertyType":"Terraced","oldOrNew":"Established","duration":"Leasehold","paon":"31","saon":"","street":"CECIL STREET","locality":"WORSLEY","townOrCity":"MANCHESTER","district":"SALFORD","county":"GREATER MANCHESTER","ppdCategoryType":"Standard","recordStatus":"Addition","latitude":53.526333,"longitude":-2.39682,"postcodeStart":"M28 3","postcode":["M28","3LE"]}
{"price":23000,"dateOfTransfer":"1996-04-29T00:00:00","postcodeFull":"M28 3SD","propertyType":"Terraced","oldOrNew":"Established","duration":"Leasehold","paon":"3","saon":"","street":"PARSONAGE ROAD","locality":"WORSLEY","townOrCity":"MANCHESTER","district":"SALFORD","county":"GREATER MANCHESTER","ppdCategoryType":"Standard","recordStatus":"Addition","latitude":53.518862,"longitude":-2.404773,"postcodeStart":"M28 3","postcode":["M28","3SD"]}
{"price":43500,"dateOfTransfer":"1996-08-30T00:00:00","postcodeFull":"M28 3DN","propertyType":"Semi-detached","oldOrNew":"Established","duration":"Leasehold","paon":"21","saon":"","street":"BLANTYRE AVENUE","locality":"WORSLEY","townOrCity":"MANCHESTER","district":"SALFORD","county":"GREATER MANCHESTER","ppdCategoryType":"Standard","recordStatus":"Addition","latitude":53.521226,"longitude":-2.392006,"postcodeStart":"M28 3","postcode":["M28","3DN"]}
{"price":34000,"dateOfTransfer":"1996-01-23T00:00:00","postcodeFull":"M28 3LA","propertyType":"Terraced","oldOrNew":"Established","duration":"Leasehold","paon":"6","saon":"","street":"MALVERN GROVE","locality":"WORSLEY","townOrCity":"MANCHESTER","district":"SALFORD","county":"GREATER MANCHESTER","ppdCategoryType":"Standard","recordStatus":"Addition","latitude":53.524967,"longitude":-2.396973,"postcodeStart":"M28 3","postcode":["M28","3LA"]}
{"price":36950,"dateOfTransfer":"1996-06-28T00:00:00","postcodeFull":"M28 3HE","propertyType":"Terraced","oldOrNew":"Established","duration":"Leasehold","paon":"195","saon":"","street":"MANCHESTER ROAD","locality":"WORSLEY","townOrCity":"MANCHESTER","district":"SALFORD","county":"GREATER MANCHESTER","ppdCategoryType":"Standard","recordStatus":"Addition","latitude":53.522817,"longitude":-2.38653,"postcodeStart":"M28 3","postcode":["M28","3HE"]}
{"price":14000,"dateOfTransfer":"1996-09-24T00:00:00","postcodeFull":"M28 3LB","propertyType":"Terraced","oldOrNew":"Established","duration":"Freehold","paon":"48","saon":"","street":"ALFRED STREET","locality":"WORSLEY","townOrCity":"MANCHESTER","district":"SALFORD","county":"GREATER MANCHESTER","ppdCategoryType":"Standard","recordStatus":"Addition","latitude":53.525638,"longitude":-2.39719,"postcodeStart":"M28 3","postcode":["M28","3LB"]}
{"price":48825,"dateOfTransfer":"1996-06-28T00:00:00","postcodeFull":"M28 3WW","propertyType":"Terraced","oldOrNew":"New build","duration":"Leasehold","paon":"28","saon":"","street":"LINNETS WOOD MEWS","locality":"WORSLEY","townOrCity":"MANCHESTER","district":"SALFORD","county":"GREATER MANCHESTER","ppdCategoryType":"Standard","recordStatus":"Addition","latitude":53.525725,"longitude":-2.387778,"postcodeStart":"M28 3","postcode":["M28","3WW"]}
{"price":38500,"dateOfTransfer":"1996-06-28T00:00:00","postcodeFull":"M28 3PY","propertyType":"Semi-detached","oldOrNew":"Established","duration":"Leasehold","paon":"15","saon":"","street":"ABBEYDALE GARDENS","locality":"WORSLEY","townOrCity":"MANCHESTER","district":"SALFORD","county":"GREATER MANCHESTER","ppdCategoryType":"Standard","recordStatus":"Addition","latitude":53.526828,"longitude":-2.40488,"postcodeStart":"M28 3","postcode":["M28","3PY"]}
{"price":49995,"dateOfTransfer":"1996-07-26T00:00:00","postcodeFull":"M28 3LG","propertyType":"Semi-detached","oldOrNew":"Established","duration":"Leasehold","paon":"38","saon":"","street":"TRINITY CRESCENT","locality":"WORSLEY","townOrCity":"MANCHESTER","district":"SALFORD","county":"GREATER MANCHESTER","ppdCategoryType":"Standard","recordStatus":"Addition","latitude":53.523454,"longitude":-2.391692,"postcodeStart":"M28 3","postcode":["M28","3LG"]}
{"price":52000,"dateOfTransfer":"1996-09-10T00:00:00","postcodeFull":"M28 3SE","propertyType":"Semi-detached","oldOrNew":"Established","duration":"Leasehold","paon":"4A","saon":"","street":"HYDE ROAD","locality":"WORSLEY","townOrCity":"MANCHESTER","district":"SALFORD","county":"GREATER MANCHESTER","ppdCategoryType":"Standard","recordStatus":"Addition","latitude":53.519764,"longitude":-2.407135,"postcodeStart":"M28 3","postcode":["M28","3SE"]}
{"price":48000,"dateOfTransfer":"1996-12-31T00:00:00","postcodeFull":"M28 3HN","propertyType":"Semi-detached","oldOrNew":"Established","duration":"Leasehold","paon":"2","saon":"","street":"OAKWOOD DRIVE","locality":"WORSLEY","townOrCity":"MANCHESTER","district":"SALFORD","county":"GREATER MANCHESTER","ppdCategoryType":"Standard","recordStatus":"Addition","latitude":53.521939,"longitude":-2.379855,"postcodeStart":"M28 3","postcode":["M28","3HN"]}
{"price":30000,"dateOfTransfer":"1996-12-02T00:00:00","postcodeFull":"M28 3AW","propertyType":"Terraced","oldOrNew":"Established","duration":"Freehold","paon":"9","saon":"","street":"WESTMINSTER ROAD","locality":"WORSLEY","townOrCity":"MANCHESTER","district":"SALFORD","county":"GREATER MANCHESTER","ppdCategoryType":"Standard","recordStatus":"Addition","latitude":53.52186,"longitude":-2.398497,"postcodeStart":"M28 3","postcode":["M28","3AW"]}
{"price":50950,"dateOfTransfer":"1996-11-14T00:00:00","postcodeFull":"M28 3WW","propertyType":"Terraced","oldOrNew":"New build","duration":"Leasehold","paon":"40","saon":"","street":"LINNETS WOOD MEWS","locality":"WORSLEY","townOrCity":"MANCHESTER","district":"SALFORD","county":"GREATER MANCHESTER","ppdCategoryType":"Standard","recordStatus":"Addition","latitude":53.525725,"longitude":-2.387778,"postcodeStart":"M28 3","postcode":["M28","3WW"]}
{"price":45500,"dateOfTransfer":"1996-06-28T00:00:00","postcodeFull":"M28 3LX","propertyType":"Semi-detached","oldOrNew":"Established","duration":"Freehold","paon":"6","saon":"","street":"SHARP STREET","locality":"WORSLEY","townOrCity":"MANCHESTER","district":"SALFORD","county":"GREATER MANCHESTER","ppdCategoryType":"Standard","recordStatus":"Addition","latitude":53.524369,"longitude":-2.386678,"postcodeStart":"M28 3","postcode":["M28","3LX"]}
{"price":37500,"dateOfTransfer":"1996-03-22T00:00:00","postcodeFull":"M28 3EG","propertyType":"Semi-detached","oldOrNew":"Established","duration":"Leasehold","paon":"67","saon":"","street":"OLD CLOUGH LANE","locality":"WORSLEY","townOrCity":"MANCHESTER","district":"SALFORD","county":"GREATER MANCHESTER","ppdCategoryType":"Standard","recordStatus":"Addition","latitude":53.520609,"longitude":-2.382499,"postcodeStart":"M28 3","postcode":["M28","3EG"]}
{"price":63150,"dateOfTransfer":"1996-03-29T00:00:00","postcodeFull":"M28 3DP","propertyType":"Detached","oldOrNew":"New build","duration":"Leasehold","paon":"30","saon":"","street":"CHILHAM ROAD","locality":"WORSLEY","townOrCity":"MANCHESTER","district":"SALFORD","county":"GREATER MANCHESTER","ppdCategoryType":"Standard","recordStatus":"Addition","latitude":53.521348,"longitude":-2.392399,"postcodeStart":"M28 3","postcode":["M28","3DP"]}
{"price":45000,"dateOfTransfer":"1996-06-28T00:00:00","postcodeFull":"M28 3WW","propertyType":"Terraced","oldOrNew":"New build","duration":"Leasehold","paon":"25","saon":"","street":"LINNETS WOOD MEWS","locality":"WORSLEY","townOrCity":"MANCHESTER","district":"SALFORD","county":"GREATER MANCHESTER","ppdCategoryType":"Standard","recordStatus":"Addition","latitude":53.525725,"longitude":-2.387778,"postcodeStart":"M28 3","postcode":["M28","3WW"]}
{"price":34000,"dateOfTransfer":"1996-05-31T00:00:00","postcodeFull":"M28 3RE","propertyType":"Terraced","oldOrNew":"Established","duration":"Freehold","paon":"16","saon":"","street":"ALGERNON ROAD","locality":"WORSLEY","townOrCity":"MANCHESTER","district":"SALFORD","county":"GREATER MANCHESTER","ppdCategoryType":"Standard","recordStatus":"Addition","latitude":53.530974,"longitude":-2.40365,"postcodeStart":"M28 3","postcode":["M28","3RE"]}
{"price":57950,"dateOfTransfer":"1996-11-22T00:00:00","postcodeFull":"M28 3WW","propertyType":"Semi-detached","oldOrNew":"New build","duration":"Leasehold","paon":"48","saon":"","street":"LINNETS WOOD MEWS","locality":"WORSLEY","townOrCity":"MANCHESTER","district":"SALFORD","county":"GREATER MANCHESTER","ppdCategoryType":"Standard","recordStatus":"Addition","latitude":53.525725,"longitude":-2.387778,"postcodeStart":"M28 3","postcode":["M28","3WW"]}
{"price":26500,"dateOfTransfer":"1996-08-30T00:00:00","postcodeFull":"M28 3LE","propertyType":"Terraced","oldOrNew":"Established","duration":"Leasehold","paon":"46","saon":"","street":"CECIL STREET","locality":"WORSLEY","townOrCity":"MANCHESTER","district":"SALFORD","county":"GREATER MANCHESTER","ppdCategoryType":"Standard","recordStatus":"Addition","latitude":53.526333,"longitude":-2.39682,"postcodeStart":"M28 3","postcode":["M28","3LE"]}
{"price":49950,"dateOfTransfer":"1996-07-05T00:00:00","postcodeFull":"M28 3WW","propertyType":"Terraced","oldOrNew":"New build","duration":"Leasehold","paon":"26","saon":"","street":"LINNETS WOOD MEWS","locality":"WORSLEY","townOrCity":"MANCHESTER","district":"SALFORD","county":"GREATER MANCHESTER","ppdCategoryType":"Standard","recordStatus":"Addition","latitude":53.525725,"longitude":-2.387778,"postcodeStart":"M28 3","postcode":["M28","3WW"]}
{"price":34500,"dateOfTransfer":"1996-12-19T00:00:00","postcodeFull":"M28 3RH","propertyType":"Semi-detached","oldOrNew":"Established","duration":"Freehold","paon":"4","saon":"","street":"JACKSON STREET","locality":"WORSLEY","townOrCity":"MANCHESTER","district":"SALFORD","county":"GREATER MANCHESTER","ppdCategoryType":"Standard","recordStatus":"Addition","latitude":53.53162,"longitude":-2.401848,"postcodeStart":"M28 3","postcode":["M28","3RH"]}
{"price":47500,"dateOfTransfer":"1996-12-13T00:00:00","postcodeFull":"M28 3NB","propertyType":"Terraced","oldOrNew":"Established","duration":"Freehold","paon":"41","saon":"","street":"FIRFIELD GROVE","locality":"WORSLEY","townOrCity":"MANCHESTER","district":"SALFORD","county":"GREATER MANCHESTER","ppdCategoryType":"Standard","recordStatus":"Addition","latitude":53.524141,"longitude":-2.385577,"postcodeStart":"M28 3","postcode":["M28","3NB"]}
{"price":29000,"dateOfTransfer":"1996-07-02T00:00:00","postcodeFull":"M28 3QZ","propertyType":"Terraced","oldOrNew":"Established","duration":"Leasehold","paon":"40","saon":"","street":"GRANVILLE STREET","locality":"WORSLEY","townOrCity":"MANCHESTER","district":"SALFORD","county":"GREATER MANCHESTER","ppdCategoryType":"Standard","recordStatus":"Addition","latitude":53.527111,"longitude":-2.403359,"postcodeStart":"M28 3","postcode":["M28","3QZ"]}
{"price":35950,"dateOfTransfer":"1996-06-17T00:00:00","postcodeFull":"M28 3TE","propertyType":"Terraced","oldOrNew":"Established","duration":"Leasehold","paon":"459","saon":"","street":"HILTON LANE","locality":"WORSLEY","townOrCity":"MANCHESTER","district":"SALFORD","county":"GREATER MANCHESTER","ppdCategoryType":"Standard","recordStatus":"Addition","latitude":53.518794,"longitude":-2.406824,"postcodeStart":"M28 3","postcode":["M28","3TE"]}
{"price":25500,"dateOfTransfer":"1996-12-06T00:00:00","postcodeFull":"M28 3RF","propertyType":"Terraced","oldOrNew":"Established","duration":"Freehold","paon":"46","saon":"","street":"ST MARYS ROAD","locality":"WORSLEY","townOrCity":"MANCHESTER","district":"SALFORD","county":"GREATER MANCHESTER","ppdCategoryType":"Standard","recordStatus":"Addition","latitude":53.532183,"longitude":-2.402683,"postcodeStart":"M28 3","postcode":["M28","3RF"]}
{"price":52500,"dateOfTransfer":"1996-05-17T00:00:00","postcodeFull":"M28 3HQ","propertyType":"Semi-detached","oldOrNew":"Established","duration":"Leasehold","paon":"54","saon":"","street":"OLD CLOUGH LANE","locality":"WORSLEY","townOrCity":"MANCHESTER","district":"SALFORD","county":"GREATER MANCHESTER","ppdCategoryType":"Standard","recordStatus":"Addition","latitude":53.522283,"longitude":-2.38194,"postcodeStart":"M28 3","postcode":["M28","3HQ"]}
{"price":22500,"dateOfTransfer":"1996-06-21T00:00:00","postcodeFull":"M28 3HE","propertyType":"Flat/Maisonette/Townhouse","oldOrNew":"Established","duration":"Leasehold","paon":"213F","saon":"","street":"MANCHESTER ROAD","locality":"WORSLEY","townOrCity":"MANCHESTER","district":"SALFORD","county":"GREATER MANCHESTER","ppdCategoryType":"Standard","recordStatus":"Addition","latitude":53.522817,"longitude":-2.38653,"postcodeStart":"M28 3","postcode":["M28","3HE"]}
{"price":30000,"dateOfTransfer":"1996-06-13T00:00:00","postcodeFull":"M28 3HF","propertyType":"Flat/Maisonette/Townhouse","oldOrNew":"Established","duration":"Leasehold","paon":"12","saon":"","street":"CAWDOR STREET","locality":"WORSLEY","townOrCity":"MANCHESTER","district":"SALFORD","county":"GREATER MANCHESTER","ppdCategoryType":"Standard","recordStatus":"Addition","latitude":53.52264,"longitude":-2.388052,"postcodeStart":"M28 3","postcode":["M28","3HF"]}
{"price":41250,"dateOfTransfer":"1996-08-16T00:00:00","postcodeFull":"M28 3HZ","propertyType":"Terraced","oldOrNew":"Established","duration":"Freehold","paon":"43","saon":"","street":"OLD CLOUGH LANE","locality":"WORSLEY","townOrCity":"MANCHESTER","district":"SALFORD","county":"GREATER MANCHESTER","ppdCategoryType":"Standard","recordStatus":"Addition","latitude":53.521913,"longitude":-2.382465,"postcodeStart":"M28 3","postcode":["M28","3HZ"]}
{"price":54750,"dateOfTransfer":"1996-11-29T00:00:00","postcodeFull":"M28 3TP","propertyType":"Semi-detached","oldOrNew":"New build","duration":"Leasehold","paon":"5","saon":"","street":"HELMSDALE","locality":"WORSLEY","townOrCity":"MANCHESTER","district":"SALFORD","county":"GREATER MANCHESTER","ppdCategoryType":"Standard","recordStatus":"Addition","latitude":53.519722,"longitude":-2.40086,"postcodeStart":"M28 3","postcode":["M28","3TP"]}
{"price":38000,"dateOfTransfer":"1996-11-21T00:00:00","postcodeFull":"M28 3TE","propertyType":"Terraced","oldOrNew":"Established","duration":"Leasehold","paon":"455","saon":"","street":"HILTON LANE","locality":"WORSLEY","townOrCity":"MANCHESTER","district":"SALFORD","county":"GREATER MANCHESTER","ppdCategoryType":"Standard","recordStatus":"Addition","latitude":53.518794,"longitude":-2.406824,"postcodeStart":"M28 3","postcode":["M28","3TE"]}
{"price":40000,"dateOfTransfer":"1996-08-29T00:00:00","postcodeFull":"M28 3BN","propertyType":"Terraced","oldOrNew":"Established","duration":"Leasehold","paon":"190","saon":"","street":"BOLTON ROAD","locality":"WORSLEY","townOrCity":"MANCHESTER","district":"SALFORD","county":"GREATER MANCHESTER","ppdCategoryType":"Standard","recordStatus":"Addition","latitude":53.52893,"longitude":-2.399755,"postcodeStart":"M28 3","postcode":["M28","3BN"]}
{"price":50000,"dateOfTransfer":"1996-08-30T00:00:00","postcodeFull":"M28 3AX","propertyType":"Terraced","oldOrNew":"Established","duration":"Freehold","paon":"5","saon":"","street":"BOLTON ROAD","locality":"WORSLEY","townOrCity":"MANCHESTER","district":"SALFORD","county":"GREATER MANCHESTER","ppdCategoryType":"Standard","recordStatus":"Addition","latitude":53.524247,"longitude":-2.399227,"postcodeStart":"M28 3","postcode":["M28","3AX"]}
{"price":51000,"dateOfTransfer":"1996-01-24T00:00:00","postcodeFull":"M28 3NB","propertyType":"Semi-detached","oldOrNew":"Established","duration":"Freehold","paon":"3","saon":"","street":"FIRFIELD GROVE","locality":"WORSLEY","townOrCity":"MANCHESTER","district":"SALFORD","county":"GREATER MANCHESTER","ppdCategoryType":"Standard","recordStatus":"Addition","latitude":53.524141,"longitude":-2.385577,"postcodeStart":"M28 3","postcode":["M28","3NB"]}
{"price":38000,"dateOfTransfer":"1996-12-11T00:00:00","postcodeFull":"M28 3DB","propertyType":"Terraced","oldOrNew":"Established","duration":"Leasehold","paon":"38","saon":"","street":"WALKDEN ROAD","locality":"WORSLEY","townOrCity":"MANCHESTER","district":"SALFORD","county":"GREATER MANCHESTER","ppdCategoryType":"Standard","recordStatus":"Addition","latitude":53.521475,"longitude":-2.395553,"postcodeStart":"M28 3","postcode":["M28","3DB"]}
{"price":33000,"dateOfTransfer":"1996-07-12T00:00:00","postcodeFull":"M28 3AP","propertyType":"Terraced","oldOrNew":"Established","duration":"Leasehold","paon":"8","saon":"","street":"WESTMINSTER ROAD","locality":"WORSLEY","townOrCity":"MANCHESTER","district":"SALFORD","county":"GREATER MANCHESTER","ppdCategoryType":"Standard","recordStatus":"Addition","latitude":53.522533,"longitude":-2.396407,"postcodeStart":"M28 3","postcode":["M28","3AP"]}
{"price":30800,"dateOfTransfer":"1996-07-15T00:00:00","postcodeFull":"M28 3RX","propertyType":"Terraced","oldOrNew":"Established","duration":"Leasehold","paon":"9","saon":"","street":"ST JOHN STREET","locality":"WORSLEY","townOrCity":"MANCHESTER","district":"SALFORD","county":"GREATER MANCHESTER","ppdCategoryType":"Standard","recordStatus":"Addition","latitude":53.530201,"longitude":-2.401442,"postcodeStart":"M28 3","postcode":["M28","3RX"]}
{"price":59950,"dateOfTransfer":"1996-12-18T00:00:00","postcodeFull":"M28 3JR","propertyType":"Semi-detached","oldOrNew":"Established","duration":"Freehold","paon":"9","saon":"","street":"OLD VICARAGE GARDENS","locality":"WORSLEY","townOrCity":"MANCHESTER","district":"SALFORD","county":"GREATER MANCHESTER","ppdCategoryType":"Standard","recordStatus":"Addition","latitude":53.523948,"longitude":-2.395063,"postcodeStart":"M28 3","postcode":["M28","3JR"]}
{"price":28500,"dateOfTransfer":"1996-12-16T00:00:00","postcodeFull":"M28 3WS","propertyType":"Terraced","oldOrNew":"Established","duration":"Leasehold","paon":"51","saon":"","street":"MANCHESTER ROAD","locality":"WORSLEY","townOrCity":"MANCHESTER","district":"SALFORD","county":"GREATER MANCHESTER","ppdCategoryType":"Standard","recordStatus":"Addition","latitude":53.52229,"longitude":-2.393584,"postcodeStart":"M28 3","postcode":["M28","3WS"]}
{"price":29500,"dateOfTransfer":"1996-10-18T00:00:00","postcodeFull":"M28 3LB","propertyType":"Terraced","oldOrNew":"Established","duration":"Leasehold","paon":"33","saon":"","street":"ALFRED STREET","locality":"WORSLEY","townOrCity":"MANCHESTER","district":"SALFORD","county":"GREATER MANCHESTER","ppdCategoryType":"Standard","recordStatus":"Addition","latitude":53.525638,"longitude":-2.39719,"postcodeStart":"M28 3","postcode":["M28","3LB"]}
{"price":49950,"dateOfTransfer":"1996-06-28T00:00:00","postcodeFull":"M28 3WW","propertyType":"Semi-detached","oldOrNew":"New build","duration":"Leasehold","paon":"27","saon":"","street":"LINNETS WOOD MEWS","locality":"WORSLEY","townOrCity":"MANCHESTER","district":"SALFORD","county":"GREATER MANCHESTER","ppdCategoryType":"Standard","recordStatus":"Addition","latitude":53.525725,"longitude":-2.387778,"postcodeStart":"M28 3","postcode":["M28","3WW"]}
{"price":38000,"dateOfTransfer":"1996-11-22T00:00:00","postcodeFull":"M28 3DJ","propertyType":"Semi-detached","oldOrNew":"Established","duration":"Leasehold","paon":"9","saon":"","street":"COLLYHURST AVENUE","locality":"WORSLEY","townOrCity":"MANCHESTER","district":"SALFORD","county":"GREATER MANCHESTER","ppdCategoryType":"Standard","recordStatus":"Addition","latitude":53.521545,"longitude":-2.393246,"postcodeStart":"M28 3","postcode":["M28","3DJ"]}
{"price":48300,"dateOfTransfer":"1996-09-26T00:00:00","postcodeFull":"M28 3PW","propertyType":"Semi-detached","oldOrNew":"Established","duration":"Freehold","paon":"63","saon":"","street":"HOPEFOLD DRIVE","locality":"WORSLEY","townOrCity":"MANCHESTER","district":"SALFORD","county":"GREATER MANCHESTER","ppdCategoryType":"Standard","recordStatus":"Addition","latitude":53.520196,"longitude":-2.38806,"postcodeStart":"M28 3","postcode":["M28","3PW"]}
{"price":37995,"dateOfTransfer":"1996-08-09T00:00:00","postcodeFull":"M28 3LE","propertyType":"Terraced","oldOrNew":"Established","duration":"Leasehold","paon":"59","saon":"","street":"CECIL STREET","locality":"WORSLEY","townOrCity":"MANCHESTER","district":"SALFORD","county":"GREATER MANCHESTER","ppdCategoryType":"Standard","recordStatus":"Addition","latitude":53.526333,"longitude":-2.39682,"postcodeStart":"M28 3","postcode":["M28","3LE"]}
{"price":45000,"dateOfTransfer":"1996-10-17T00:00:00","postcodeFull":"M28 3DP","propertyType":"Semi-detached","oldOrNew":"Established","duration":"Leasehold","paon":"13A","saon":"","street":"CHILHAM ROAD","locality":"WORSLEY","townOrCity":"MANCHESTER","district":"SALFORD","county":"GREATER MANCHESTER","ppdCategoryType":"Standard","recordStatus":"Addition","latitude":53.521348,"longitude":-2.392399,"postcodeStart":"M28 3","postcode":["M28","3DP"]}
{"price":32000,"dateOfTransfer":"1996-07-05T00:00:00","postcodeFull":"M28 3LL","propertyType":"Semi-detached","oldOrNew":"Established","duration":"Freehold","paon":"60","saon":"","street":"WILBRAHAM ROAD","locality":"WORSLEY","townOrCity":"MANCHESTER","district":"SALFORD","county":"GREATER MANCHESTER","ppdCategoryType":"Standard","recordStatus":"Addition","latitude":53.524391,"longitude":-2.391552,"postcodeStart":"M28 3","postcode":["M28","3LL"]}
{"price":22000,"dateOfTransfer":"1996-08-30T00:00:00","postcodeFull":"M28 3DT","propertyType":"Terraced","oldOrNew":"Established","duration":"Leasehold","paon":"2","saon":"","street":"STANLEY ROAD","locality":"WORSLEY","townOrCity":"MANCHESTER","district":"SALFORD","county":"GREATER MANCHESTER","ppdCategoryType":"Standard","recordStatus":"Addition","latitude":53.520406,"longitude":-2.398016,"postcodeStart":"M28 3","postcode":["M28","3DT"]}
