{"price":55000,"dateOfTransfer":"1995-12-15T00:00:00","postcodeFull":"MK13 9HN","propertyType":"Semi-detached","oldOrNew":"Established","duration":"Freehold","paon":"36","saon":"","street":"RAMSAY CLOSE","locality":"BRADWELL","townOrCity":"MILTON KEYNES","district":"MILTON KEYNES","county":"MILTON KEYNES","ppdCategoryType":"Standard","recordStatus":"Addition","latitude":52.045832,"longitude":-0.781996,"postcodeStart":"MK13 9","postcode":["MK13","9HN"]}
{"price":43500,"dateOfTransfer":"1995-08-25T00:00:00","postcodeFull":"MK13 9DS","propertyType":"Semi-detached","oldOrNew":"Established","duration":"Freehold","paon":"24","saon":"","street":"QUINTON DRIVE","locality":"BRADWELL","townOrCity":"MILTON KEYNES","district":"MILTON KEYNES","county":"MILTON KEYNES","ppdCategoryType":"Standard","recordStatus":"Addition","latitude":52.047812,"longitude":-0.782234,"postcodeStart":"MK13 9","postcode":["MK13","9DS"]}
{"price":16800,"dateOfTransfer":"1995-10-11T00:00:00","postcodeFull":"MK13 9EP","propertyType":"Terraced","oldOrNew":"Established","duration":"Freehold","paon":"92","saon":"","street":"HILLIARD DRIVE","locality":"BRADWELL","townOrCity":"MILTON KEYNES","district":"MILTON KEYNES","county":"MILTON KEYNES","ppdCategoryType":"Standard","recordStatus":"Addition","latitude":52.044762,"longitude":-0.787289,"postcodeStart":"MK13 9","postcode":["MK13","9EP"]}
{"price":43000,"dateOfTransfer":"1995-05-31T00:00:00","postcodeFull":"MK13 9DW","propertyType":"Semi-detached","oldOrNew":"Established","duration":"Freehold","paon":"58","saon":"","street":"WALGRAVE DRIVE","locality":"BRADWELL","townOrCity":"MILTON KEYNES","district":"MILTON KEYNES","county":"MILTON KEYNES","ppdCategoryType":"Standard","recordStatus":"Addition","latitude":52.048528,"longitude":-0.782558,"postcodeStart":"MK13 9","postcode":["MK13","9DW"]}
{"price":23000,"dateOfTransfer":"1995-12-05T00:00:00","postcodeFull":"MK13 9HH","propertyType":"Terraced","oldOrNew":"Established","duration":"Leasehold","paon":"53","saon":"","street":"QUINTON DRIVE","locality":"BRADWELL","townOrCity":"MILTON KEYNES","district":"MILTON KEYNES","county":"MILTON KEYNES","ppdCategoryType":"Standard","recordStatus":"Addition","latitude":52.046012,"longitude":-0.782953,"postcodeStart":"MK13 9","postcode":["MK13","9HH"]}
{"price":42995,"dateOfTransfer":"1995-05-12T00:00:00","postcodeFull":"MK13 9HW","propertyType":"Terraced","oldOrNew":"Established","duration":"Freehold","paon":"67","saon":"","street":"QUINTON DRIVE","locality":"BRADWELL","townOrCity":"MILTON KEYNES","district":"MILTON KEYNES","county":"MILTON KEYNES","ppdCategoryType":"Standard","recordStatus":"Addition","latitude":52.045785,"longitude":-0.783572,"postcodeStart":"MK13 9","postcode":["MK13","9HW"]}
{"price":49000,"dateOfTransfer":"1995-03-19T00:00:00","postcodeFull":"MK13 9EX","propertyType":"Semi-detached","oldOrNew":"Established","duration":"Freehold","paon":"7","saon":"","street":"BRADBURY CLOSE","locality":"BRADWELL","townOrCity":"MILTON KEYNES","district":"MILTON KEYNES","county":"MILTON KEYNES","ppdCategoryType":"Standard","recordStatus":"Addition","latitude":52.046199,"longitude":-0.785384,"postcodeStart":"MK13 9","postcode":["MK13","9EX"]}
{"price":28000,"dateOfTransfer":"1995-01-03T00:00:00","postcodeFull":"MK13 9HN","propertyType":"Semi-detached","oldOrNew":"Established","duration":"Leasehold","paon":"5","saon":"","street":"RAMSAY CLOSE","locality":"BRADWELL","townOrCity":"MILTON KEYNES","district":"MILTON KEYNES","county":"MILTON KEYNES","ppdCategoryType":"Standard","recordStatus":"Addition","latitude":52.045832,"longitude":-0.781996,"postcodeStart":"MK13 9","postcode":["MK13","9HN"]}
{"price":85000,"dateOfTransfer":"1995-01-30T00:00:00","postcodeFull":"MK13 9BX","propertyType":"Detached","oldOrNew":"Established","duration":"Freehold","paon":"44","saon":"","street":"THE SPINNEY","locality":"BRADWELL","townOrCity":"MILTON KEYNES","district":"MILTON KEYNES","county":"MILTON KEYNES","ppdCategoryType":"Standard","recordStatus":"Addition","latitude":52.050729,"longitude":-0.790423,"postcodeStart":"MK13 9","postcode":["MK13","9BX"]}
{"price":55000,"dateOfTransfer":"1995-08-02T00:00:00","postcodeFull":"MK13 9HT","propertyType":"Terraced","oldOrNew":"Established","duration":"Freehold","paon":"19","saon":"","street":"ATKINS CLOSE","locality":"BRADWELL","townOrCity":"MILTON KEYNES","district":"MILTON KEYNES","county":"MILTON KEYNES","ppdCategoryType":"Standard","recordStatus":"Addition","latitude":52.045207,"longitude":-0.783354,"postcodeStart":"MK13 9","postcode":["MK13","9HT"]}
{"price":70000,"dateOfTransfer":"1995-09-29T00:00:00","postcodeFull":"MK13 9DA","propertyType":"Semi-detached","oldOrNew":"Established","duration":"Freehold","paon":"16","saon":"","street":"COLLEY HILL","locality":"BRADWELL","townOrCity":"MILTON KEYNES","district":"MILTON KEYNES","county":"MILTON KEYNES","ppdCategoryType":"Standard","recordStatus":"Addition","latitude":52.05211,"longitude":-0.786565,"postcodeStart":"MK13 9","postcode":["MK13","9DA"]}
{"price":48000,"dateOfTransfer":"1995-02-24T00:00:00","postcodeFull":"MK13 9DT","propertyType":"Semi-detached","oldOrNew":"Established","duration":"Freehold","paon":"15","saon":"","street":"QUINTON DRIVE","locality":"BRADWELL","townOrCity":"MILTON KEYNES","district":"MILTON KEYNES","county":"MILTON KEYNES","ppdCategoryType":"Standard","recordStatus":"Addition","latitude":52.047889,"longitude":-0.781809,"postcodeStart":"MK13 9","postcode":["MK13","9DT"]}
{"price":42000,"dateOfTransfer":"1995-08-04T00:00:00","postcodeFull":"MK13 9DB","propertyType":"Semi-detached","oldOrNew":"Established","duration":"Freehold","paon":"60","saon":"","street":"COLLEY HILL","locality":"BRADWELL","townOrCity":"MILTON KEYNES","district":"MILTON KEYNES","county":"MILTON KEYNES","ppdCategoryType":"Standard","recordStatus":"Addition","latitude":52.051545,"longitude":-0.788505,"postcodeStart":"MK13 9","postcode":["MK13","9DB"]}
{"price":57000,"dateOfTransfer":"1995-02-03T00:00:00","postcodeFull":"MK13 9BE","propertyType":"Detached","oldOrNew":"Established","duration":"Freehold","paon":"5","saon":"","street":"COPPIN LANE","locality":"BRADWELL","townOrCity":"MILTON KEYNES","district":"MILTON KEYNES","county":"MILTON KEYNES","ppdCategoryType":"Standard","recordStatus":"Addition","latitude":52.046818,"longitude":-0.78439,"postcodeStart":"MK13 9","postcode":["MK13","9BE"]}
{"price":42000,"dateOfTransfer":"1995-06-09T00:00:00","postcodeFull":"MK13 9DG","propertyType":"Semi-detached","oldOrNew":"Established","duration":"Freehold","paon":"33","saon":"","street":"HAMPSON CLOSE","locality":"BRADWELL","townOrCity":"MILTON KEYNES","district":"MILTON KEYNES","county":"MILTON KEYNES","ppdCategoryType":"Standard","recordStatus":"Addition","latitude":52.052247,"longitude":-0.785015,"postcodeStart":"MK13 9","postcode":["MK13","9DG"]}
{"price":78000,"dateOfTransfer":"1995-09-29T00:00:00","postcodeFull":"MK13 9BX","propertyType":"Semi-detached","oldOrNew":"Established","duration":"Freehold","paon":"53","saon":"","street":"THE SPINNEY","locality":"BRADWELL","townOrCity":"MILTON KEYNES","district":"MILTON KEYNES","county":"MILTON KEYNES","ppdCategoryType":"Standard","recordStatus":"Addition","latitude":52.050729,"longitude":-0.790423,"postcodeStart":"MK13 9","postcode":["MK13","9BX"]}
{"price":37000,"dateOfTransfer":"1995-06-16T00:00:00","postcodeFull":"MK13 9EG","propertyType":"Terraced","oldOrNew":"Established","duration":"Freehold","paon":"58","saon":"","street":"HILLIARD DRIVE","locality":"BRADWELL","townOrCity":"MILTON KEYNES","district":"MILTON KEYNES","county":"MILTON KEYNES","ppdCategoryType":"Standard","recordStatus":"Addition","latitude":52.045848,"longitude":-0.787974,"postcodeStart":"MK13 9","postcode":["MK13","9EG"]}
{"price":44500,"dateOfTransfer":"1995-07-21T00:00:00","postcodeFull":"MK13 9DQ","propertyType":"Semi-detached","oldOrNew":"Established","duration":"Freehold","paon":"15","saon":"","street":"RAWLINS ROAD","locality":"BRADWELL","townOrCity":"MILTON KEYNES","district":"MILTON KEYNES","county":"MILTON KEYNES","ppdCategoryType":"Standard","recordStatus":"Addition","latitude":52.051608,"longitude":-0.784129,"postcodeStart":"MK13 9","postcode":["MK13","9DQ"]}
{"price":55500,"dateOfTransfer":"1995-09-29T00:00:00","postcodeFull":"MK13 9BY","propertyType":"Semi-detached","oldOrNew":"Established","duration":"Freehold","paon":"6","saon":"","street":"HALY CLOSE","locality":"BRADWELL","townOrCity":"MILTON KEYNES","district":"MILTON KEYNES","county":"MILTON KEYNES","ppdCategoryType":"Standard","recordStatus":"Addition","latitude":52.047715,"longitude":-0.783243,"postcodeStart":"MK13 9","postcode":["MK13","9BY"]}
{"price":43000,"dateOfTransfer":"1995-09-14T00:00:00","postcodeFull":"MK13 9HS","propertyType":"Terraced","oldOrNew":"Established","duration":"Freehold","paon":"18","saon":"","street":"MAYNARD CLOSE","locality":"BRADWELL","townOrCity":"MILTON KEYNES","district":"MILTON KEYNES","county":"MILTON KEYNES","ppdCategoryType":"Standard","recordStatus":"Addition","latitude":52.045047,"longitude":-0.78435,"postcodeStart":"MK13 9","postcode":["MK13","9HS"]}
{"price":35500,"dateOfTransfer":"1995-10-20T00:00:00","postcodeFull":"MK13 9AL","propertyType":"Terraced","oldOrNew":"Established","duration":"Freehold","paon":"42","saon":"","street":"ABBEY ROAD","locality":"BRADWELL","townOrCity":"MILTON KEYNES","district":"MILTON KEYNES","county":"MILTON KEYNES","ppdCategoryType":"Standard","recordStatus":"Addition","latitude":52.049073,"longitude":-0.790308,"postcodeStart":"MK13 9","postcode":["MK13","9AL"]}
{"price":22900,"dateOfTransfer":"1995-05-05T00:00:00","postcodeFull":"MK13 9HS","propertyType":"Flat/Maisonette/Townhouse","oldOrNew":"Established","duration":"Leasehold","paon":"8","saon":"","street":"MAYNARD CLOSE","locality":"BRADWELL","townOrCity":"MILTON KEYNES","district":"MILTON KEYNES","county":"MILTON KEYNES","ppdCategoryType":"Standard","recordStatus":"Addition","latitude":52.045047,"longitude":-0.78435,"postcodeStart":"MK13 9","postcode":["MK13","9HS"]}
{"price":43000,"dateOfTransfer":"1995-09-11T00:00:00","postcodeFull":"MK13 9EG","propertyType":"Semi-detached","oldOrNew":"Established","duration":"Freehold","paon":"42","saon":"","street":"HILLIARD DRIVE","locality":"BRADWELL","townOrCity":"MILTON KEYNES","district":"MILTON KEYNES","county":"MILTON KEYNES","ppdCategoryType":"Standard","recordStatus":"Addition","latitude":52.045848,"longitude":-0.787974,"postcodeStart":"MK13 9","postcode":["MK13","9EG"]}
{"price":37000,"dateOfTransfer":"1995-12-21T00:00:00","postcodeFull":"MK13 9EE","propertyType":"Semi-detached","oldOrNew":"Established","duration":"Freehold","paon":"15","saon":"","street":"SHARMAN WALK","locality":"BRADWELL","townOrCity":"MILTON KEYNES","district":"MILTON KEYNES","county":"MILTON KEYNES","ppdCategoryType":"Standard","recordStatus":"Addition","latitude":52.046848,"longitude":-0.788122,"postcodeStart":"MK13 9","postcode":["MK13","9EE"]}
{"price":38000,"dateOfTransfer":"1995-05-10T00:00:00","postcodeFull":"MK13 9EW","propertyType":"Terraced","oldOrNew":"Established","duration":"Freehold","paon":"65","saon":"","street":"HILLIARD DRIVE","locality":"BRADWELL","townOrCity":"MILTON KEYNES","district":"MILTON KEYNES","county":"MILTON KEYNES","ppdCategoryType":"Standard","recordStatus":"Addition","latitude":52.045089,"longitude":-0.786668,"postcodeStart":"MK13 9","postcode":["MK13","9EW"]}
{"price":50000,"dateOfTransfer":"1995-12-15T00:00:00","postcodeFull":"MK13 9BD","propertyType":"Semi-detached","oldOrNew":"Established","duration":"Freehold","paon":"4","saon":"","street":"AUDLEY MEAD","locality":"BRADWELL","townOrCity":"MILTON KEYNES","district":"MILTON KEYNES","county":"MILTON KEYNES","ppdCategoryType":"Standard","recordStatus":"Addition","latitude":52.047018,"longitude":-0.783684,"postcodeStart":"MK13 9","postcode":["MK13","9BD"]}
{"price":21000,"dateOfTransfer":"1995-03-24T00:00:00","postcodeFull":"MK13 9EY","propertyType":"Flat/Maisonette/Townhouse","oldOrNew":"Established","duration":"Leasehold","paon":"2","saon":"","street":"ATTERBROOK","locality":"BRADWELL","townOrCity":"MILTON KEYNES","district":"MILTON KEYNES","county":"MILTON KEYNES","ppdCategoryType":"Standard","recordStatus":"Addition","latitude":52.048045,"longitude":-0.787664,"postcodeStart":"MK13 9","postcode":["MK13","9EY"]}
{"price":72000,"dateOfTransfer":"1995-08-04T00:00:00","postcodeFull":"MK13 9BX","propertyType":"Semi-detached","oldOrNew":"Established","duration":"Freehold","paon":"52","saon":"","street":"THE SPINNEY","locality":"BRADWELL","townOrCity":"MILTON KEYNES","district":"MILTON KEYNES","county":"MILTON KEYNES","ppdCategoryType":"Standard","recordStatus":"Addition","latitude":52.050729,"longitude":-0.790423,"postcodeStart":"MK13 9","postcode":["MK13","9BX"]}
{"price":69995,"dateOfTransfer":"1995-12-08T00:00:00","postcodeFull":"MK13 9BX","propertyType":"Detached","oldOrNew":"Established","duration":"Freehold","paon":"1","saon":"","street":"THE SPINNEY","locality":"BRADWELL","townOrCity":"MILTON KEYNES","district":"MILTON KEYNES","county":"MILTON KEYNES","ppdCategoryType":"Standard","recordStatus":"Addition","latitude":52.050729,"longitude":-0.790423,"postcodeStart":"MK13 9","postcode":["MK13","9BX"]}
{"price":39500,"dateOfTransfer":"1995-10-20T00:00:00","postcodeFull":"MK13 9EP","propertyType":"Terraced","oldOrNew":"Established","duration":"Freehold","paon":"94","saon":"","street":"HILLIARD DRIVE","locality":"BRADWELL","townOrCity":"MILTON KEYNES","district":"MILTON KEYNES","county":"MILTON KEYNES","ppdCategoryType":"Standard","recordStatus":"Addition","latitude":52.044762,"longitude":-0.787289,"postcodeStart":"MK13 9","postcode":["MK13","9EP"]}
{"price":47000,"dateOfTransfer":"1995-02-28T00:00:00","postcodeFull":"MK13 9DX","propertyType":"Semi-detached","oldOrNew":"Established","duration":"Freehold","paon":"27","saon":"","street":"CRADDOCKS CLOSE","locality":"BRADWELL","townOrCity":"MILTON KEYNES","district":"MILTON KEYNES","county":"MILTON KEYNES","ppdCategoryType":"Standard","recordStatus":"Addition","latitude":52.0469,"longitude":-0.780961,"postcodeStart":"MK13 9","postcode":["MK13","9DX"]}
{"price":57000,"dateOfTransfer":"1995-02-01T00:00:00","postcodeFull":"MK13 9BG","propertyType":"Detached","oldOrNew":"Established","duration":"Freehold","paon":"42","saon":"","street":"WALGRAVE DRIVE","locality":"BRADWELL","townOrCity":"MILTON KEYNES","district":"MILTON KEYNES","county":"MILTON KEYNES","ppdCategoryType":"Standard","recordStatus":"Addition","latitude":52.047765,"longitude":-0.783781,"postcodeStart":"MK13 9","postcode":["MK13","9BG"]}
{"price":73000,"dateOfTransfer":"1995-02-03T00:00:00","postcodeFull":"MK13 9BS","propertyType":"Detached","oldOrNew":"Established","duration":"Freehold","paon":"19","saon":"","street":"WALGRAVE DRIVE","locality":"BRADWELL","townOrCity":"MILTON KEYNES","district":"MILTON KEYNES","county":"MILTON KEYNES","ppdCategoryType":"Standard","recordStatus":"Addition","latitude":52.047422,"longitude":-0.78449,"postcodeStart":"MK13 9","postcode":["MK13","9BS"]}
{"price":40000,"dateOfTransfer":"1995-12-05T00:00:00","postcodeFull":"MK13 9AL","propertyType":"Terraced","oldOrNew":"Established","duration":"Freehold","paon":"32","saon":"","street":"ABBEY ROAD","locality":"BRADWELL","townOrCity":"MILTON KEYNES","district":"MILTON KEYNES","county":"MILTON KEYNES","ppdCategoryType":"Standard","recordStatus":"Addition","latitude":52.049073,"longitude":-0.790308,"postcodeStart":"MK13 9","postcode":["MK13","9AL"]}
{"price":46000,"dateOfTransfer":"1995-05-05T00:00:00","postcodeFull":"MK13 9DG","propertyType":"Semi-detached","oldOrNew":"Established","duration":"Freehold","paon":"26","saon":"","street":"HAMPSON CLOSE","locality":"BRADWELL","townOrCity":"MILTON KEYNES","district":"MILTON KEYNES","county":"MILTON KEYNES","ppdCategoryType":"Standard","recordStatus":"Addition","latitude":52.052247,"longitude":-0.785015,"postcodeStart":"MK13 9","postcode":["MK13","9DG"]}
{"price":112000,"dateOfTransfer":"1995-03-31T00:00:00","postcodeFull":"MK13 9HU","propertyType":"Detached","oldOrNew":"Established","duration":"Freehold","paon":"10","saon":"","street":"NURSERY GARDENS","locality":"BRADWELL","townOrCity":"MILTON KEYNES","district":"MILTON KEYNES","county":"MILTON KEYNES","ppdCategoryType":"Standard","recordStatus":"Addition","latitude":52.049167,"longitude":-0.788978,"postcodeStart":"MK13 9","postcode":["MK13","9HU"]}
{"price":26500,"dateOfTransfer":"1996-01-08T00:00:00","postcodeFull":"MK13 9ES","propertyType":"Terraced","oldOrNew":"Established","duration":"Freehold","paon":"12","saon":"","street":"COPPIN LANE","locality":"BRADWELL","townOrCity":"MILTON KEYNES","district":"MILTON KEYNES","county":"MILTON KEYNES","ppdCategoryType":"Standard","recordStatus":"Addition","latitude":52.046403,"longitude":-0.784255,"postcodeStart":"MK13 9","postcode":["MK13","9ES"]}
{"price":73000,"dateOfTransfer":"1996-12-20T00:00:00","postcodeFull":"MK13 9HN","propertyType":"Semi-detached","oldOrNew":"Established","duration":"Freehold","paon":"30","saon":"","street":"RAMSAY CLOSE","locality":"BRADWELL","townOrCity":"MILTON KEYNES","district":"MILTON KEYNES","county":"MILTON KEYNES","ppdCategoryType":"Standard","recordStatus":"Addition","latitude":52.045832,"longitude":-0.781996,"postcodeStart":"MK13 9","postcode":["MK13","9HN"]}
{"price":44500,"dateOfTransfer":"1996-03-29T00:00:00","postcodeFull":"MK13 9BE","propertyType":"Semi-detached","oldOrNew":"Established","duration":"Freehold","paon":"1","saon":"","street":"COPPIN LANE","locality":"BRADWELL","townOrCity":"MILTON KEYNES","district":"MILTON KEYNES","county":"MILTON KEYNES","ppdCategoryType":"Standard","recordStatus":"Addition","latitude":52.046818,"longitude":-0.78439,"postcodeStart":"MK13 9","postcode":["MK13","9BE"]}
{"price":60000,"dateOfTransfer":"1996-06-07T00:00:00","postcodeFull":"MK13 9HS","propertyType":"Detached","oldOrNew":"Established","duration":"Freehold","paon":"22","saon":"","street":"MAYNARD CLOSE","locality":"BRADWELL","townOrCity":"MILTON KEYNES","district":"MILTON KEYNES","county":"MILTON KEYNES","ppdCategoryType":"Standard","recordStatus":"Addition","latitude":52.045047,"longitude":-0.78435,"postcodeStart":"MK13 9","postcode":["MK13","9HS"]}
{"price":41325,"dateOfTransfer":"1996-05-10T00:00:00","postcodeFull":"MK13 9DB","propertyType":"Terraced","oldOrNew":"Established","duration":"Freehold","paon":"48","saon":"","street":"COLLEY HILL","locality":"BRADWELL","townOrCity":"MILTON KEYNES","district":"MILTON KEYNES","county":"MILTON KEYNES","ppdCategoryType":"Standard","recordStatus":"Addition","latitude":52.051545,"longitude":-0.788505,"postcodeStart":"MK13 9","postcode":["MK13","9DB"]}
{"price":36500,"dateOfTransfer":"1996-10-31T00:00:00","postcodeFull":"MK13 9EG","propertyType":"Terraced","oldOrNew":"Established","duration":"Freehold","paon":"64","saon":"","street":"HILLIARD DRIVE","locality":"BRADWELL","townOrCity":"MILTON KEYNES","district":"MILTON KEYNES","county":"MILTON KEYNES","ppdCategoryType":"Standard","recordStatus":"Addition","latitude":52.045848,"longitude":-0.787974,"postcodeStart":"MK13 9","postcode":["MK13","9EG"]}
{"price":58000,"dateOfTransfer":"1996-08-30T00:00:00","postcodeFull":"MK13 9HZ","propertyType":"Semi-detached","oldOrNew":"Established","duration":"Freehold","paon":"45","saon":"","street":"FOSTERS LANE","locality":"BRADWELL","townOrCity":"MILTON KEYNES","district":"MILTON KEYNES","county":"MILTON KEYNES","ppdCategoryType":"Standard","recordStatus":"Addition","latitude":52.043663,"longitude":-0.784403,"postcodeStart":"MK13 9","postcode":["MK13","9HZ"]}
{"price":94000,"dateOfTransfer":"1996-01-15T00:00:00","postcodeFull":"MK13 9EJ","propertyType":"Detached","oldOrNew":"Established","duration":"Freehold","paon":"13","saon":"","street":"OVEREND CLOSE","locality":"BRADWELL","townOrCity":"MILTON KEYNES","district":"MILTON KEYNES","county":"MILTON KEYNES","ppdCategoryType":"Standard","recordStatus":"Addition","latitude":52.047996,"longitude":-0.785262,"postcodeStart":"MK13 9","postcode":["MK13","9EJ"]}
{"price":46000,"dateOfTransfer":"1996-01-31T00:00:00","postcodeFull":"MK13 9HN","propertyType":"Terraced","oldOrNew":"Established","duration":"Freehold","paon":"43","saon":"","street":"RAMSAY CLOSE","locality":"BRADWELL","townOrCity":"MILTON KEYNES","district":"MILTON KEYNES","county":"MILTON KEYNES","ppdCategoryType":"Standard","recordStatus":"Addition","latitude":52.045832,"longitude":-0.781996,"postcodeStart":"MK13 9","postcode":["MK13","9HN"]}
{"price":68500,"dateOfTransfer":"1996-10-07T00:00:00","postcodeFull":"MK13 9HZ","propertyType":"Semi-detached","oldOrNew":"Established","duration":"Freehold","paon":"49","saon":"","street":"FOSTERS LANE","locality":"BRADWELL","townOrCity":"MILTON KEYNES","district":"MILTON KEYNES","county":"MILTON KEYNES","ppdCategoryType":"Standard","recordStatus":"Addition","latitude":52.043663,"longitude":-0.784403,"postcodeStart":"MK13 9","postcode":["MK13","9HZ"]}
{"price":31500,"dateOfTransfer":"1996-05-31T00:00:00","postcodeFull":"MK13 9EE","propertyType":"Terraced","oldOrNew":"Established","duration":"Freehold","paon":"23","saon":"","street":"SHARMAN WALK","locality":"BRADWELL","townOrCity":"MILTON KEYNES","district":"MILTON KEYNES","county":"MILTON KEYNES","ppdCategoryType":"Standard","recordStatus":"Addition","latitude":52.046848,"longitude":-0.788122,"postcodeStart":"MK13 9","postcode":["MK13","9EE"]}
{"price":62500,"dateOfTransfer":"1996-12-19T00:00:00","postcodeFull":"MK13 9HN","propertyType":"Detached","oldOrNew":"Established","duration":"Freehold","paon":"9","saon":"","street":"RAMSAY CLOSE","locality":"BRADWELL","townOrCity":"MILTON KEYNES","district":"MILTON KEYNES","county":"MILTON KEYNES","ppdCategoryType":"Standard","recordStatus":"Addition","latitude":52.045832,"longitude":-0.781996,"postcodeStart":"MK13 9","postcode":["MK13","9HN"]}
{"price":65000,"dateOfTransfer":"1996-04-30T00:00:00","postcodeFull":"MK13 9HT","propertyType":"Semi-detached","oldOrNew":"Established","duration":"Freehold","paon":"14","saon":"","street":"ATKINS CLOSE","locality":"BRADWELL","townOrCity":"MILTON KEYNES","district":"MILTON KEYNES","county":"MILTON KEYNES","ppdCategoryType":"Standard","recordStatus":"Addition","latitude":52.045207,"longitude":-0.783354,"postcodeStart":"MK13 9","postcode":["MK13","9HT"]}
{"price":21500,"dateOfTransfer":"1996-01-31T00:00:00","postcodeFull":"MK13 9DZ","propertyType":"Terraced","oldOrNew":"Established","duration":"Leasehold","paon":"3","saon":"","street":"HABERLEY MEAD","locality":"BRADWELL","townOrCity":"MILTON KEYNES","district":"MILTON KEYNES","county":"MILTON KEYNES","ppdCategoryType":"Standard","recordStatus":"Addition","latitude":52.046463,"longitude":-0.783072,"postcodeStart":"MK13 9","postcode":["MK13","9DZ"]}
{"price":41500,"dateOfTransfer":"1996-11-08T00:00:00","postcodeFull":"MK13 9DB","propertyType":"Terraced","oldOrNew":"Established","duration":"Freehold","paon":"48","saon":"","street":"COLLEY HILL","locality":"BRADWELL","townOrCity":"MILTON KEYNES","district":"MILTON KEYNES","county":"MILTON KEYNES","ppdCategoryType":"Standard","recordStatus":"Addition","latitude":52.051545,"longitude":-0.788505,"postcodeStart":"MK13 9","postcode":["MK13","9DB"]}
{"price":43050,"dateOfTransfer":"1996-02-23T00:00:00","postcodeFull":"MK13 9DF","propertyType":"Semi-detached","oldOrNew":"Established","duration":"Freehold","paon":"43","saon":"","street":"LENTHALL CLOSE","locality":"BRADWELL","townOrCity":"MILTON KEYNES","district":"MILTON KEYNES","county":"MILTON KEYNES","ppdCategoryType":"Standard","recordStatus":"Addition","latitude":52.052463,"longitude":-0.787722,"postcodeStart":"MK13 9","postcode":["MK13","9DF"]}
{"price":49000,"dateOfTransfer":"1996-06-28T00:00:00","postcodeFull":"MK13 9BD","propertyType":"Semi-detached","oldOrNew":"Established","duration":"Freehold","paon":"11","saon":"","street":"AUDLEY MEAD","locality":"BRADWELL","townOrCity":"MILTON KEYNES","district":"MILTON KEYNES","county":"MILTON KEYNES","ppdCategoryType":"Standard","recordStatus":"Addition","latitude":52.047018,"longitude":-0.783684,"postcodeStart":"MK13 9","postcode":["MK13","9BD"]}
{"price":18700,"dateOfTransfer":"1996-07-22T00:00:00","postcodeFull":"MK13 9DA","propertyType":"Terraced","oldOrNew":"Established","duration":"Freehold","paon":"10","saon":"","street":"COLLEY HILL","locality":"BRADWELL","townOrCity":"MILTON KEYNES","district":"MILTON KEYNES","county":"MILTON KEYNES","ppdCategoryType":"Standard","recordStatus":"Addition","latitude":52.05211,"longitude":-0.786565,"postcodeStart":"MK13 9","postcode":["MK13","9DA"]}
{"price":38500,"dateOfTransfer":"1996-08-30T00:00:00","postcodeFull":"MK13 9AL","propertyType":"Terraced","oldOrNew":"Established","duration":"Freehold","paon":"20","saon":"","street":"ABBEY ROAD","locality":"BRADWELL","townOrCity":"MILTON KEYNES","district":"MILTON KEYNES","county":"MILTON KEYNES","ppdCategoryType":"Standard","recordStatus":"Addition","latitude":52.049073,"longitude":-0.790308,"postcodeStart":"MK13 9","postcode":["MK13","9AL"]}
{"price":83000,"dateOfTransfer":"1996-08-01T00:00:00","postcodeFull":"MK13 9EX","propertyType":"Detached","oldOrNew":"Established","duration":"Freehold","paon":"1","saon":"","street":"BRADBURY CLOSE","locality":"BRADWELL","townOrCity":"MILTON KEYNES","district":"MILTON KEYNES","county":"MILTON KEYNES","ppdCategoryType":"Standard","recordStatus":"Addition","latitude":52.046199,"longitude":-0.785384,"postcodeStart":"MK13 9","postcode":["MK13","9EX"]}
{"price":73500,"dateOfTransfer":"1996-05-10T00:00:00","postcodeFull":"MK13 9BN","propertyType":"Detached","oldOrNew":"Established","duration":"Freehold","paon":"19","saon":"","street":"COLLEY HILL","locality":"BRADWELL","townOrCity":"MILTON KEYNES","district":"MILTON KEYNES","county":"MILTON KEYNES","ppdCategoryType":"Standard","recordStatus":"Addition","latitude":52.051378,"longitude":-0.78797,"postcodeStart":"MK13 9","postcode":["MK13","9BN"]}
{"price":53500,"dateOfTransfer":"1996-10-11T00:00:00","postcodeFull":"MK13 9BD","propertyType":"Detached","oldOrNew":"Established","duration":"Freehold","paon":"14","saon":"","street":"AUDLEY MEAD","locality":"BRADWELL","townOrCity":"MILTON KEYNES","district":"MILTON KEYNES","county":"MILTON KEYNES","ppdCategoryType":"Standard","recordStatus":"Addition","latitude":52.047018,"longitude":-0.783684,"postcodeStart":"MK13 9","postcode":["MK13","9BD"]}
{"price":86500,"dateOfTransfer":"1996-11-15T00:00:00","postcodeFull":"MK13 9BT","propertyType":"Semi-detached","oldOrNew":"Established","duration":"Freehold","paon":"19","saon":"","street":"HUNTERS REACH","locality":"BRADWELL","townOrCity":"MILTON KEYNES","district":"MILTON KEYNES","county":"MILTON KEYNES","ppdCategoryType":"Standard","recordStatus":"Addition","latitude":52.047282,"longitude":-0.785704,"postcodeStart":"MK13 9","postcode":["MK13","9BT"]}
{"price":43500,"dateOfTransfer":"1996-07-05T00:00:00","postcodeFull":"MK13 9EG","propertyType":"Terraced","oldOrNew":"Established","duration":"Freehold","paon":"24","saon":"","street":"HILLIARD DRIVE","locality":"BRADWELL","townOrCity":"MILTON KEYNES","district":"MILTON KEYNES","county":"MILTON KEYNES","ppdCategoryType":"Standard","recordStatus":"Addition","latitude":52.045848,"longitude":-0.787974,"postcodeStart":"MK13 9","postcode":["MK13","9EG"]}
{"price":58000,"dateOfTransfer":"1996-08-23T00:00:00","postcodeFull":"MK13 9BT","propertyType":"Detached","oldOrNew":"Established","duration":"Freehold","paon":"4","saon":"","street":"HUNTERS REACH","locality":"BRADWELL","townOrCity":"MILTON KEYNES","district":"MILTON KEYNES","county":"MILTON KEYNES","ppdCategoryType":"Standard","recordStatus":"Addition","latitude":52.047282,"longitude":-0.785704,"postcodeStart":"MK13 9","postcode":["MK13","9BT"]}
{"price":37000,"dateOfTransfer":"1996-05-10T00:00:00","postcodeFull":"MK13 9EH","propertyType":"Flat/Maisonette/Townhouse","oldOrNew":"Established","duration":"Freehold","paon":"30","saon":"","street":"HARCOURT","locality":"BRADWELL","townOrCity":"MILTON KEYNES","district":"MILTON KEYNES","county":"MILTON KEYNES","ppdCategoryType":"Standard","recordStatus":"Addition","latitude":52.045945,"longitude":-0.786907,"postcodeStart":"MK13 9","postcode":["MK13","9EH"]}
{"price":44000,"dateOfTransfer":"1996-10-31T00:00:00","postcodeFull":"MK13 9EX","propertyType":"Terraced","oldOrNew":"Established","duration":"Freehold","paon":"9","saon":"","street":"BRADBURY CLOSE","locality":"BRADWELL","townOrCity":"MILTON KEYNES","district":"MILTON KEYNES","county":"MILTON KEYNES","ppdCategoryType":"Standard","recordStatus":"Addition","latitude":52.046199,"longitude":-0.785384,"postcodeStart":"MK13 9","postcode":["MK13","9EX"]}
{"price":39995,"dateOfTransfer":"1996-10-18T00:00:00","postcodeFull":"MK13 9EE","propertyType":"Terraced","oldOrNew":"Established","duration":"Freehold","paon":"20","saon":"","street":"SHARMAN WALK","locality":"BRADWELL","townOrCity":"MILTON KEYNES","district":"MILTON KEYNES","county":"MILTON KEYNES","ppdCategoryType":"Standard","recordStatus":"Addition","latitude":52.046848,"longitude":-0.788122,"postcodeStart":"MK13 9","postcode":["MK13","9EE"]}
{"price":42950,"dateOfTransfer":"1996-12-13T00:00:00","postcodeFull":"MK13 9HH","propertyType":"Terraced","oldOrNew":"Established","duration":"Freehold","paon":"55","saon":"","street":"QUINTON DRIVE","locality":"BRADWELL","townOrCity":"MILTON KEYNES","district":"MILTON KEYNES","county":"MILTON KEYNES","ppdCategoryType":"Standard","recordStatus":"Addition","latitude":52.046012,"longitude":-0.782953,"postcodeStart":"MK13 9","postcode":["MK13","9HH"]}
{"price":55950,"dateOfTransfer":"1996-12-19T00:00:00","postcodeFull":"MK13 9BD","propertyType":"Semi-detached","oldOrNew":"Established","duration":"Freehold","paon":"12","saon":"","street":"AUDLEY MEAD","locality":"BRADWELL","townOrCity":"MILTON KEYNES","district":"MILTON KEYNES","county":"MILTON KEYNES","ppdCategoryType":"Standard","recordStatus":"Addition","latitude":52.047018,"longitude":-0.783684,"postcodeStart":"MK13 9","postcode":["MK13","9BD"]}
{"price":72000,"dateOfTransfer":"1996-05-03T00:00:00","postcodeFull":"MK13 9BX","propertyType":"Semi-detached","oldOrNew":"Established","duration":"Freehold","paon":"13","saon":"","street":"THE SPINNEY","locality":"BRADWELL","townOrCity":"MILTON KEYNES","district":"MILTON KEYNES","county":"MILTON KEYNES","ppdCategoryType":"Standard","recordStatus":"Addition","latitude":52.050729,"longitude":-0.790423,"postcodeStart":"MK13 9","postcode":["MK13","9BX"]}
{"price":46000,"dateOfTransfer":"1996-04-19T00:00:00","postcodeFull":"MK13 9HN","propertyType":"Terraced","oldOrNew":"Established","duration":"Freehold","paon":"41","saon":"","street":"RAMSAY CLOSE","locality":"BRADWELL","townOrCity":"MILTON KEYNES","district":"MILTON KEYNES","county":"MILTON KEYNES","ppdCategoryType":"Standard","recordStatus":"Addition","latitude":52.045832,"longitude":-0.781996,"postcodeStart":"MK13 9","postcode":["MK13","9HN"]}
{"price":54000,"dateOfTransfer":"1996-02-02T00:00:00","postcodeFull":"MK13 9HP","propertyType":"Semi-detached","oldOrNew":"Established","duration":"Freehold","paon":"79","saon":"","street":"QUINTON DRIVE","locality":"BRADWELL","townOrCity":"MILTON KEYNES","district":"MILTON KEYNES","county":"MILTON KEYNES","ppdCategoryType":"Standard","recordStatus":"Addition","latitude":52.045567,"longitude":-0.784205,"postcodeStart":"MK13 9","postcode":["MK13","9HP"]}
{"price":49995,"dateOfTransfer":"1996-11-13T00:00:00","postcodeFull":"MK13 9AS","propertyType":"Terraced","oldOrNew":"Established","duration":"Freehold","paon":"11","saon":"","street":"PRIMROSE ROAD","locality":"BRADWELL","townOrCity":"MILTON KEYNES","district":"MILTON KEYNES","county":"MILTON KEYNES","ppdCategoryType":"Standard","recordStatus":"Addition","latitude":52.049684,"longitude":-0.789416,"postcodeStart":"MK13 9","postcode":["MK13","9AS"]}
{"price":40300,"dateOfTransfer":"1996-02-23T00:00:00","postcodeFull":"MK13 9AS","propertyType":"Terraced","oldOrNew":"Established","duration":"Freehold","paon":"19","saon":"","street":"PRIMROSE ROAD","locality":"BRADWELL","townOrCity":"MILTON KEYNES","district":"MILTON KEYNES","county":"MILTON KEYNES","ppdCategoryType":"Standard","recordStatus":"Addition","latitude":52.049684,"longitude":-0.789416,"postcodeStart":"MK13 9","postcode":["MK13","9AS"]}
{"price":80500,"dateOfTransfer":"1996-08-30T00:00:00","postcodeFull":"MK13 9BT","propertyType":"Detached","oldOrNew":"Established","duration":"Freehold","paon":"8","saon":"","street":"HUNTERS REACH","locality":"BRADWELL","townOrCity":"MILTON KEYNES","district":"MILTON KEYNES","county":"MILTON KEYNES","ppdCategoryType":"Standard","recordStatus":"Addition","latitude":52.047282,"longitude":-0.785704,"postcodeStart":"MK13 9","postcode":["MK13","9BT"]}
{"price":54500,"dateOfTransfer":"1996-01-26T00:00:00","postcodeFull":"MK13 9BS","propertyType":"Semi-detached","oldOrNew":"Established","duration":"Freehold","paon":"17","saon":"","street":"WALGRAVE DRIVE","locality":"BRADWELL","townOrCity":"MILTON KEYNES","district":"MILTON KEYNES","county":"MILTON KEYNES","ppdCategoryType":"Standard","recordStatus":"Addition","latitude":52.047422,"longitude":-0.78449,"postcodeStart":"MK13 9","postcode":["MK13","9BS"]}
{"price":52000,"dateOfTransfer":"1996-04-19T00:00:00","postcodeFull":"MK13 9BZ","propertyType":"Semi-detached","oldOrNew":"Established","duration":"Freehold","paon":"2","saon":"","street":"SIMONSLEA","locality":"BRADWELL","townOrCity":"MILTON KEYNES","district":"MILTON KEYNES","county":"MILTON KEYNES","ppdCategoryType":"Standard","recordStatus":"Addition","latitude":52.048036,"longitude":-0.783001,"postcodeStart":"MK13 9","postcode":["MK13","9BZ"]}
{"price":93000,"dateOfTransfer":"1996-07-15T00:00:00","postcodeFull":"MK13 9DD","propertyType":"Detached","oldOrNew":"Established","duration":"Freehold","paon":"1","saon":"","street":"ST LAWRENCE VIEW","locality":"BRADWELL","townOrCity":"MILTON KEYNES","district":"MILTON KEYNES","county":"MILTON KEYNES","ppdCategoryType":"Standard","recordStatus":"Addition","latitude":52.047872,"longitude":-0.78983,"postcodeStart":"MK13 9","postcode":["MK13","9DD"]}
{"price":60000,"dateOfTransfer":"1996-12-12T00:00:00","postcodeFull":"MK13 9BX","propertyType":"Semi-detached","oldOrNew":"Established","duration":"Freehold","paon":"39","saon":"","street":"THE SPINNEY","locality":"BRADWELL","townOrCity":"MILTON KEYNES","district":"MILTON KEYNES","county":"MILTON KEYNES","ppdCategoryType":"Standard","recordStatus":"Addition","latitude":52.050729,"longitude":-0.790423,"postcodeStart":"MK13 9","postcode":["MK13","9BX"]}
{"price":25000,"dateOfTransfer":"1996-08-15T00:00:00","postcodeFull":"MK13 9AS","propertyType":"Terraced","oldOrNew":"Established","duration":"Freehold","paon":"11","saon":"","street":"PRIMROSE ROAD","locality":"BRADWELL","townOrCity":"MILTON KEYNES","district":"MILTON KEYNES","county":"MILTON KEYNES","ppdCategoryType":"Standard","recordStatus":"Addition","latitude":52.049684,"longitude":-0.789416,"postcodeStart":"MK13 9","postcode":["MK13","9AS"]}
{"price":59995,"dateOfTransfer":"1996-11-29T00:00:00","postcodeFull":"MK13 9BY","propertyType":"Semi-detached","oldOrNew":"Established","duration":"Freehold","paon":"5","saon":"","street":"HALY CLOSE","locality":"BRADWELL","townOrCity":"MILTON KEYNES","district":"MILTON KEYNES","county":"MILTON KEYNES","ppdCategoryType":"Standard","recordStatus":"Addition","latitude":52.047715,"longitude":-0.783243,"postcodeStart":"MK13 9","postcode":["MK13","9BY"]}
{"price":46000,"dateOfTransfer":"1996-04-26T00:00:00","postcodeFull":"MK13 9EQ","propertyType":"Terraced","oldOrNew":"Established","duration":"Freehold","paon":"27","saon":"","street":"HILLIARD DRIVE","locality":"BRADWELL","townOrCity":"MILTON KEYNES","district":"MILTON KEYNES","county":"MILTON KEYNES","ppdCategoryType":"Standard","recordStatus":"Addition","latitude":52.046222,"longitude":-0.787629,"postcodeStart":"MK13 9","postcode":["MK13","9EQ"]}
{"price":36500,"dateOfTransfer":"1996-11-01T00:00:00","postcodeFull":"MK13 9EG","propertyType":"Terraced","oldOrNew":"Established","duration":"Freehold","paon":"54","saon":"","street":"HILLIARD DRIVE","locality":"BRADWELL","townOrCity":"MILTON KEYNES","district":"MILTON KEYNES","county":"MILTON KEYNES","ppdCategoryType":"Standard","recordStatus":"Addition","latitude":52.045848,"longitude":-0.787974,"postcodeStart":"MK13 9","postcode":["MK13","9EG"]}
{"price":57000,"dateOfTransfer":"1996-10-21T00:00:00","postcodeFull":"MK13 9HZ","propertyType":"Semi-detached","oldOrNew":"Established","duration":"Freehold","paon":"39","saon":"","street":"FOSTERS LANE","locality":"BRADWELL","townOrCity":"MILTON KEYNES","district":"MILTON KEYNES","county":"MILTON KEYNES","ppdCategoryType":"Standard","recordStatus":"Addition","latitude":52.043663,"longitude":-0.784403,"postcodeStart":"MK13 9","postcode":["MK13","9HZ"]}
{"price":29950,"dateOfTransfer":"1996-08-13T00:00:00","postcodeFull":"MK13 9EE","propertyType":"Terraced","oldOrNew":"Established","duration":"Freehold","paon":"2","saon":"","street":"SHARMAN WALK","locality":"BRADWELL","townOrCity":"MILTON KEYNES","district":"MILTON KEYNES","county":"MILTON KEYNES","ppdCategoryType":"Standard","recordStatus":"Addition","latitude":52.046848,"longitude":-0.788122,"postcodeStart":"MK13 9","postcode":["MK13","9EE"]}
{"price":55000,"dateOfTransfer":"1996-06-28T00:00:00","postcodeFull":"MK13 9EX","propertyType":"Semi-detached","oldOrNew":"Established","duration":"Freehold","paon":"5","saon":"","street":"BRADBURY CLOSE","locality":"BRADWELL","townOrCity":"MILTON KEYNES","district":"MILTON KEYNES","county":"MILTON KEYNES","ppdCategoryType":"Standard","recordStatus":"Addition","latitude":52.046199,"longitude":-0.785384,"postcodeStart":"MK13 9","postcode":["MK13","9EX"]}
{"price":47000,"dateOfTransfer":"1996-02-29T00:00:00","postcodeFull":"MK13 9DB","propertyType":"Terraced","oldOrNew":"Established","duration":"Freehold","paon":"58","saon":"","street":"COLLEY HILL","locality":"BRADWELL","townOrCity":"MILTON KEYNES","district":"MILTON KEYNES","county":"MILTON KEYNES","ppdCategoryType":"Standard","recordStatus":"Addition","latitude":52.051545,"longitude":-0.788505,"postcodeStart":"MK13 9","postcode":["MK13","9DB"]}
{"price":44950,"dateOfTransfer":"1996-03-18T00:00:00","postcodeFull":"MK13 9AL","propertyType":"Terraced","oldOrNew":"Established","duration":"Freehold","paon":"36","saon":"","street":"ABBEY ROAD","locality":"BRADWELL","townOrCity":"MILTON KEYNES","district":"MILTON KEYNES","county":"MILTON KEYNES","ppdCategoryType":"Standard","recordStatus":"Addition","latitude":52.049073,"longitude":-0.790308,"postcodeStart":"MK13 9","postcode":["MK13","9AL"]}
{"price":74000,"dateOfTransfer":"1996-01-15T00:00:00","postcodeFull":"MK13 9BP","propertyType":"Terraced","oldOrNew":"Established","duration":"Freehold","paon":"7","saon":"","street":"WALGRAVE DRIVE","locality":"BRADWELL","townOrCity":"MILTON KEYNES","district":"MILTON KEYNES","county":"MILTON KEYNES","ppdCategoryType":"Standard","recordStatus":"Addition","latitude":52.046844,"longitude":-0.786037,"postcodeStart":"MK13 9","postcode":["MK13","9BP"]}
{"price":82000,"dateOfTransfer":"1996-05-29T00:00:00","postcodeFull":"MK13 9BT","propertyType":"Detached","oldOrNew":"Established","duration":"Freehold","paon":"11","saon":"","street":"HUNTERS REACH","locality":"BRADWELL","townOrCity":"MILTON KEYNES","district":"MILTON KEYNES","county":"MILTON KEYNES","ppdCategoryType":"Standard","recordStatus":"Addition","latitude":52.047282,"longitude":-0.785704,"postcodeStart":"MK13 9","postcode":["MK13","9BT"]}
{"price":35000,"dateOfTransfer":"1996-03-15T00:00:00","postcodeFull":"MK13 9EE","propertyType":"Terraced","oldOrNew":"Established","duration":"Freehold","paon":"24","saon":"","street":"SHARMAN WALK","locality":"BRADWELL","townOrCity":"MILTON KEYNES","district":"MILTON KEYNES","county":"MILTON KEYNES","ppdCategoryType":"Standard","recordStatus":"Addition","latitude":52.046848,"longitude":-0.788122,"postcodeStart":"MK13 9","postcode":["MK13","9EE"]}
{"price":10200,"dateOfTransfer":"1996-11-29T00:00:00","postcodeFull":"MK13 9HZ","propertyType":"Flat/Maisonette/Townhouse","oldOrNew":"Established","duration":"Leasehold","paon":"28","saon":"","street":"FOSTERS LANE","locality":"BRADWELL","townOrCity":"MILTON KEYNES","district":"MILTON KEYNES","county":"MILTON KEYNES","ppdCategoryType":"Standard","recordStatus":"Addition","latitude":52.043663,"longitude":-0.784403,"postcodeStart":"MK13 9","postcode":["MK13","9HZ"]}
{"price":47500,"dateOfTransfer":"1996-11-29T00:00:00","postcodeFull":"MK13 9EB","propertyType":"Terraced","oldOrNew":"Established","duration":"Freehold","paon":"52","saon":"","street":"QUINTON DRIVE","locality":"BRADWELL","townOrCity":"MILTON KEYNES","district":"MILTON KEYNES","county":"MILTON KEYNES","ppdCategoryType":"Standard","recordStatus":"Addition","latitude":52.046559,"longitude":-0.782822,"postcodeStart":"MK13 9","postcode":["MK13","9EB"]}
{"price":119000,"dateOfTransfer":"1996-06-07T00:00:00","postcodeFull":"MK13 9AE","propertyType":"Semi-detached","oldOrNew":"Established","duration":"Freehold","paon":"40","saon":"","street":"LOUGHTON ROAD","locality":"BRADWELL","townOrCity":"MILTON KEYNES","district":"MILTON KEYNES","county":"MILTON KEYNES","ppdCategoryType":"Standard","recordStatus":"Addition","latitude":52.049979,"longitude":-0.786579,"postcodeStart":"MK13 9","postcode":["MK13","9AE"]}
{"price":17500,"dateOfTransfer":"1996-05-10T00:00:00","postcodeFull":"MK13 9ES","propertyType":"Terraced","oldOrNew":"Established","duration":"Leasehold","paon":"18","saon":"","street":"COPPIN LANE","locality":"BRADWELL","townOrCity":"MILTON KEYNES","district":"MILTON KEYNES","county":"MILTON KEYNES","ppdCategoryType":"Standard","recordStatus":"Addition","latitude":52.046403,"longitude":-0.784255,"postcodeStart":"MK13 9","postcode":["MK13","9ES"]}
{"price":48370,"dateOfTransfer":"1996-08-16T00:00:00","postcodeFull":"MK13 9EB","propertyType":"Semi-detached","oldOrNew":"Established","duration":"Freehold","paon":"50","saon":"","street":"QUINTON DRIVE","locality":"BRADWELL","townOrCity":"MILTON KEYNES","district":"MILTON KEYNES","county":"MILTON KEYNES","ppdCategoryType":"Standard","recordStatus":"Addition","latitude":52.046559,"longitude":-0.782822,"postcodeStart":"MK13 9","postcode":["MK13","9EB"]}
{"price":58500,"dateOfTransfer":"1996-03-25T00:00:00","postcodeFull":"MK13 9BH","propertyType":"Detached","oldOrNew":"Established","duration":"Freehold","paon":"9","saon":"","street":"WOLSEY GARDENS","locality":"BRADWELL","townOrCity":"MILTON KEYNES","district":"MILTON KEYNES","county":"MILTON KEYNES","ppdCategoryType":"Standard","recordStatus":"Addition","latitude":52.050979,"longitude":-0.788492,"postcodeStart":"MK13 9","postcode":["MK13","9BH"]}
{"price":70000,"dateOfTransfer":"1996-10-30T00:00:00","postcodeFull":"MK13 9BX","propertyType":"Semi-detached","oldOrNew":"Established","duration":"Freehold","paon":"20","saon":"","street":"THE SPINNEY","locality":"BRADWELL","townOrCity":"MILTON KEYNES","district":"MILTON KEYNES","county":"MILTON KEYNES","ppdCategoryType":"Standard","recordStatus":"Addition","latitude":52.050729,"longitude":-0.790423,"postcodeStart":"MK13 9","postcode":["MK13","9BX"]}
{"price":19488,"dateOfTransfer":"1996-09-20T00:00:00","postcodeFull":"MK13 9AG","propertyType":"Semi-detached","oldOrNew":"Established","duration":"Freehold","paon":"9","saon":"","street":"VICARAGE ROAD","locality":"BRADWELL","townOrCity":"MILTON KEYNES","district":"MILTON KEYNES","county":"MILTON KEYNES","ppdCategoryType":"Standard","recordStatus":"Addition","latitude":52.04823,"longitude":-0.787924,"postcodeStart":"MK13 9","postcode":["MK13","9AG"]}
{"price":45250,"dateOfTransfer":"1996-05-31T00:00:00","postcodeFull":"MK13 9DG","propertyType":"Semi-detached","oldOrNew":"Established","duration":"Freehold","paon":"23","saon":"","street":"HAMPSON CLOSE","locality":"BRADWELL","townOrCity":"MILTON KEYNES","district":"MILTON KEYNES","county":"MILTON KEYNES","ppdCategoryType":"Standard","recordStatus":"Addition","latitude":52.052247,"longitude":-0.785015,"postcodeStart":"MK13 9","postcode":["MK13","9DG"]}
{"price":53000,"dateOfTransfer":"1996-01-31T00:00:00","postcodeFull":"MK13 9HN","propertyType":"Terraced","oldOrNew":"Established","duration":"Freehold","paon":"23","saon":"","street":"RAMSAY CLOSE","locality":"BRADWELL","townOrCity":"MILTON KEYNES","district":"MILTON KEYNES","county":"MILTON KEYNES","ppdCategoryType":"Standard","recordStatus":"Addition","latitude":52.045832,"longitude":-0.781996,"postcodeStart":"MK13 9","postcode":["MK13","9HN"]}
{"price":33500,"dateOfTransfer":"1996-10-31T00:00:00","postcodeFull":"MK13 9DL","propertyType":"Terraced","oldOrNew":"Established","duration":"Freehold","paon":"18","saon":"","street":"RAWLINS ROAD","locality":"BRADWELL","townOrCity":"MILTON KEYNES","district":"MILTON KEYNES","county":"MILTON KEYNES","ppdCategoryType":"Standard","recordStatus":"Addition","latitude":52.051296,"longitude":-0.783481,"postcodeStart":"MK13 9","postcode":["MK13","9DL"]}
{"price":62250,"dateOfTransfer":"1996-12-20T00:00:00","postcodeFull":"MK13 9BX","propertyType":"Detached","oldOrNew":"Established","duration":"Freehold","paon":"29","saon":"","street":"THE SPINNEY","locality":"BRADWELL","townOrCity":"MILTON KEYNES","district":"MILTON KEYNES","county":"MILTON KEYNES","ppdCategoryType":"Standard","recordStatus":"Addition","latitude":52.050729,"longitude":-0.790423,"postcodeStart":"MK13 9","postcode":["MK13","9BX"]}
{"price":64950,"dateOfTransfer":"1996-12-17T00:00:00","postcodeFull":"MK13 9BG","propertyType":"Detached","oldOrNew":"Established","duration":"Freehold","paon":"28","saon":"","street":"WALGRAVE DRIVE","locality":"BRADWELL","townOrCity":"MILTON KEYNES","district":"MILTON KEYNES","county":"MILTON KEYNES","ppdCategoryType":"Standard","recordStatus":"Addition","latitude":52.047765,"longitude":-0.783781,"postcodeStart":"MK13 9","postcode":["MK13","9BG"]}
{"price":130000,"dateOfTransfer":"1996-02-02T00:00:00","postcodeFull":"MK13 9AR","propertyType":"Detached","oldOrNew":"Established","duration":"Freehold","paon":"64","saon":"","street":"ABBEY ROAD","locality":"BRADWELL","townOrCity":"MILTON KEYNES","district":"MILTON KEYNES","county":"MILTON KEYNES","ppdCategoryType":"Standard","recordStatus":"Addition","latitude":52.050635,"longitude":-0.79184,"postcodeStart":"MK13 9","postcode":["MK13","9AR"]}
{"price":77995,"dateOfTransfer":"1996-12-20T00:00:00","postcodeFull":"MK13 9DU","propertyType":"Detached","oldOrNew":"Established","duration":"Freehold","paon":"13","saon":"","street":"HONEYPOT CLOSE","locality":"BRADWELL","townOrCity":"MILTON KEYNES","district":"MILTON KEYNES","county":"MILTON KEYNES","ppdCategoryType":"Standard","recordStatus":"Addition","latitude":52.048341,"longitude":-0.781242,"postcodeStart":"MK13 9","postcode":["MK13","9DU"]}
{"price":68750,"dateOfTransfer":"1996-12-09T00:00:00","postcodeFull":"MK13 9HN","propertyType":"Semi-detached","oldOrNew":"Established","duration":"Freehold","paon":"35","saon":"","street":"RAMSAY CLOSE","locality":"BRADWELL","townOrCity":"MILTON KEYNES","district":"MILTON KEYNES","county":"MILTON KEYNES","ppdCategoryType":"Standard","recordStatus":"Addition","latitude":52.045832,"longitude":-0.781996,"postcodeStart":"MK13 9","postcode":["MK13","9HN"]}
{"price":44000,"dateOfTransfer":"1996-12-13T00:00:00","postcodeFull":"MK13 9EG","propertyType":"Semi-detached","oldOrNew":"Established","duration":"Freehold","paon":"46","saon":"","street":"HILLIARD DRIVE","locality":"BRADWELL","townOrCity":"MILTON KEYNES","district":"MILTON KEYNES","county":"MILTON KEYNES","ppdCategoryType":"Standard","recordStatus":"Addition","latitude":52.045848,"longitude":-0.787974,"postcodeStart":"MK13 9","postcode":["MK13","9EG"]}
{"price":79950,"dateOfTransfer":"1996-10-11T00:00:00","postcodeFull":"MK13 9BT","propertyType":"Detached","oldOrNew":"Established","duration":"Freehold","paon":"16","saon":"","street":"HUNTERS REACH","locality":"BRADWELL","townOrCity":"MILTON KEYNES","district":"MILTON KEYNES","county":"MILTON KEYNES","ppdCategoryType":"Standard","recordStatus":"Addition","latitude":52.047282,"longitude":-0.785704,"postcodeStart":"MK13 9","postcode":["MK13","9BT"]}
{"price":83000,"dateOfTransfer":"1996-05-31T00:00:00","postcodeFull":"MK13 9ES","propertyType":"Detached","oldOrNew":"Established","duration":"Freehold","paon":"4","saon":"","street":"COPPIN LANE","locality":"BRADWELL","townOrCity":"MILTON KEYNES","district":"MILTON KEYNES","county":"MILTON KEYNES","ppdCategoryType":"Standard","recordStatus":"Addition","latitude":52.046403,"longitude":-0.784255,"postcodeStart":"MK13 9","postcode":["MK13","9ES"]}
{"price":71000,"dateOfTransfer":"1996-02-29T00:00:00","postcodeFull":"MK13 9HN","propertyType":"Detached","oldOrNew":"Established","duration":"Freehold","paon":"34","saon":"","street":"RAMSAY CLOSE","locality":"BRADWELL","townOrCity":"MILTON KEYNES","district":"MILTON KEYNES","county":"MILTON KEYNES","ppdCategoryType":"Standard","recordStatus":"Addition","latitude":52.045832,"longitude":-0.781996,"postcodeStart":"MK13 9","postcode":["MK13","9HN"]}
{"price":45950,"dateOfTransfer":"1996-01-31T00:00:00","postcodeFull":"MK13 9HT","propertyType":"Terraced","oldOrNew":"Established","duration":"Freehold","paon":"26","saon":"","street":"ATKINS CLOSE","locality":"BRADWELL","townOrCity":"MILTON KEYNES","district":"MILTON KEYNES","county":"MILTON KEYNES","ppdCategoryType":"Standard","recordStatus":"Addition","latitude":52.045207,"longitude":-0.783354,"postcodeStart":"MK13 9","postcode":["MK13","9HT"]}
{"price":39995,"dateOfTransfer":"1996-08-23T00:00:00","postcodeFull":"MK13 9DX","propertyType":"Terraced","oldOrNew":"Established","duration":"Freehold","paon":"26","saon":"","street":"CRADDOCKS CLOSE","locality":"BRADWELL","townOrCity":"MILTON KEYNES","district":"MILTON KEYNES","county":"MILTON KEYNES","ppdCategoryType":"Standard","recordStatus":"Addition","latitude":52.0469,"longitude":-0.780961,"postcodeStart":"MK13 9","postcode":["MK13","9DX"]}
{"price":86000,"dateOfTransfer":"1996-04-19T00:00:00","postcodeFull":"MK13 9EJ","propertyType":"Detached","oldOrNew":"Established","duration":"Freehold","paon":"4","saon":"","street":"OVEREND CLOSE","locality":"BRADWELL","townOrCity":"MILTON KEYNES","district":"MILTON KEYNES","county":"MILTON KEYNES","ppdCategoryType":"Standard","recordStatus":"Addition","latitude":52.047996,"longitude":-0.785262,"postcodeStart":"MK13 9","postcode":["MK13","9EJ"]}
{"price":63500,"dateOfTransfer":"1996-03-25T00:00:00","postcodeFull":"MK13 9HN","propertyType":"Semi-detached","oldOrNew":"Established","duration":"Freehold","paon":"15","saon":"","street":"RAMSAY CLOSE","locality":"BRADWELL","townOrCity":"MILTON KEYNES","district":"MILTON KEYNES","county":"MILTON KEYNES","ppdCategoryType":"Standard","recordStatus":"Addition","latitude":52.045832,"longitude":-0.781996,"postcodeStart":"MK13 9","postcode":["MK13","9HN"]}
{"price":29000,"dateOfTransfer":"1996-12-06T00:00:00","postcodeFull":"MK13 9EG","propertyType":"Terraced","oldOrNew":"Established","duration":"Freehold","paon":"30","saon":"","street":"HILLIARD DRIVE","locality":"BRADWELL","townOrCity":"MILTON KEYNES","district":"MILTON KEYNES","county":"MILTON KEYNES","ppdCategoryType":"Standard","recordStatus":"Addition","latitude":52.045848,"longitude":-0.787974,"postcodeStart":"MK13 9","postcode":["MK13","9EG"]}
{"price":39500,"dateOfTransfer":"1996-10-31T00:00:00","postcodeFull":"MK13 9EG","propertyType":"Semi-detached","oldOrNew":"Established","duration":"Freehold","paon":"22","saon":"","street":"HILLIARD DRIVE","locality":"BRADWELL","townOrCity":"MILTON KEYNES","district":"MILTON KEYNES","county":"MILTON KEYNES","ppdCategoryType":"Standard","recordStatus":"Addition","latitude":52.045848,"longitude":-0.787974,"postcodeStart":"MK13 9","postcode":["MK13","9EG"]}
{"price":75000,"dateOfTransfer":"1996-01-04T00:00:00","postcodeFull":"MK13 9BT","propertyType":"Detached","oldOrNew":"Established","duration":"Freehold","paon":"3","saon":"","street":"HUNTERS REACH","locality":"BRADWELL","townOrCity":"MILTON KEYNES","district":"MILTON KEYNES","county":"MILTON KEYNES","ppdCategoryType":"Standard","recordStatus":"Addition","latitude":52.047282,"longitude":-0.785704,"postcodeStart":"MK13 9","postcode":["MK13","9BT"]}
{"price":18275,"dateOfTransfer":"1996-03-21T00:00:00","postcodeFull":"MK13 9EE","propertyType":"Terraced","oldOrNew":"Established","duration":"Freehold","paon":"2","saon":"","street":"SHARMAN WALK","locality":"BRADWELL","townOrCity":"MILTON KEYNES","district":"MILTON KEYNES","county":"MILTON KEYNES","ppdCategoryType":"Standard","recordStatus":"Addition","latitude":52.046848,"longitude":-0.788122,"postcodeStart":"MK13 9","postcode":["MK13","9EE"]}
{"price":19000,"dateOfTransfer":"1997-12-01T00:00:00","postcodeFull":"MK13 9EY","propertyType":"Flat/Maisonette/Townhouse","oldOrNew":"Established","duration":"Leasehold","paon":"2","saon":"","street":"ATTERBROOK","locality":"BRADWELL","townOrCity":"MILTON KEYNES","district":"MILTON KEYNES","county":"MILTON KEYNES","ppdCategoryType":"Standard","recordStatus":"Addition","latitude":52.048045,"longitude":-0.787664,"postcodeStart":"MK13 9","postcode":["MK13","9EY"]}
{"price":25000,"dateOfTransfer":"1997-01-29T00:00:00","postcodeFull":"MK13 9EH","propertyType":"Terraced","oldOrNew":"Established","duration":"Freehold","paon":"6","saon":"","street":"HARCOURT","locality":"BRADWELL","townOrCity":"MILTON KEYNES","district":"MILTON KEYNES","county":"MILTON KEYNES","ppdCategoryType":"Standard","recordStatus":"Addition","latitude":52.045945,"longitude":-0.786907,"postcodeStart":"MK13 9","postcode":["MK13","9EH"]}
{"price":39995,"dateOfTransfer":"1997-07-04T00:00:00","postcodeFull":"MK13 9DN","propertyType":"Terraced","oldOrNew":"Established","duration":"Freehold","paon":"32","saon":"","street":"SCATTERILL CLOSE","locality":"BRADWELL","townOrCity":"MILTON KEYNES","district":"MILTON KEYNES","county":"MILTON KEYNES","ppdCategoryType":"Standard","recordStatus":"Addition","latitude":52.050634,"longitude":-0.783834,"postcodeStart":"MK13 9","postcode":["MK13","9DN"]}
{"price":21500,"dateOfTransfer":"1997-05-30T00:00:00","postcodeFull":"MK13 9EN","propertyType":"Flat/Maisonette/Townhouse","oldOrNew":"Established","duration":"Leasehold","paon":"1","saon":"","street":"HARCOURT","locality":"BRADWELL","townOrCity":"MILTON KEYNES","district":"MILTON KEYNES","county":"MILTON KEYNES","ppdCategoryType":"Standard","recordStatus":"Addition","latitude":52.045377,"longitude":-0.786777,"postcodeStart":"MK13 9","postcode":["MK13","9EN"]}
{"price":60000,"dateOfTransfer":"1997-09-30T00:00:00","postcodeFull":"MK13 9BG","propertyType":"Semi-detached","oldOrNew":"Established","duration":"Freehold","paon":"34","saon":"","street":"WALGRAVE DRIVE","locality":"BRADWELL","townOrCity":"MILTON KEYNES","district":"MILTON KEYNES","county":"MILTON KEYNES","ppdCategoryType":"Standard","recordStatus":"Addition","latitude":52.047765,"longitude":-0.783781,"postcodeStart":"MK13 9","postcode":["MK13","9BG"]}
{"price":31500,"dateOfTransfer":"1997-11-24T00:00:00","postcodeFull":"MK13 9HH","propertyType":"Flat/Maisonette/Townhouse","oldOrNew":"Established","duration":"Leasehold","paon":"59","saon":"","street":"QUINTON DRIVE","locality":"BRADWELL","townOrCity":"MILTON KEYNES","district":"MILTON KEYNES","county":"MILTON KEYNES","ppdCategoryType":"Standard","recordStatus":"Addition","latitude":52.046012,"longitude":-0.782953,"postcodeStart":"MK13 9","postcode":["MK13","9HH"]}
{"price":35000,"dateOfTransfer":"1997-03-21T00:00:00","postcodeFull":"MK13 9EW","propertyType":"Semi-detached","oldOrNew":"Established","duration":"Freehold","paon":"67","saon":"","street":"HILLIARD DRIVE","locality":"BRADWELL","townOrCity":"MILTON KEYNES","district":"MILTON KEYNES","county":"MILTON KEYNES","ppdCategoryType":"Standard","recordStatus":"Addition","latitude":52.045089,"longitude":-0.786668,"postcodeStart":"MK13 9","postcode":["MK13","9EW"]}
{"price":38000,"dateOfTransfer":"1997-08-27T00:00:00","postcodeFull":"MK13 9EG","propertyType":"Terraced","oldOrNew":"Established","duration":"Freehold","paon":"34","saon":"","street":"HILLIARD DRIVE","locality":"BRADWELL","townOrCity":"MILTON KEYNES","district":"MILTON KEYNES","county":"MILTON KEYNES","ppdCategoryType":"Standard","recordStatus":"Addition","latitude":52.045848,"longitude":-0.787974,"postcodeStart":"MK13 9","postcode":["MK13","9EG"]}
{"price":49950,"dateOfTransfer":"1997-12-19T00:00:00","postcodeFull":"MK13 9EG","propertyType":"Semi-detached","oldOrNew":"Established","duration":"Freehold","paon":"50","saon":"","street":"HILLIARD DRIVE","locality":"BRADWELL","townOrCity":"MILTON KEYNES","district":"MILTON KEYNES","county":"MILTON KEYNES","ppdCategoryType":"Standard","recordStatus":"Addition","latitude":52.045848,"longitude":-0.787974,"postcodeStart":"MK13 9","postcode":["MK13","9EG"]}
{"price":35000,"dateOfTransfer":"1997-07-31T00:00:00","postcodeFull":"MK13 9AL","propertyType":"Terraced","oldOrNew":"Established","duration":"Freehold","paon":"30","saon":"","street":"ABBEY ROAD","locality":"BRADWELL","townOrCity":"MILTON KEYNES","district":"MILTON KEYNES","county":"MILTON KEYNES","ppdCategoryType":"Standard","recordStatus":"Addition","latitude":52.049073,"longitude":-0.790308,"postcodeStart":"MK13 9","postcode":["MK13","9AL"]}
{"price":51500,"dateOfTransfer":"1997-08-29T00:00:00","postcodeFull":"MK13 9HJ","propertyType":"Flat/Maisonette/Townhouse","oldOrNew":"Established","duration":"Freehold","paon":"45","saon":"","street":"QUINTON DRIVE","locality":"BRADWELL","townOrCity":"MILTON KEYNES","district":"MILTON KEYNES","county":"MILTON KEYNES","ppdCategoryType":"Standard","recordStatus":"Addition","latitude":52.046742,"longitude":-0.782175,"postcodeStart":"MK13 9","postcode":["MK13","9HJ"]}
{"price":57000,"dateOfTransfer":"1997-11-24T00:00:00","postcodeFull":"MK13 9HH","propertyType":"Terraced","oldOrNew":"Established","duration":"Freehold","paon":"57","saon":"","street":"QUINTON DRIVE","locality":"BRADWELL","townOrCity":"MILTON KEYNES","district":"MILTON KEYNES","county":"MILTON KEYNES","ppdCategoryType":"Standard","recordStatus":"Addition","latitude":52.046012,"longitude":-0.782953,"postcodeStart":"MK13 9","postcode":["MK13","9HH"]}
{"price":55500,"dateOfTransfer":"1997-03-14T00:00:00","postcodeFull":"MK13 9HS","propertyType":"Semi-detached","oldOrNew":"Established","duration":"Freehold","paon":"1","saon":"","street":"MAYNARD CLOSE","locality":"BRADWELL","townOrCity":"MILTON KEYNES","district":"MILTON KEYNES","county":"MILTON KEYNES","ppdCategoryType":"Standard","recordStatus":"Addition","latitude":52.045047,"longitude":-0.78435,"postcodeStart":"MK13 9","postcode":["MK13","9HS"]}
{"price":80750,"dateOfTransfer":"1997-02-21T00:00:00","postcodeFull":"MK13 9BX","propertyType":"Semi-detached","oldOrNew":"Established","duration":"Freehold","paon":"51","saon":"","street":"THE SPINNEY","locality":"BRADWELL","townOrCity":"MILTON KEYNES","district":"MILTON KEYNES","county":"MILTON KEYNES","ppdCategoryType":"Standard","recordStatus":"Addition","latitude":52.050729,"longitude":-0.790423,"postcodeStart":"MK13 9","postcode":["MK13","9BX"]}
{"price":64000,"dateOfTransfer":"1997-08-22T00:00:00","postcodeFull":"MK13 9HT","propertyType":"Terraced","oldOrNew":"Established","duration":"Freehold","paon":"19","saon":"","street":"ATKINS CLOSE","locality":"BRADWELL","townOrCity":"MILTON KEYNES","district":"MILTON KEYNES","county":"MILTON KEYNES","ppdCategoryType":"Standard","recordStatus":"Addition","latitude":52.045207,"longitude":-0.783354,"postcodeStart":"MK13 9","postcode":["MK13","9HT"]}
{"price":43000,"dateOfTransfer":"1997-04-18T00:00:00","postcodeFull":"MK13 9DB","propertyType":"Semi-detached","oldOrNew":"Established","duration":"Freehold","paon":"28","saon":"","street":"COLLEY HILL","locality":"BRADWELL","townOrCity":"MILTON KEYNES","district":"MILTON KEYNES","county":"MILTON KEYNES","ppdCategoryType":"Standard","recordStatus":"Addition","latitude":52.051545,"longitude":-0.788505,"postcodeStart":"MK13 9","postcode":["MK13","9DB"]}
{"price":83000,"dateOfTransfer":"1997-10-31T00:00:00","postcodeFull":"MK13 9BX","propertyType":"Semi-detached","oldOrNew":"Established","duration":"Freehold","paon":"11","saon":"","street":"THE SPINNEY","locality":"BRADWELL","townOrCity":"MILTON KEYNES","district":"MILTON KEYNES","county":"MILTON KEYNES","ppdCategoryType":"Standard","recordStatus":"Addition","latitude":52.050729,"longitude":-0.790423,"postcodeStart":"MK13 9","postcode":["MK13","9BX"]}
{"price":10500,"dateOfTransfer":"1997-05-30T00:00:00","postcodeFull":"MK13 9HZ","propertyType":"Flat/Maisonette/Townhouse","oldOrNew":"Established","duration":"Leasehold","paon":"23","saon":"","street":"FOSTERS LANE","locality":"BRADWELL","townOrCity":"MILTON KEYNES","district":"MILTON KEYNES","county":"MILTON KEYNES","ppdCategoryType":"Standard","recordStatus":"Addition","latitude":52.043663,"longitude":-0.784403,"postcodeStart":"MK13 9","postcode":["MK13","9HZ"]}
{"price":30000,"dateOfTransfer":"1997-11-14T00:00:00","postcodeFull":"MK13 9EW","propertyType":"Terraced","oldOrNew":"Established","duration":"Freehold","paon":"81","saon":"","street":"HILLIARD DRIVE","locality":"BRADWELL","townOrCity":"MILTON KEYNES","district":"MILTON KEYNES","county":"MILTON KEYNES","ppdCategoryType":"Standard","recordStatus":"Addition","latitude":52.045089,"longitude":-0.786668,"postcodeStart":"MK13 9","postcode":["MK13","9EW"]}
{"price":52500,"dateOfTransfer":"1997-01-31T00:00:00","postcodeFull":"MK13 9AS","propertyType":"Terraced","oldOrNew":"Established","duration":"Freehold","paon":"9","saon":"","street":"PRIMROSE ROAD","locality":"BRADWELL","townOrCity":"MILTON KEYNES","district":"MILTON KEYNES","county":"MILTON KEYNES","ppdCategoryType":"Standard","recordStatus":"Addition","latitude":52.049684,"longitude":-0.789416,"postcodeStart":"MK13 9","postcode":["MK13","9AS"]}
{"price":53995,"dateOfTransfer":"1997-10-31T00:00:00","postcodeFull":"MK13 9EQ","propertyType":"Semi-detached","oldOrNew":"Established","duration":"Freehold","paon":"31","saon":"","street":"HILLIARD DRIVE","locality":"BRADWELL","townOrCity":"MILTON KEYNES","district":"MILTON KEYNES","county":"MILTON KEYNES","ppdCategoryType":"Standard","recordStatus":"Addition","latitude":52.046222,"longitude":-0.787629,"postcodeStart":"MK13 9","postcode":["MK13","9EQ"]}
{"price":37000,"dateOfTransfer":"1997-11-21T00:00:00","postcodeFull":"MK13 9EE","propertyType":"Terraced","oldOrNew":"Established","duration":"Freehold","paon":"5","saon":"","street":"SHARMAN WALK","locality":"BRADWELL","townOrCity":"MILTON KEYNES","district":"MILTON KEYNES","county":"MILTON KEYNES","ppdCategoryType":"Standard","recordStatus":"Addition","latitude":52.046848,"longitude":-0.788122,"postcodeStart":"MK13 9","postcode":["MK13","9EE"]}
{"price":42000,"dateOfTransfer":"1997-08-22T00:00:00","postcodeFull":"MK13 9DF","propertyType":"Semi-detached","oldOrNew":"Established","duration":"Freehold","paon":"48","saon":"","street":"LENTHALL CLOSE","locality":"BRADWELL","townOrCity":"MILTON KEYNES","district":"MILTON KEYNES","county":"MILTON KEYNES","ppdCategoryType":"Standard","recordStatus":"Addition","latitude":52.052463,"longitude":-0.787722,"postcodeStart":"MK13 9","postcode":["MK13","9DF"]}
{"price":42250,"dateOfTransfer":"1997-12-05T00:00:00","postcodeFull":"MK13 9EE","propertyType":"Terraced","oldOrNew":"Established","duration":"Freehold","paon":"16","saon":"","street":"SHARMAN WALK","locality":"BRADWELL","townOrCity":"MILTON KEYNES","district":"MILTON KEYNES","county":"MILTON KEYNES","ppdCategoryType":"Standard","recordStatus":"Addition","latitude":52.046848,"longitude":-0.788122,"postcodeStart":"MK13 9","postcode":["MK13","9EE"]}
{"price":60000,"dateOfTransfer":"1997-01-31T00:00:00","postcodeFull":"MK13 9HT","propertyType":"Detached","oldOrNew":"Established","duration":"Freehold","paon":"17","saon":"","street":"ATKINS CLOSE","locality":"BRADWELL","townOrCity":"MILTON KEYNES","district":"MILTON KEYNES","county":"MILTON KEYNES","ppdCategoryType":"Standard","recordStatus":"Addition","latitude":52.045207,"longitude":-0.783354,"postcodeStart":"MK13 9","postcode":["MK13","9HT"]}
{"price":20000,"dateOfTransfer":"1997-10-01T00:00:00","postcodeFull":"MK13 9EP","propertyType":"Terraced","oldOrNew":"Established","duration":"Leasehold","paon":"98","saon":"","street":"HILLIARD DRIVE","locality":"BRADWELL","townOrCity":"MILTON KEYNES","district":"MILTON KEYNES","county":"MILTON KEYNES","ppdCategoryType":"Standard","recordStatus":"Addition","latitude":52.044762,"longitude":-0.787289,"postcodeStart":"MK13 9","postcode":["MK13","9EP"]}
{"price":17000,"dateOfTransfer":"1997-10-10T00:00:00","postcodeFull":"MK13 9EW","propertyType":"Flat/Maisonette/Townhouse","oldOrNew":"Established","duration":"Leasehold","paon":"55","saon":"","street":"HILLIARD DRIVE","locality":"BRADWELL","townOrCity":"MILTON KEYNES","district":"MILTON KEYNES","county":"MILTON KEYNES","ppdCategoryType":"Standard","recordStatus":"Addition","latitude":52.045089,"longitude":-0.786668,"postcodeStart":"MK13 9","postcode":["MK13","9EW"]}
{"price":59995,"dateOfTransfer":"1997-10-31T00:00:00","postcodeFull":"MK13 9DG","propertyType":"Terraced","oldOrNew":"Established","duration":"Freehold","paon":"1","saon":"","street":"HAMPSON CLOSE","locality":"BRADWELL","townOrCity":"MILTON KEYNES","district":"MILTON KEYNES","county":"MILTON KEYNES","ppdCategoryType":"Standard","recordStatus":"Addition","latitude":52.052247,"longitude":-0.785015,"postcodeStart":"MK13 9","postcode":["MK13","9DG"]}
{"price":51000,"dateOfTransfer":"1997-05-12T00:00:00","postcodeFull":"MK13 9AQ","propertyType":"Semi-detached","oldOrNew":"Established","duration":"Freehold","paon":"16","saon":"","street":"VICARAGE ROAD","locality":"BRADWELL","townOrCity":"MILTON KEYNES","district":"MILTON KEYNES","county":"MILTON KEYNES","ppdCategoryType":"Standard","recordStatus":"Addition","latitude":52.048553,"longitude":-0.788718,"postcodeStart":"MK13 9","postcode":["MK13","9AQ"]}
{"price":83000,"dateOfTransfer":"1997-08-08T00:00:00","postcodeFull":"MK13 9BX","propertyType":"Detached","oldOrNew":"Established","duration":"Freehold","paon":"16","saon":"","street":"THE SPINNEY","locality":"BRADWELL","townOrCity":"MILTON KEYNES","district":"MILTON KEYNES","county":"MILTON KEYNES","ppdCategoryType":"Standard","recordStatus":"Addition","latitude":52.050729,"longitude":-0.790423,"postcodeStart":"MK13 9","postcode":["MK13","9BX"]}
{"price":22750,"dateOfTransfer":"1997-07-07T00:00:00","postcodeFull":"MK13 9EW","propertyType":"Terraced","oldOrNew":"Established","duration":"Leasehold","paon":"83","saon":"","street":"HILLIARD DRIVE","locality":"BRADWELL","townOrCity":"MILTON KEYNES","district":"MILTON KEYNES","county":"MILTON KEYNES","ppdCategoryType":"Standard","recordStatus":"Addition","latitude":52.045089,"longitude":-0.786668,"postcodeStart":"MK13 9","postcode":["MK13","9EW"]}
{"price":62000,"dateOfTransfer":"1997-12-04T00:00:00","postcodeFull":"MK13 9AQ","propertyType":"Semi-detached","oldOrNew":"Established","duration":"Freehold","paon":"4","saon":"","street":"VICARAGE ROAD","locality":"BRADWELL","townOrCity":"MILTON KEYNES","district":"MILTON KEYNES","county":"MILTON KEYNES","ppdCategoryType":"Standard","recordStatus":"Addition","latitude":52.048553,"longitude":-0.788718,"postcodeStart":"MK13 9","postcode":["MK13","9AQ"]}
{"price":47000,"dateOfTransfer":"1997-11-12T00:00:00","postcodeFull":"MK13 9DB","propertyType":"Semi-detached","oldOrNew":"Established","duration":"Freehold","paon":"60","saon":"","street":"COLLEY HILL","locality":"BRADWELL","townOrCity":"MILTON KEYNES","district":"MILTON KEYNES","county":"MILTON KEYNES","ppdCategoryType":"Standard","recordStatus":"Addition","latitude":52.051545,"longitude":-0.788505,"postcodeStart":"MK13 9","postcode":["MK13","9DB"]}
{"price":94500,"dateOfTransfer":"1997-07-07T00:00:00","postcodeFull":"MK13 9BN","propertyType":"Detached","oldOrNew":"Established","duration":"Freehold","paon":"13","saon":"","street":"COLLEY HILL","locality":"BRADWELL","townOrCity":"MILTON KEYNES","district":"MILTON KEYNES","county":"MILTON KEYNES","ppdCategoryType":"Standard","recordStatus":"Addition","latitude":52.051378,"longitude":-0.78797,"postcodeStart":"MK13 9","postcode":["MK13","9BN"]}
{"price":60000,"dateOfTransfer":"1997-04-11T00:00:00","postcodeFull":"MK13 9HN","propertyType":"Detached","oldOrNew":"Established","duration":"Freehold","paon":"2","saon":"","street":"RAMSAY CLOSE","locality":"BRADWELL","townOrCity":"MILTON KEYNES","district":"MILTON KEYNES","county":"MILTON KEYNES","ppdCategoryType":"Standard","recordStatus":"Addition","latitude":52.045832,"longitude":-0.781996,"postcodeStart":"MK13 9","postcode":["MK13","9HN"]}
{"price":33000,"dateOfTransfer":"1997-02-03T00:00:00","postcodeFull":"MK13 9ES","propertyType":"Terraced","oldOrNew":"Established","duration":"Freehold","paon":"12","saon":"","street":"COPPIN LANE","locality":"BRADWELL","townOrCity":"MILTON KEYNES","district":"MILTON KEYNES","county":"MILTON KEYNES","ppdCategoryType":"Standard","recordStatus":"Addition","latitude":52.046403,"longitude":-0.784255,"postcodeStart":"MK13 9","postcode":["MK13","9ES"]}
{"price":58950,"dateOfTransfer":"1997-08-15T00:00:00","postcodeFull":"MK13 9EX","propertyType":"Semi-detached","oldOrNew":"Established","duration":"Freehold","paon":"8","saon":"","street":"BRADBURY CLOSE","locality":"BRADWELL","townOrCity":"MILTON KEYNES","district":"MILTON KEYNES","county":"MILTON KEYNES","ppdCategoryType":"Standard","recordStatus":"Addition","latitude":52.046199,"longitude":-0.785384,"postcodeStart":"MK13 9","postcode":["MK13","9EX"]}
{"price":48000,"dateOfTransfer":"1997-08-08T00:00:00","postcodeFull":"MK13 9AX","propertyType":"Terraced","oldOrNew":"Established","duration":"Freehold","paon":"7","saon":"","street":"PROVIDENCE PLACE","locality":"BRADWELL","townOrCity":"MILTON KEYNES","district":"MILTON KEYNES","county":"MILTON KEYNES","ppdCategoryType":"Standard","recordStatus":"Addition","latitude":52.049195,"longitude":-0.7873,"postcodeStart":"MK13 9","postcode":["MK13","9AX"]}
{"price":40000,"dateOfTransfer":"1997-02-21T00:00:00","postcodeFull":"MK13 9EH","propertyType":"Semi-detached","oldOrNew":"Established","duration":"Freehold","paon":"16","saon":"","street":"HARCOURT","locality":"BRADWELL","townOrCity":"MILTON KEYNES","district":"MILTON KEYNES","county":"MILTON KEYNES","ppdCategoryType":"Standard","recordStatus":"Addition","latitude":52.045945,"longitude":-0.786907,"postcodeStart":"MK13 9","postcode":["MK13","9EH"]}
{"price":71995,"dateOfTransfer":"1997-11-28T00:00:00","postcodeFull":"MK13 9HT","propertyType":"Detached","oldOrNew":"Established","duration":"Freehold","paon":"18","saon":"","street":"ATKINS CLOSE","locality":"BRADWELL","townOrCity":"MILTON KEYNES","district":"MILTON KEYNES","county":"MILTON KEYNES","ppdCategoryType":"Standard","recordStatus":"Addition","latitude":52.045207,"longitude":-0.783354,"postcodeStart":"MK13 9","postcode":["MK13","9HT"]}
{"price":48500,"dateOfTransfer":"1997-04-18T00:00:00","postcodeFull":"MK13 9AL","propertyType":"Terraced","oldOrNew":"Established","duration":"Freehold","paon":"32","saon":"","street":"ABBEY ROAD","locality":"BRADWELL","townOrCity":"MILTON KEYNES","district":"MILTON KEYNES","county":"MILTON KEYNES","ppdCategoryType":"Standard","recordStatus":"Addition","latitude":52.049073,"longitude":-0.790308,"postcodeStart":"MK13 9","postcode":["MK13","9AL"]}
{"price":79000,"dateOfTransfer":"1997-11-26T00:00:00","postcodeFull":"MK13 9HZ","propertyType":"Detached","oldOrNew":"Established","duration":"Freehold","paon":"38","saon":"","street":"FOSTERS LANE","locality":"BRADWELL","townOrCity":"MILTON KEYNES","district":"MILTON KEYNES","county":"MILTON KEYNES","ppdCategoryType":"Standard","recordStatus":"Addition","latitude":52.043663,"longitude":-0.784403,"postcodeStart":"MK13 9","postcode":["MK13","9HZ"]}
{"price":77500,"dateOfTransfer":"1997-07-04T00:00:00","postcodeFull":"MK13 9HZ","propertyType":"Detached","oldOrNew":"Established","duration":"Freehold","paon":"51","saon":"","street":"FOSTERS LANE","locality":"BRADWELL","townOrCity":"MILTON KEYNES","district":"MILTON KEYNES","county":"MILTON KEYNES","ppdCategoryType":"Standard","recordStatus":"Addition","latitude":52.043663,"longitude":-0.784403,"postcodeStart":"MK13 9","postcode":["MK13","9HZ"]}
{"price":36000,"dateOfTransfer":"1997-07-21T00:00:00","postcodeFull":"MK13 9EQ","propertyType":"Terraced","oldOrNew":"Established","duration":"Freehold","paon":"13","saon":"","street":"HILLIARD DRIVE","locality":"BRADWELL","townOrCity":"MILTON KEYNES","district":"MILTON KEYNES","county":"MILTON KEYNES","ppdCategoryType":"Standard","recordStatus":"Addition","latitude":52.046222,"longitude":-0.787629,"postcodeStart":"MK13 9","postcode":["MK13","9EQ"]}
{"price":42000,"dateOfTransfer":"1997-06-19T00:00:00","postcodeFull":"MK13 9EH","propertyType":"Semi-detached","oldOrNew":"Established","duration":"Freehold","paon":"10","saon":"","street":"HARCOURT","locality":"BRADWELL","townOrCity":"MILTON KEYNES","district":"MILTON KEYNES","county":"MILTON KEYNES","ppdCategoryType":"Standard","recordStatus":"Addition","latitude":52.045945,"longitude":-0.786907,"postcodeStart":"MK13 9","postcode":["MK13","9EH"]}
{"price":47500,"dateOfTransfer":"1997-11-24T00:00:00","postcodeFull":"MK13 9AU","propertyType":"Semi-detached","oldOrNew":"Established","duration":"Freehold","paon":"17","saon":"","street":"THE GROVE","locality":"BRADWELL","townOrCity":"MILTON KEYNES","district":"MILTON KEYNES","county":"MILTON KEYNES","ppdCategoryType":"Standard","recordStatus":"Addition","latitude":52.049604,"longitude":-0.787698,"postcodeStart":"MK13 9","postcode":["MK13","9AU"]}
{"price":42500,"dateOfTransfer":"1997-11-13T00:00:00","postcodeFull":"MK13 9AL","propertyType":"Terraced","oldOrNew":"Established","duration":"Freehold","paon":"12","saon":"","street":"ABBEY ROAD","locality":"BRADWELL","townOrCity":"MILTON KEYNES","district":"MILTON KEYNES","county":"MILTON KEYNES","ppdCategoryType":"Standard","recordStatus":"Addition","latitude":52.049073,"longitude":-0.790308,"postcodeStart":"MK13 9","postcode":["MK13","9AL"]}
{"price":53000,"dateOfTransfer":"1997-04-16T00:00:00","postcodeFull":"MK13 9HN","propertyType":"Semi-detached","oldOrNew":"Established","duration":"Freehold","paon":"40","saon":"","street":"RAMSAY CLOSE","locality":"BRADWELL","townOrCity":"MILTON KEYNES","district":"MILTON KEYNES","county":"MILTON KEYNES","ppdCategoryType":"Standard","recordStatus":"Addition","latitude":52.045832,"longitude":-0.781996,"postcodeStart":"MK13 9","postcode":["MK13","9HN"]}
{"price":52500,"dateOfTransfer":"1997-07-08T00:00:00","postcodeFull":"MK13 9AS","propertyType":"Semi-detached","oldOrNew":"Established","duration":"Freehold","paon":"17","saon":"","street":"PRIMROSE ROAD","locality":"BRADWELL","townOrCity":"MILTON KEYNES","district":"MILTON KEYNES","county":"MILTON KEYNES","ppdCategoryType":"Standard","recordStatus":"Addition","latitude":52.049684,"longitude":-0.789416,"postcodeStart":"MK13 9","postcode":["MK13","9AS"]}
{"price":50000,"dateOfTransfer":"1997-12-19T00:00:00","postcodeFull":"MK13 9EG","propertyType":"Terraced","oldOrNew":"Established","duration":"Freehold","paon":"26","saon":"","street":"HILLIARD DRIVE","locality":"BRADWELL","townOrCity":"MILTON KEYNES","district":"MILTON KEYNES","county":"MILTON KEYNES","ppdCategoryType":"Standard","recordStatus":"Addition","latitude":52.045848,"longitude":-0.787974,"postcodeStart":"MK13 9","postcode":["MK13","9EG"]}
{"price":43500,"dateOfTransfer":"1997-04-25T00:00:00","postcodeFull":"MK13 9EQ","propertyType":"Semi-detached","oldOrNew":"Established","duration":"Freehold","paon":"29","saon":"","street":"HILLIARD DRIVE","locality":"BRADWELL","townOrCity":"MILTON KEYNES","district":"MILTON KEYNES","county":"MILTON KEYNES","ppdCategoryType":"Standard","recordStatus":"Addition","latitude":52.046222,"longitude":-0.787629,"postcodeStart":"MK13 9","postcode":["MK13","9EQ"]}
{"price":55000,"dateOfTransfer":"1997-10-24T00:00:00","postcodeFull":"MK13 9EF","propertyType":"Terraced","oldOrNew":"Established","duration":"Freehold","paon":"16","saon":"","street":"HILLIARD DRIVE","locality":"BRADWELL","townOrCity":"MILTON KEYNES","district":"MILTON KEYNES","county":"MILTON KEYNES","ppdCategoryType":"Standard","recordStatus":"Addition","latitude":52.046731,"longitude":-0.787279,"postcodeStart":"MK13 9","postcode":["MK13","9EF"]}
{"price":40000,"dateOfTransfer":"1997-02-10T00:00:00","postcodeFull":"MK13 9EF","propertyType":"Terraced","oldOrNew":"Established","duration":"Freehold","paon":"4","saon":"","street":"HILLIARD DRIVE","locality":"BRADWELL","townOrCity":"MILTON KEYNES","district":"MILTON KEYNES","county":"MILTON KEYNES","ppdCategoryType":"Standard","recordStatus":"Addition","latitude":52.046731,"longitude":-0.787279,"postcodeStart":"MK13 9","postcode":["MK13","9EF"]}
{"price":69950,"dateOfTransfer":"1997-08-08T00:00:00","postcodeFull":"MK13 9DY","propertyType":"Semi-detached","oldOrNew":"Established","duration":"Freehold","paon":"3","saon":"","street":"TRAVELL COURT","locality":"BRADWELL","townOrCity":"MILTON KEYNES","district":"MILTON KEYNES","county":"MILTON KEYNES","ppdCategoryType":"Standard","recordStatus":"Addition","latitude":52.046947,"longitude":-0.78287,"postcodeStart":"MK13 9","postcode":["MK13","9DY"]}
{"price":13500,"dateOfTransfer":"1997-08-29T00:00:00","postcodeFull":"MK13 9ER","propertyType":"Flat/Maisonette/Townhouse","oldOrNew":"Established","duration":"Leasehold","paon":"96","saon":"","street":"QUINTON DRIVE","locality":"BRADWELL","townOrCity":"MILTON KEYNES","district":"MILTON KEYNES","county":"MILTON KEYNES","ppdCategoryType":"Standard","recordStatus":"Addition","latitude":52.045693,"longitude":-0.785091,"postcodeStart":"MK13 9","postcode":["MK13","9ER"]}
{"price":51500,"dateOfTransfer":"1997-04-11T00:00:00","postcodeFull":"MK13 9DG","propertyType":"Terraced","oldOrNew":"Established","duration":"Freehold","paon":"7","saon":"","street":"HAMPSON CLOSE","locality":"BRADWELL","townOrCity":"MILTON KEYNES","district":"MILTON KEYNES","county":"MILTON KEYNES","ppdCategoryType":"Standard","recordStatus":"Addition","latitude":52.052247,"longitude":-0.785015,"postcodeStart":"MK13 9","postcode":["MK13","9DG"]}
{"price":35000,"dateOfTransfer":"1997-01-31T00:00:00","postcodeFull":"MK13 9EH","propertyType":"Semi-detached","oldOrNew":"Established","duration":"Freehold","paon":"32","saon":"","street":"HARCOURT","locality":"BRADWELL","townOrCity":"MILTON KEYNES","district":"MILTON KEYNES","county":"MILTON KEYNES","ppdCategoryType":"Standard","recordStatus":"Addition","latitude":52.045945,"longitude":-0.786907,"postcodeStart":"MK13 9","postcode":["MK13","9EH"]}
{"price":65000,"dateOfTransfer":"1997-02-21T00:00:00","postcodeFull":"MK13 9HS","propertyType":"Semi-detached","oldOrNew":"Established","duration":"Freehold","paon":"5","saon":"","street":"MAYNARD CLOSE","locality":"BRADWELL","townOrCity":"MILTON KEYNES","district":"MILTON KEYNES","county":"MILTON KEYNES","ppdCategoryType":"Standard","recordStatus":"Addition","latitude":52.045047,"longitude":-0.78435,"postcodeStart":"MK13 9","postcode":["MK13","9HS"]}
{"price":150000,"dateOfTransfer":"1997-09-12T00:00:00","postcodeFull":"MK13 9EJ","propertyType":"Detached","oldOrNew":"Established","duration":"Freehold","paon":"10","saon":"","street":"OVEREND CLOSE","locality":"BRADWELL","townOrCity":"MILTON KEYNES","district":"MILTON KEYNES","county":"MILTON KEYNES","ppdCategoryType":"Standard","recordStatus":"Addition","latitude":52.047996,"longitude":-0.785262,"postcodeStart":"MK13 9","postcode":["MK13","9EJ"]}
{"price":49500,"dateOfTransfer":"1997-04-25T00:00:00","postcodeFull":"MK13 9DS","propertyType":"Semi-detached","oldOrNew":"Established","duration":"Freehold","paon":"24","saon":"","street":"QUINTON DRIVE","locality":"BRADWELL","townOrCity":"MILTON KEYNES","district":"MILTON KEYNES","county":"MILTON KEYNES","ppdCategoryType":"Standard","recordStatus":"Addition","latitude":52.047812,"longitude":-0.782234,"postcodeStart":"MK13 9","postcode":["MK13","9DS"]}
{"price":46000,"dateOfTransfer":"1997-06-27T00:00:00","postcodeFull":"MK13 9EH","propertyType":"Semi-detached","oldOrNew":"Established","duration":"Freehold","paon":"32","saon":"","street":"HARCOURT","locality":"BRADWELL","townOrCity":"MILTON KEYNES","district":"MILTON KEYNES","county":"MILTON KEYNES","ppdCategoryType":"Standard","recordStatus":"Addition","latitude":52.045945,"longitude":-0.786907,"postcodeStart":"MK13 9","postcode":["MK13","9EH"]}
{"price":45000,"dateOfTransfer":"1997-02-21T00:00:00","postcodeFull":"MK13 9AQ","propertyType":"Terraced","oldOrNew":"Established","duration":"Freehold","paon":"14","saon":"","street":"VICARAGE ROAD","locality":"BRADWELL","townOrCity":"MILTON KEYNES","district":"MILTON KEYNES","county":"MILTON KEYNES","ppdCategoryType":"Standard","recordStatus":"Addition","latitude":52.048553,"longitude":-0.788718,"postcodeStart":"MK13 9","postcode":["MK13","9AQ"]}
{"price":74950,"dateOfTransfer":"1997-12-19T00:00:00","postcodeFull":"MK13 9HT","propertyType":"Detached","oldOrNew":"Established","duration":"Freehold","paon":"17","saon":"","street":"ATKINS CLOSE","locality":"BRADWELL","townOrCity":"MILTON KEYNES","district":"MILTON KEYNES","county":"MILTON KEYNES","ppdCategoryType":"Standard","recordStatus":"Addition","latitude":52.045207,"longitude":-0.783354,"postcodeStart":"MK13 9","postcode":["MK13","9HT"]}
{"price":52500,"dateOfTransfer":"1997-02-03T00:00:00","postcodeFull":"MK13 9HN","propertyType":"Semi-detached","oldOrNew":"Established","duration":"Freehold","paon":"22","saon":"","street":"RAMSAY CLOSE","locality":"BRADWELL","townOrCity":"MILTON KEYNES","district":"MILTON KEYNES","county":"MILTON KEYNES","ppdCategoryType":"Standard","recordStatus":"Addition","latitude":52.045832,"longitude":-0.781996,"postcodeStart":"MK13 9","postcode":["MK13","9HN"]}
{"price":72000,"dateOfTransfer":"1997-07-16T00:00:00","postcodeFull":"MK13 9BX","propertyType":"Detached","oldOrNew":"Established","duration":"Freehold","paon":"41","saon":"","street":"THE SPINNEY","locality":"BRADWELL","townOrCity":"MILTON KEYNES","district":"MILTON KEYNES","county":"MILTON KEYNES","ppdCategoryType":"Standard","recordStatus":"Addition","latitude":52.050729,"longitude":-0.790423,"postcodeStart":"MK13 9","postcode":["MK13","9BX"]}
{"price":115000,"dateOfTransfer":"1997-11-28T00:00:00","postcodeFull":"MK13 9EJ","propertyType":"Detached","oldOrNew":"Established","duration":"Freehold","paon":"6","saon":"","street":"OVEREND CLOSE","locality":"BRADWELL","townOrCity":"MILTON KEYNES","district":"MILTON KEYNES","county":"MILTON KEYNES","ppdCategoryType":"Standard","recordStatus":"Addition","latitude":52.047996,"longitude":-0.785262,"postcodeStart":"MK13 9","postcode":["MK13","9EJ"]}
{"price":49500,"dateOfTransfer":"1997-12-19T00:00:00","postcodeFull":"MK13 9DX","propertyType":"Terraced","oldOrNew":"Established","duration":"Freehold","paon":"33","saon":"","street":"CRADDOCKS CLOSE","locality":"BRADWELL","townOrCity":"MILTON KEYNES","district":"MILTON KEYNES","county":"MILTON KEYNES","ppdCategoryType":"Standard","recordStatus":"Addition","latitude":52.0469,"longitude":-0.780961,"postcodeStart":"MK13 9","postcode":["MK13","9DX"]}
{"price":68000,"dateOfTransfer":"1997-07-08T00:00:00","postcodeFull":"MK13 9HU","propertyType":"Detached","oldOrNew":"Established","duration":"Freehold","paon":"24","saon":"","street":"NURSERY GARDENS","locality":"BRADWELL","townOrCity":"MILTON KEYNES","district":"MILTON KEYNES","county":"MILTON KEYNES","ppdCategoryType":"Standard","recordStatus":"Addition","latitude":52.049167,"longitude":-0.788978,"postcodeStart":"MK13 9","postcode":["MK13","9HU"]}
{"price":54000,"dateOfTransfer":"1997-05-15T00:00:00","postcodeFull":"MK13 9BG","propertyType":"Semi-detached","oldOrNew":"Established","duration":"Freehold","paon":"50","saon":"","street":"WALGRAVE DRIVE","locality":"BRADWELL","townOrCity":"MILTON KEYNES","district":"MILTON KEYNES","county":"MILTON KEYNES","ppdCategoryType":"Standard","recordStatus":"Addition","latitude":52.047765,"longitude":-0.783781,"postcodeStart":"MK13 9","postcode":["MK13","9BG"]}
{"price":54000,"dateOfTransfer":"1997-12-12T00:00:00","postcodeFull":"MK13 9EH","propertyType":"Semi-detached","oldOrNew":"Established","duration":"Freehold","paon":"14","saon":"","street":"HARCOURT","locality":"BRADWELL","townOrCity":"MILTON KEYNES","district":"MILTON KEYNES","county":"MILTON KEYNES","ppdCategoryType":"Standard","recordStatus":"Addition","latitude":52.045945,"longitude":-0.786907,"postcodeStart":"MK13 9","postcode":["MK13","9EH"]}
{"price":58000,"dateOfTransfer":"1997-10-10T00:00:00","postcodeFull":"MK13 9DQ","propertyType":"Semi-detached","oldOrNew":"Established","duration":"Freehold","paon":"21","saon":"","street":"RAWLINS ROAD","locality":"BRADWELL","townOrCity":"MILTON KEYNES","district":"MILTON KEYNES","county":"MILTON KEYNES","ppdCategoryType":"Standard","recordStatus":"Addition","latitude":52.051608,"longitude":-0.784129,"postcodeStart":"MK13 9","postcode":["MK13","9DQ"]}
{"price":70000,"dateOfTransfer":"1997-11-14T00:00:00","postcodeFull":"MK13 9HS","propertyType":"Semi-detached","oldOrNew":"Established","duration":"Freehold","paon":"19","saon":"","street":"MAYNARD CLOSE","locality":"BRADWELL","townOrCity":"MILTON KEYNES","district":"MILTON KEYNES","county":"MILTON KEYNES","ppdCategoryType":"Standard","recordStatus":"Addition","latitude":52.045047,"longitude":-0.78435,"postcodeStart":"MK13 9","postcode":["MK13","9HS"]}
{"price":59250,"dateOfTransfer":"1997-07-18T00:00:00","postcodeFull":"MK13 9HN","propertyType":"Semi-detached","oldOrNew":"Established","duration":"Freehold","paon":"7","saon":"","street":"RAMSAY CLOSE","locality":"BRADWELL","townOrCity":"MILTON KEYNES","district":"MILTON KEYNES","county":"MILTON KEYNES","ppdCategoryType":"Standard","recordStatus":"Addition","latitude":52.045832,"longitude":-0.781996,"postcodeStart":"MK13 9","postcode":["MK13","9HN"]}
{"price":51000,"dateOfTransfer":"1997-07-18T00:00:00","postcodeFull":"MK13 9AA","propertyType":"Semi-detached","oldOrNew":"Established","duration":"Freehold","paon":"18","saon":"","street":"LOUGHTON ROAD","locality":"BRADWELL","townOrCity":"MILTON KEYNES","district":"MILTON KEYNES","county":"MILTON KEYNES","ppdCategoryType":"Standard","recordStatus":"Addition","latitude":52.050808,"longitude":-0.785915,"postcodeStart":"MK13 9","postcode":["MK13","9AA"]}
{"price":47000,"dateOfTransfer":"1997-10-24T00:00:00","postcodeFull":"MK13 9EH","propertyType":"Semi-detached","oldOrNew":"Established","duration":"Freehold","paon":"20","saon":"","street":"HARCOURT","locality":"BRADWELL","townOrCity":"MILTON KEYNES","district":"MILTON KEYNES","county":"MILTON KEYNES","ppdCategoryType":"Standard","recordStatus":"Addition","latitude":52.045945,"longitude":-0.786907,"postcodeStart":"MK13 9","postcode":["MK13","9EH"]}
{"price":46500,"dateOfTransfer":"1997-10-15T00:00:00","postcodeFull":"MK13 9EW","propertyType":"Terraced","oldOrNew":"Established","duration":"Freehold","paon":"51","saon":"","street":"HILLIARD DRIVE","locality":"BRADWELL","townOrCity":"MILTON KEYNES","district":"MILTON KEYNES","county":"MILTON KEYNES","ppdCategoryType":"Standard","recordStatus":"Addition","latitude":52.045089,"longitude":-0.786668,"postcodeStart":"MK13 9","postcode":["MK13","9EW"]}
{"price":49995,"dateOfTransfer":"1997-09-15T00:00:00","postcodeFull":"MK13 9DX","propertyType":"Semi-detached","oldOrNew":"Established","duration":"Freehold","paon":"16","saon":"","street":"CRADDOCKS CLOSE","locality":"BRADWELL","townOrCity":"MILTON KEYNES","district":"MILTON KEYNES","county":"MILTON KEYNES","ppdCategoryType":"Standard","recordStatus":"Addition","latitude":52.0469,"longitude":-0.780961,"postcodeStart":"MK13 9","postcode":["MK13","9DX"]}
{"price":85000,"dateOfTransfer":"1997-02-21T00:00:00","postcodeFull":"MK13 9HU","propertyType":"Detached","oldOrNew":"Established","duration":"Freehold","paon":"20","saon":"","street":"NURSERY GARDENS","locality":"BRADWELL","townOrCity":"MILTON KEYNES","district":"MILTON KEYNES","county":"MILTON KEYNES","ppdCategoryType":"Standard","recordStatus":"Addition","latitude":52.049167,"longitude":-0.788978,"postcodeStart":"MK13 9","postcode":["MK13","9HU"]}
{"price":46000,"dateOfTransfer":"1997-11-24T00:00:00","postcodeFull":"MK13 9EQ","propertyType":"Semi-detached","oldOrNew":"Established","duration":"Freehold","paon":"17","saon":"","street":"HILLIARD DRIVE","locality":"BRADWELL","townOrCity":"MILTON KEYNES","district":"MILTON KEYNES","county":"MILTON KEYNES","ppdCategoryType":"Standard","recordStatus":"Addition","latitude":52.046222,"longitude":-0.787629,"postcodeStart":"MK13 9","postcode":["MK13","9EQ"]}
{"price":50000,"dateOfTransfer":"1997-08-22T00:00:00","postcodeFull":"MK13 9AL","propertyType":"Terraced","oldOrNew":"Established","duration":"Freehold","paon":"44","saon":"","street":"ABBEY ROAD","locality":"BRADWELL","townOrCity":"MILTON KEYNES","district":"MILTON KEYNES","county":"MILTON KEYNES","ppdCategoryType":"Standard","recordStatus":"Addition","latitude":52.049073,"longitude":-0.790308,"postcodeStart":"MK13 9","postcode":["MK13","9AL"]}
{"price":42000,"dateOfTransfer":"1997-02-28T00:00:00","postcodeFull":"MK13 9EE","propertyType":"Terraced","oldOrNew":"Established","duration":"Freehold","paon":"8","saon":"","street":"SHARMAN WALK","locality":"BRADWELL","townOrCity":"MILTON KEYNES","district":"MILTON KEYNES","county":"MILTON KEYNES","ppdCategoryType":"Standard","recordStatus":"Addition","latitude":52.046848,"longitude":-0.788122,"postcodeStart":"MK13 9","postcode":["MK13","9EE"]}
{"price":59000,"dateOfTransfer":"1997-04-30T00:00:00","postcodeFull":"MK13 9AL","propertyType":"Terraced","oldOrNew":"Established","duration":"Freehold","paon":"56","saon":"","street":"ABBEY ROAD","locality":"BRADWELL","townOrCity":"MILTON KEYNES","district":"MILTON KEYNES","county":"MILTON KEYNES","ppdCategoryType":"Standard","recordStatus":"Addition","latitude":52.049073,"longitude":-0.790308,"postcodeStart":"MK13 9","postcode":["MK13","9AL"]}
{"price":42500,"dateOfTransfer":"1997-02-28T00:00:00","postcodeFull":"MK13 9EG","propertyType":"Semi-detached","oldOrNew":"Established","duration":"Freehold","paon":"72","saon":"","street":"HILLIARD DRIVE","locality":"BRADWELL","townOrCity":"MILTON KEYNES","district":"MILTON KEYNES","county":"MILTON KEYNES","ppdCategoryType":"Standard","recordStatus":"Addition","latitude":52.045848,"longitude":-0.787974,"postcodeStart":"MK13 9","postcode":["MK13","9EG"]}
{"price":24000,"dateOfTransfer":"1997-06-12T00:00:00","postcodeFull":"MK13 9HH","propertyType":"Terraced","oldOrNew":"Established","duration":"Leasehold","paon":"53","saon":"","street":"QUINTON DRIVE","locality":"BRADWELL","townOrCity":"MILTON KEYNES","district":"MILTON KEYNES","county":"MILTON KEYNES","ppdCategoryType":"Standard","recordStatus":"Addition","latitude":52.046012,"longitude":-0.782953,"postcodeStart":"MK13 9","postcode":["MK13","9HH"]}
{"price":10000,"dateOfTransfer":"1997-07-11T00:00:00","postcodeFull":"MK13 9ER","propertyType":"Terraced","oldOrNew":"Established","duration":"Leasehold","paon":"94","saon":"","street":"QUINTON DRIVE","locality":"BRADWELL","townOrCity":"MILTON KEYNES","district":"MILTON KEYNES","county":"MILTON KEYNES","ppdCategoryType":"Standard","recordStatus":"Addition","latitude":52.045693,"longitude":-0.785091,"postcodeStart":"MK13 9","postcode":["MK13","9ER"]}
{"price":84000,"dateOfTransfer":"1997-05-23T00:00:00","postcodeFull":"MK13 9BX","propertyType":"Detached","oldOrNew":"Established","duration":"Freehold","paon":"37","saon":"","street":"THE SPINNEY","locality":"BRADWELL","townOrCity":"MILTON KEYNES","district":"MILTON KEYNES","county":"MILTON KEYNES","ppdCategoryType":"Standard","recordStatus":"Addition","latitude":52.050729,"longitude":-0.790423,"postcodeStart":"MK13 9","postcode":["MK13","9BX"]}
{"price":54950,"dateOfTransfer":"1998-12-23T00:00:00","postcodeFull":"MK13 9ER","propertyType":"Semi-detached","oldOrNew":"Established","duration":"Freehold","paon":"72","saon":"","street":"QUINTON DRIVE","locality":"BRADWELL","townOrCity":"MILTON KEYNES","district":"MILTON KEYNES","county":"MILTON KEYNES","ppdCategoryType":"Standard","recordStatus":"Addition","latitude":52.045693,"longitude":-0.785091,"postcodeStart":"MK13 9","postcode":["MK13","9ER"]}
{"price":81000,"dateOfTransfer":"1998-05-29T00:00:00","postcodeFull":"MK13 9HZ","propertyType":"Detached","oldOrNew":"Established","duration":"Freehold","paon":"48","saon":"","street":"FOSTERS LANE","locality":"BRADWELL","townOrCity":"MILTON KEYNES","district":"MILTON KEYNES","county":"MILTON KEYNES","ppdCategoryType":"Standard","recordStatus":"Addition","latitude":52.043663,"longitude":-0.784403,"postcodeStart":"MK13 9","postcode":["MK13","9HZ"]}
{"price":43000,"dateOfTransfer":"1998-07-31T00:00:00","postcodeFull":"MK13 9EF","propertyType":"Semi-detached","oldOrNew":"Established","duration":"Freehold","paon":"8","saon":"","street":"HILLIARD DRIVE","locality":"BRADWELL","townOrCity":"MILTON KEYNES","district":"MILTON KEYNES","county":"MILTON KEYNES","ppdCategoryType":"Standard","recordStatus":"Addition","latitude":52.046731,"longitude":-0.787279,"postcodeStart":"MK13 9","postcode":["MK13","9EF"]}
{"price":17500,"dateOfTransfer":"1998-01-12T00:00:00","postcodeFull":"MK13 9EW","propertyType":"Terraced","oldOrNew":"Established","duration":"Leasehold","paon":"47","saon":"","street":"HILLIARD DRIVE","locality":"BRADWELL","townOrCity":"MILTON KEYNES","district":"MILTON KEYNES","county":"MILTON KEYNES","ppdCategoryType":"Standard","recordStatus":"Addition","latitude":52.045089,"longitude":-0.786668,"postcodeStart":"MK13 9","postcode":["MK13","9EW"]}
{"price":38000,"dateOfTransfer":"1998-02-20T00:00:00","postcodeFull":"MK13 9HH","propertyType":"Terraced","oldOrNew":"Established","duration":"Leasehold","paon":"61","saon":"","street":"QUINTON DRIVE","locality":"BRADWELL","townOrCity":"MILTON KEYNES","district":"MILTON KEYNES","county":"MILTON KEYNES","ppdCategoryType":"Standard","recordStatus":"Addition","latitude":52.046012,"longitude":-0.782953,"postcodeStart":"MK13 9","postcode":["MK13","9HH"]}
{"price":59000,"dateOfTransfer":"1998-11-03T00:00:00","postcodeFull":"MK13 9ES","propertyType":"Terraced","oldOrNew":"Established","duration":"Freehold","paon":"16","saon":"","street":"COPPIN LANE","locality":"BRADWELL","townOrCity":"MILTON KEYNES","district":"MILTON KEYNES","county":"MILTON KEYNES","ppdCategoryType":"Standard","recordStatus":"Addition","latitude":52.046403,"longitude":-0.784255,"postcodeStart":"MK13 9","postcode":["MK13","9ES"]}
{"price":59000,"dateOfTransfer":"1998-02-20T00:00:00","postcodeFull":"MK13 9EA","propertyType":"Semi-detached","oldOrNew":"Established","duration":"Freehold","paon":"42","saon":"","street":"QUINTON DRIVE","locality":"BRADWELL","townOrCity":"MILTON KEYNES","district":"MILTON KEYNES","county":"MILTON KEYNES","ppdCategoryType":"Standard","recordStatus":"Addition","latitude":52.047169,"longitude":-0.78263,"postcodeStart":"MK13 9","postcode":["MK13","9EA"]}
{"price":63500,"dateOfTransfer":"1998-08-28T00:00:00","postcodeFull":"MK13 9AQ","propertyType":"Semi-detached","oldOrNew":"Established","duration":"Freehold","paon":"16","saon":"","street":"VICARAGE ROAD","locality":"BRADWELL","townOrCity":"MILTON KEYNES","district":"MILTON KEYNES","county":"MILTON KEYNES","ppdCategoryType":"Standard","recordStatus":"Addition","latitude":52.048553,"longitude":-0.788718,"postcodeStart":"MK13 9","postcode":["MK13","9AQ"]}
{"price":26000,"dateOfTransfer":"1998-06-19T00:00:00","postcodeFull":"MK13 9EP","propertyType":"Flat/Maisonette/Townhouse","oldOrNew":"Established","duration":"Leasehold","paon":"106","saon":"","street":"HILLIARD DRIVE","locality":"BRADWELL","townOrCity":"MILTON KEYNES","district":"MILTON KEYNES","county":"MILTON KEYNES","ppdCategoryType":"Standard","recordStatus":"Addition","latitude":52.044762,"longitude":-0.787289,"postcodeStart":"MK13 9","postcode":["MK13","9EP"]}
{"price":89000,"dateOfTransfer":"1998-11-03T00:00:00","postcodeFull":"MK13 9BX","propertyType":"Semi-detached","oldOrNew":"Established","duration":"Freehold","paon":"5","saon":"","street":"THE SPINNEY","locality":"BRADWELL","townOrCity":"MILTON KEYNES","district":"MILTON KEYNES","county":"MILTON KEYNES","ppdCategoryType":"Standard","recordStatus":"Addition","latitude":52.050729,"longitude":-0.790423,"postcodeStart":"MK13 9","postcode":["MK13","9BX"]}
{"price":62500,"dateOfTransfer":"1998-08-28T00:00:00","postcodeFull":"MK13 9AQ","propertyType":"Semi-detached","oldOrNew":"Established","duration":"Freehold","paon":"46","saon":"","street":"VICARAGE ROAD","locality":"BRADWELL","townOrCity":"MILTON KEYNES","district":"MILTON KEYNES","county":"MILTON KEYNES","ppdCategoryType":"Standard","recordStatus":"Addition","latitude":52.048553,"longitude":-0.788718,"postcodeStart":"MK13 9","postcode":["MK13","9AQ"]}
{"price":69000,"dateOfTransfer":"1998-08-21T00:00:00","postcodeFull":"MK13 9BX","propertyType":"Semi-detached","oldOrNew":"Established","duration":"Freehold","paon":"35","saon":"","street":"THE SPINNEY","locality":"BRADWELL","townOrCity":"MILTON KEYNES","district":"MILTON KEYNES","county":"MILTON KEYNES","ppdCategoryType":"Standard","recordStatus":"Addition","latitude":52.050729,"longitude":-0.790423,"postcodeStart":"MK13 9","postcode":["MK13","9BX"]}
{"price":43000,"dateOfTransfer":"1998-07-24T00:00:00","postcodeFull":"MK13 9AL","propertyType":"Terraced","oldOrNew":"Established","duration":"Freehold","paon":"20","saon":"","street":"ABBEY ROAD","locality":"BRADWELL","townOrCity":"MILTON KEYNES","district":"MILTON KEYNES","county":"MILTON KEYNES","ppdCategoryType":"Standard","recordStatus":"Addition","latitude":52.049073,"longitude":-0.790308,"postcodeStart":"MK13 9","postcode":["MK13","9AL"]}
{"price":70000,"dateOfTransfer":"1998-01-10T00:00:00","postcodeFull":"MK13 9HN","propertyType":"Semi-detached","oldOrNew":"Established","duration":"Freehold","paon":"15","saon":"","street":"RAMSAY CLOSE","locality":"BRADWELL","townOrCity":"MILTON KEYNES","district":"MILTON KEYNES","county":"MILTON KEYNES","ppdCategoryType":"Standard","recordStatus":"Addition","latitude":52.045832,"longitude":-0.781996,"postcodeStart":"MK13 9","postcode":["MK13","9HN"]}
{"price":47700,"dateOfTransfer":"1998-04-01T00:00:00","postcodeFull":"MK13 9EF","propertyType":"Semi-detached","oldOrNew":"Established","duration":"Freehold","paon":"18","saon":"","street":"HILLIARD DRIVE","locality":"BRADWELL","townOrCity":"MILTON KEYNES","district":"MILTON KEYNES","county":"MILTON KEYNES","ppdCategoryType":"Standard","recordStatus":"Addition","latitude":52.046731,"longitude":-0.787279,"postcodeStart":"MK13 9","postcode":["MK13","9EF"]}
{"price":46995,"dateOfTransfer":"1998-02-27T00:00:00","postcodeFull":"MK13 9EE","propertyType":"Terraced","oldOrNew":"Established","duration":"Freehold","paon":"5","saon":"","street":"SHARMAN WALK","locality":"BRADWELL","townOrCity":"MILTON KEYNES","district":"MILTON KEYNES","county":"MILTON KEYNES","ppdCategoryType":"Standard","recordStatus":"Addition","latitude":52.046848,"longitude":-0.788122,"postcodeStart":"MK13 9","postcode":["MK13","9EE"]}
{"price":39500,"dateOfTransfer":"1998-04-24T00:00:00","postcodeFull":"MK13 9EQ","propertyType":"Semi-detached","oldOrNew":"Established","duration":"Freehold","paon":"11","saon":"","street":"HILLIARD DRIVE","locality":"BRADWELL","townOrCity":"MILTON KEYNES","district":"MILTON KEYNES","county":"MILTON KEYNES","ppdCategoryType":"Standard","recordStatus":"Addition","latitude":52.046222,"longitude":-0.787629,"postcodeStart":"MK13 9","postcode":["MK13","9EQ"]}
