{"price":15000,"dateOfTransfer":"1995-02-21T00:00:00","postcodeFull":"NR30 1LF","propertyType":"Terraced","oldOrNew":"Established","duration":"Freehold","paon":"5","saon":"","street":"CORONATION TERRACE","locality":"GREAT YARMOUTH","townOrCity":"GREAT YARMOUTH","district":"GREAT YARMOUTH","county":"NORFOLK","ppdCategoryType":"Standard","recordStatus":"Addition","latitude":52.6091,"longitude":1.722873,"postcodeStart":"NR30 1","postcode":["NR30","1LF"]}
{"price":35000,"dateOfTransfer":"1995-07-07T00:00:00","postcodeFull":"NR30 1QG","propertyType":"Terraced","oldOrNew":"Established","duration":"Freehold","paon":"136","saon":"","street":"ALDERSON ROAD","locality":"GREAT YARMOUTH","townOrCity":"GREAT YARMOUTH","district":"GREAT YARMOUTH","county":"NORFOLK","ppdCategoryType":"Standard","recordStatus":"Addition","latitude":52.616818,"longitude":1.726026,"postcodeStart":"NR30 1","postcode":["NR30","1QG"]}
{"price":27000,"dateOfTransfer":"1995-02-24T00:00:00","postcodeFull":"NR30 1QA","propertyType":"Terraced","oldOrNew":"Established","duration":"Freehold","paon":"183","saon":"","street":"PALGRAVE ROAD","locality":"GREAT YARMOUTH","townOrCity":"GREAT YARMOUTH","district":"GREAT YARMOUTH","county":"NORFOLK","ppdCategoryType":"Standard","recordStatus":"Addition","latitude":52.61441,"longitude":1.72622,"postcodeStart":"NR30 1","postcode":["NR30","1QA"]}
{"price":36750,"dateOfTransfer":"1995-04-13T00:00:00","postcodeFull":"NR30 1BP","propertyType":"Terraced","oldOrNew":"Established","duration":"Freehold","paon":"130","saon":"","street":"NORTHGATE STREET","locality":"GREAT YARMOUTH","townOrCity":"GREAT YARMOUTH","district":"GREAT YARMOUTH","county":"NORFOLK","ppdCategoryType":"Standard","recordStatus":"Addition","latitude":52.617117,"longitude":1.727943,"postcodeStart":"NR30 1","postcode":["NR30","1BP"]}
{"price":38000,"dateOfTransfer":"1995-02-10T00:00:00","postcodeFull":"NR30 1QL","propertyType":"Terraced","oldOrNew":"Established","duration":"Freehold","paon":"183","saon":"","street":"ALDERSON ROAD","locality":"GREAT YARMOUTH","townOrCity":"GREAT YARMOUTH","district":"GREAT YARMOUTH","county":"NORFOLK","ppdCategoryType":"Standard","recordStatus":"Addition","latitude":52.61452,"longitude":1.725305,"postcodeStart":"NR30 1","postcode":["NR30","1QL"]}
{"price":32500,"dateOfTransfer":"1995-08-21T00:00:00","postcodeFull":"NR30 1ER","propertyType":"Terraced","oldOrNew":"Established","duration":"Freehold","paon":"13","saon":"","street":"WELL STREET","locality":"GREAT YARMOUTH","townOrCity":"GREAT YARMOUTH","district":"GREAT YARMOUTH","county":"NORFOLK","ppdCategoryType":"Standard","recordStatus":"Addition","latitude":52.610992,"longitude":1.73249,"postcodeStart":"NR30 1","postcode":["NR30","1ER"]}
{"price":32000,"dateOfTransfer":"1995-12-12T00:00:00","postcodeFull":"NR30 1JY","propertyType":"Semi-detached","oldOrNew":"Established","duration":"Freehold","paon":"1","saon":"","street":"NORTH RIVER ROAD","locality":"GREAT YARMOUTH","townOrCity":"GREAT YARMOUTH","district":"GREAT YARMOUTH","county":"NORFOLK","ppdCategoryType":"Standard","recordStatus":"Addition","latitude":52.613484,"longitude":1.723053,"postcodeStart":"NR30 1","postcode":["NR30","1JY"]}
{"price":32000,"dateOfTransfer":"1995-06-30T00:00:00","postcodeFull":"NR30 1BQ","propertyType":"Terraced","oldOrNew":"Established","duration":"Freehold","paon":"13","saon":"","street":"EDEN PLACE","locality":"GREAT YARMOUTH","townOrCity":"GREAT YARMOUTH","district":"GREAT YARMOUTH","county":"NORFOLK","ppdCategoryType":"Standard","recordStatus":"Addition","latitude":52.612249,"longitude":1.726937,"postcodeStart":"NR30 1","postcode":["NR30","1BQ"]}
{"price":25500,"dateOfTransfer":"1995-08-18T00:00:00","postcodeFull":"NR30 1QJ","propertyType":"Terraced","oldOrNew":"Established","duration":"Freehold","paon":"27","saon":"","street":"ALDERSON ROAD","locality":"GREAT YARMOUTH","townOrCity":"GREAT YARMOUTH","district":"GREAT YARMOUTH","county":"NORFOLK","ppdCategoryType":"Standard","recordStatus":"Addition","latitude":52.615589,"longitude":1.725233,"postcodeStart":"NR30 1","postcode":["NR30","1QJ"]}
{"price":20500,"dateOfTransfer":"1995-01-06T00:00:00","postcodeFull":"NR30 1QL","propertyType":"Terraced","oldOrNew":"Established","duration":"Freehold","paon":"5","saon":"","street":"ALDERSON ROAD","locality":"GREAT YARMOUTH","townOrCity":"GREAT YARMOUTH","district":"GREAT YARMOUTH","county":"NORFOLK","ppdCategoryType":"Standard","recordStatus":"Addition","latitude":52.61452,"longitude":1.725305,"postcodeStart":"NR30 1","postcode":["NR30","1QL"]}
{"price":20000,"dateOfTransfer":"1995-12-15T00:00:00","postcodeFull":"NR30 1BJ","propertyType":"Terraced","oldOrNew":"Established","duration":"Freehold","paon":"62","saon":"","street":"NORTHGATE STREET","locality":"GREAT YARMOUTH","townOrCity":"GREAT YARMOUTH","district":"GREAT YARMOUTH","county":"NORFOLK","ppdCategoryType":"Standard","recordStatus":"Addition","latitude":52.614117,"longitude":1.726955,"postcodeStart":"NR30 1","postcode":["NR30","1BJ"]}
{"price":34750,"dateOfTransfer":"1995-02-24T00:00:00","postcodeFull":"NR30 1EW","propertyType":"Terraced","oldOrNew":"Established","duration":"Freehold","paon":"32","saon":"","street":"AUDLEY STREET","locality":"GREAT YARMOUTH","townOrCity":"GREAT YARMOUTH","district":"GREAT YARMOUTH","county":"NORFOLK","ppdCategoryType":"Standard","recordStatus":"Addition","latitude":52.61182,"longitude":1.732487,"postcodeStart":"NR30 1","postcode":["NR30","1EW"]}
{"price":30500,"dateOfTransfer":"1995-07-28T00:00:00","postcodeFull":"NR30 1LF","propertyType":"Terraced","oldOrNew":"Established","duration":"Freehold","paon":"12","saon":"","street":"CORONATION TERRACE","locality":"GREAT YARMOUTH","townOrCity":"GREAT YARMOUTH","district":"GREAT YARMOUTH","county":"NORFOLK","ppdCategoryType":"Standard","recordStatus":"Addition","latitude":52.6091,"longitude":1.722873,"postcodeStart":"NR30 1","postcode":["NR30","1LF"]}
{"price":37500,"dateOfTransfer":"1995-03-24T00:00:00","postcodeFull":"NR30 1NH","propertyType":"Terraced","oldOrNew":"Established","duration":"Freehold","paon":"7","saon":"","street":"PRIORY GARDENS","locality":"GREAT YARMOUTH","townOrCity":"GREAT YARMOUTH","district":"GREAT YARMOUTH","county":"NORFOLK","ppdCategoryType":"Standard","recordStatus":"Addition","latitude":52.610621,"longitude":1.728292,"postcodeStart":"NR30 1","postcode":["NR30","1NH"]}
{"price":38000,"dateOfTransfer":"1995-03-10T00:00:00","postcodeFull":"NR30 1QD","propertyType":"Terraced","oldOrNew":"Established","duration":"Freehold","paon":"52","saon":"","street":"PALGRAVE ROAD","locality":"GREAT YARMOUTH","townOrCity":"GREAT YARMOUTH","district":"GREAT YARMOUTH","county":"NORFOLK","ppdCategoryType":"Standard","recordStatus":"Addition","latitude":52.615573,"longitude":1.726127,"postcodeStart":"NR30 1","postcode":["NR30","1QD"]}
{"price":34000,"dateOfTransfer":"1995-09-29T00:00:00","postcodeFull":"NR30 1QQ","propertyType":"Terraced","oldOrNew":"Established","duration":"Freehold","paon":"111","saon":"","street":"ALDERSON ROAD","locality":"GREAT YARMOUTH","townOrCity":"GREAT YARMOUTH","district":"GREAT YARMOUTH","county":"NORFOLK","ppdCategoryType":"Standard","recordStatus":"Addition","latitude":52.617347,"longitude":1.72579,"postcodeStart":"NR30 1","postcode":["NR30","1QQ"]}
{"price":30500,"dateOfTransfer":"1995-07-07T00:00:00","postcodeFull":"NR30 1LE","propertyType":"Terraced","oldOrNew":"Established","duration":"Freehold","paon":"21","saon":"","street":"GEORGE STREET","locality":"GREAT YARMOUTH","townOrCity":"GREAT YARMOUTH","district":"GREAT YARMOUTH","county":"NORFOLK","ppdCategoryType":"Standard","recordStatus":"Addition","latitude":52.609131,"longitude":1.723685,"postcodeStart":"NR30 1","postcode":["NR30","1LE"]}
{"price":40000,"dateOfTransfer":"1995-02-03T00:00:00","postcodeFull":"NR30 1PY","propertyType":"Terraced","oldOrNew":"Established","duration":"Freehold","paon":"11","saon":"","street":"PALGRAVE ROAD","locality":"GREAT YARMOUTH","townOrCity":"GREAT YARMOUTH","district":"GREAT YARMOUTH","county":"NORFOLK","ppdCategoryType":"Standard","recordStatus":"Addition","latitude":52.613233,"longitude":1.725898,"postcodeStart":"NR30 1","postcode":["NR30","1PY"]}
{"price":26500,"dateOfTransfer":"1995-08-11T00:00:00","postcodeFull":"NR30 1LF","propertyType":"Terraced","oldOrNew":"Established","duration":"Freehold","paon":"5","saon":"","street":"CORONATION TERRACE","locality":"GREAT YARMOUTH","townOrCity":"GREAT YARMOUTH","district":"GREAT YARMOUTH","county":"NORFOLK","ppdCategoryType":"Standard","recordStatus":"Addition","latitude":52.6091,"longitude":1.722873,"postcodeStart":"NR30 1","postcode":["NR30","1LF"]}
{"price":33950,"dateOfTransfer":"1995-03-31T00:00:00","postcodeFull":"NR30 1QG","propertyType":"Terraced","oldOrNew":"Established","duration":"Freehold","paon":"124","saon":"","street":"ALDERSON ROAD","locality":"GREAT YARMOUTH","townOrCity":"GREAT YARMOUTH","district":"GREAT YARMOUTH","county":"NORFOLK","ppdCategoryType":"Standard","recordStatus":"Addition","latitude":52.616818,"longitude":1.726026,"postcodeStart":"NR30 1","postcode":["NR30","1QG"]}
{"price":33000,"dateOfTransfer":"1995-05-12T00:00:00","postcodeFull":"NR30 1QG","propertyType":"Terraced","oldOrNew":"Established","duration":"Freehold","paon":"128","saon":"","street":"ALDERSON ROAD","locality":"GREAT YARMOUTH","townOrCity":"GREAT YARMOUTH","district":"GREAT YARMOUTH","county":"NORFOLK","ppdCategoryType":"Standard","recordStatus":"Addition","latitude":52.616818,"longitude":1.726026,"postcodeStart":"NR30 1","postcode":["NR30","1QG"]}
{"price":23500,"dateOfTransfer":"1995-09-29T00:00:00","postcodeFull":"NR30 1DS","propertyType":"Terraced","oldOrNew":"Established","duration":"Leasehold","paon":"11","saon":"","street":"TOWN WALL MEWS","locality":"GREAT YARMOUTH","townOrCity":"GREAT YARMOUTH","district":"GREAT YARMOUTH","county":"NORFOLK","ppdCategoryType":"Standard","recordStatus":"Addition","latitude":52.612522,"longitude":1.727035,"postcodeStart":"NR30 1","postcode":["NR30","1DS"]}
{"price":32950,"dateOfTransfer":"1995-02-06T00:00:00","postcodeFull":"NR30 1QL","propertyType":"Terraced","oldOrNew":"Established","duration":"Freehold","paon":"1B","saon":"","street":"ALDERSON ROAD","locality":"GREAT YARMOUTH","townOrCity":"GREAT YARMOUTH","district":"GREAT YARMOUTH","county":"NORFOLK","ppdCategoryType":"Standard","recordStatus":"Addition","latitude":52.61452,"longitude":1.725305,"postcodeStart":"NR30 1","postcode":["NR30","1QL"]}
{"price":39950,"dateOfTransfer":"1995-12-19T00:00:00","postcodeFull":"NR30 1BG","propertyType":"Semi-detached","oldOrNew":"Established","duration":"Freehold","paon":"221","saon":"","street":"NORTHGATE STREET","locality":"GREAT YARMOUTH","townOrCity":"GREAT YARMOUTH","district":"GREAT YARMOUTH","county":"NORFOLK","ppdCategoryType":"Standard","recordStatus":"Addition","latitude":52.61248,"longitude":1.726668,"postcodeStart":"NR30 1","postcode":["NR30","1BG"]}
{"price":15250,"dateOfTransfer":"1995-04-21T00:00:00","postcodeFull":"NR30 1LE","propertyType":"Terraced","oldOrNew":"Established","duration":"Freehold","paon":"21","saon":"","street":"GEORGE STREET","locality":"GREAT YARMOUTH","townOrCity":"GREAT YARMOUTH","district":"GREAT YARMOUTH","county":"NORFOLK","ppdCategoryType":"Standard","recordStatus":"Addition","latitude":52.609131,"longitude":1.723685,"postcodeStart":"NR30 1","postcode":["NR30","1LE"]}
{"price":28000,"dateOfTransfer":"1995-05-01T00:00:00","postcodeFull":"NR30 1QL","propertyType":"Terraced","oldOrNew":"Established","duration":"Freehold","paon":"184","saon":"","street":"ALDERSON ROAD","locality":"GREAT YARMOUTH","townOrCity":"GREAT YARMOUTH","district":"GREAT YARMOUTH","county":"NORFOLK","ppdCategoryType":"Standard","recordStatus":"Addition","latitude":52.61452,"longitude":1.725305,"postcodeStart":"NR30 1","postcode":["NR30","1QL"]}
{"price":11205,"dateOfTransfer":"1995-03-17T00:00:00","postcodeFull":"NR30 1JX","propertyType":"Terraced","oldOrNew":"Established","duration":"Freehold","paon":"3","saon":"","street":"SIDEGATE ROAD","locality":"GREAT YARMOUTH","townOrCity":"GREAT YARMOUTH","district":"GREAT YARMOUTH","county":"NORFOLK","ppdCategoryType":"Standard","recordStatus":"Addition","latitude":52.61297,"longitude":1.722536,"postcodeStart":"NR30 1","postcode":["NR30","1JX"]}
{"price":15000,"dateOfTransfer":"1995-09-07T00:00:00","postcodeFull":"NR30 1EW","propertyType":"Terraced","oldOrNew":"Established","duration":"Freehold","paon":"1","saon":"","street":"AUDLEY STREET","locality":"GREAT YARMOUTH","townOrCity":"GREAT YARMOUTH","district":"GREAT YARMOUTH","county":"NORFOLK","ppdCategoryType":"Standard","recordStatus":"Addition","latitude":52.61182,"longitude":1.732487,"postcodeStart":"NR30 1","postcode":["NR30","1EW"]}
{"price":17000,"dateOfTransfer":"1995-10-05T00:00:00","postcodeFull":"NR30 1DG","propertyType":"Semi-detached","oldOrNew":"Established","duration":"Freehold","paon":"23","saon":"","street":"MAYGROVE ROAD","locality":"GREAT YARMOUTH","townOrCity":"GREAT YARMOUTH","district":"GREAT YARMOUTH","county":"NORFOLK","ppdCategoryType":"Standard","recordStatus":"Addition","latitude":52.613394,"longitude":1.729332,"postcodeStart":"NR30 1","postcode":["NR30","1DG"]}
{"price":34000,"dateOfTransfer":"1995-03-27T00:00:00","postcodeFull":"NR30 1QF","propertyType":"Terraced","oldOrNew":"Established","duration":"Freehold","paon":"92","saon":"","street":"PALGRAVE ROAD","locality":"GREAT YARMOUTH","townOrCity":"GREAT YARMOUTH","district":"GREAT YARMOUTH","county":"NORFOLK","ppdCategoryType":"Standard","recordStatus":"Addition","latitude":52.616932,"longitude":1.726405,"postcodeStart":"NR30 1","postcode":["NR30","1QF"]}
{"price":45500,"dateOfTransfer":"1995-02-03T00:00:00","postcodeFull":"NR30 1EW","propertyType":"Terraced","oldOrNew":"Established","duration":"Freehold","paon":"23","saon":"","street":"AUDLEY STREET","locality":"GREAT YARMOUTH","townOrCity":"GREAT YARMOUTH","district":"GREAT YARMOUTH","county":"NORFOLK","ppdCategoryType":"Standard","recordStatus":"Addition","latitude":52.61182,"longitude":1.732487,"postcodeStart":"NR30 1","postcode":["NR30","1EW"]}
{"price":26750,"dateOfTransfer":"1995-08-09T00:00:00","postcodeFull":"NR30 1LE","propertyType":"Terraced","oldOrNew":"Established","duration":"Freehold","paon":"23","saon":"","street":"GEORGE STREET","locality":"GREAT YARMOUTH","townOrCity":"GREAT YARMOUTH","district":"GREAT YARMOUTH","county":"NORFOLK","ppdCategoryType":"Standard","recordStatus":"Addition","latitude":52.609131,"longitude":1.723685,"postcodeStart":"NR30 1","postcode":["NR30","1LE"]}
{"price":37500,"dateOfTransfer":"1995-12-08T00:00:00","postcodeFull":"NR30 1NH","propertyType":"Terraced","oldOrNew":"Established","duration":"Freehold","paon":"7","saon":"","street":"PRIORY GARDENS","locality":"GREAT YARMOUTH","townOrCity":"GREAT YARMOUTH","district":"GREAT YARMOUTH","county":"NORFOLK","ppdCategoryType":"Standard","recordStatus":"Addition","latitude":52.610621,"longitude":1.728292,"postcodeStart":"NR30 1","postcode":["NR30","1NH"]}
{"price":20000,"dateOfTransfer":"1995-09-29T00:00:00","postcodeFull":"NR30 1JU","propertyType":"Terraced","oldOrNew":"Established","duration":"Freehold","paon":"24","saon":"","street":"BRIDGE ROAD","locality":"GREAT YARMOUTH","townOrCity":"GREAT YARMOUTH","district":"GREAT YARMOUTH","county":"NORFOLK","ppdCategoryType":"Standard","recordStatus":"Addition","latitude":52.612872,"longitude":1.722203,"postcodeStart":"NR30 1","postcode":["NR30","1JU"]}
{"price":40800,"dateOfTransfer":"1995-02-24T00:00:00","postcodeFull":"NR30 1QB","propertyType":"Terraced","oldOrNew":"Established","duration":"Freehold","paon":"7","saon":"","street":"ORMOND ROAD","locality":"GREAT YARMOUTH","townOrCity":"GREAT YARMOUTH","district":"GREAT YARMOUTH","county":"NORFOLK","ppdCategoryType":"Standard","recordStatus":"Addition","latitude":52.615103,"longitude":1.726758,"postcodeStart":"NR30 1","postcode":["NR30","1QB"]}
{"price":25950,"dateOfTransfer":"1995-06-09T00:00:00","postcodeFull":"NR30 1BP","propertyType":"Terraced","oldOrNew":"Established","duration":"Freehold","paon":"112","saon":"","street":"NORTHGATE STREET","locality":"GREAT YARMOUTH","townOrCity":"GREAT YARMOUTH","district":"GREAT YARMOUTH","county":"NORFOLK","ppdCategoryType":"Standard","recordStatus":"Addition","latitude":52.617117,"longitude":1.727943,"postcodeStart":"NR30 1","postcode":["NR30","1BP"]}
{"price":42000,"dateOfTransfer":"1995-06-30T00:00:00","postcodeFull":"NR30 1QJ","propertyType":"Terraced","oldOrNew":"Established","duration":"Freehold","paon":"42","saon":"","street":"ALDERSON ROAD","locality":"GREAT YARMOUTH","townOrCity":"GREAT YARMOUTH","district":"GREAT YARMOUTH","county":"NORFOLK","ppdCategoryType":"Standard","recordStatus":"Addition","latitude":52.615589,"longitude":1.725233,"postcodeStart":"NR30 1","postcode":["NR30","1QJ"]}
{"price":20000,"dateOfTransfer":"1995-09-04T00:00:00","postcodeFull":"NR30 1LJ","propertyType":"Terraced","oldOrNew":"Established","duration":"Freehold","paon":"9","saon":"","street":"ST FRANCIS WAY","locality":"GREAT YARMOUTH","townOrCity":"GREAT YARMOUTH","district":"GREAT YARMOUTH","county":"NORFOLK","ppdCategoryType":"Standard","recordStatus":"Addition","latitude":52.608403,"longitude":1.72302,"postcodeStart":"NR30 1","postcode":["NR30","1LJ"]}
{"price":30000,"dateOfTransfer":"1995-08-08T00:00:00","postcodeFull":"NR30 1NH","propertyType":"Terraced","oldOrNew":"Established","duration":"Freehold","paon":"2","saon":"","street":"PRIORY GARDENS","locality":"GREAT YARMOUTH","townOrCity":"GREAT YARMOUTH","district":"GREAT YARMOUTH","county":"NORFOLK","ppdCategoryType":"Standard","recordStatus":"Addition","latitude":52.610621,"longitude":1.728292,"postcodeStart":"NR30 1","postcode":["NR30","1NH"]}
{"price":23000,"dateOfTransfer":"1995-03-24T00:00:00","postcodeFull":"NR30 1BZ","propertyType":"Terraced","oldOrNew":"Established","duration":"Freehold","paon":"12","saon":"","street":"ST NICHOLAS TERRACE","locality":"GREAT YARMOUTH","townOrCity":"GREAT YARMOUTH","district":"GREAT YARMOUTH","county":"NORFOLK","ppdCategoryType":"Standard","recordStatus":"Addition","latitude":52.615767,"longitude":1.728522,"postcodeStart":"NR30 1","postcode":["NR30","1BZ"]}
{"price":25000,"dateOfTransfer":"1995-11-09T00:00:00","postcodeFull":"NR30 1HT","propertyType":"Terraced","oldOrNew":"Established","duration":"Freehold","paon":"11","saon":"FLAT","street":"BROAD ROW","locality":"GREAT YARMOUTH","townOrCity":"GREAT YARMOUTH","district":"GREAT YARMOUTH","county":"NORFOLK","ppdCategoryType":"Standard","recordStatus":"Addition","latitude":52.608086,"longitude":1.723945,"postcodeStart":"NR30 1","postcode":["NR30","1HT"]}
{"price":27000,"dateOfTransfer":"1995-11-28T00:00:00","postcodeFull":"NR30 1NH","propertyType":"Terraced","oldOrNew":"Established","duration":"Freehold","paon":"5","saon":"","street":"PRIORY GARDENS","locality":"GREAT YARMOUTH","townOrCity":"GREAT YARMOUTH","district":"GREAT YARMOUTH","county":"NORFOLK","ppdCategoryType":"Standard","recordStatus":"Addition","latitude":52.610621,"longitude":1.728292,"postcodeStart":"NR30 1","postcode":["NR30","1NH"]}
{"price":20000,"dateOfTransfer":"1995-10-27T00:00:00","postcodeFull":"NR30 1QD","propertyType":"Terraced","oldOrNew":"Established","duration":"Freehold","paon":"155","saon":"","street":"PALGRAVE ROAD","locality":"GREAT YARMOUTH","townOrCity":"GREAT YARMOUTH","district":"GREAT YARMOUTH","county":"NORFOLK","ppdCategoryType":"Standard","recordStatus":"Addition","latitude":52.615573,"longitude":1.726127,"postcodeStart":"NR30 1","postcode":["NR30","1QD"]}
{"price":14000,"dateOfTransfer":"1995-10-18T00:00:00","postcodeFull":"NR30 1EE","propertyType":"Flat/Maisonette/Townhouse","oldOrNew":"Established","duration":"Leasehold","paon":"SANDPIPER COURT, 4","saon":"FLAT 1","street":"NORFOLK SQUARE","locality":"GREAT YARMOUTH","townOrCity":"GREAT YARMOUTH","district":"GREAT YARMOUTH","county":"NORFOLK","ppdCategoryType":"Standard","recordStatus":"Addition","latitude":52.610891,"longitude":1.736264,"postcodeStart":"NR30 1","postcode":["NR30","1EE"]}
{"price":70000,"dateOfTransfer":"1995-03-20T00:00:00","postcodeFull":"NR30 1RR","propertyType":"Terraced","oldOrNew":"Established","duration":"Freehold","paon":"35","saon":"","street":"REGENT STREET","locality":"","townOrCity":"GREAT YARMOUTH","district":"GREAT YARMOUTH","county":"NORFOLK","ppdCategoryType":"Standard","recordStatus":"Addition","latitude":52.606755,"longitude":1.726507,"postcodeStart":"NR30 1","postcode":["NR30","1RR"]}
{"price":25000,"dateOfTransfer":"1995-03-13T00:00:00","postcodeFull":"NR30 1JB","propertyType":"Detached","oldOrNew":"New build","duration":"Freehold","paon":"64","saon":"","street":"NORTH QUAY","locality":"","townOrCity":"GREAT YARMOUTH","district":"GREAT YARMOUTH","county":"NORFOLK","ppdCategoryType":"Standard","recordStatus":"Addition","latitude":52.608148,"longitude":1.722237,"postcodeStart":"NR30 1","postcode":["NR30","1JB"]}
{"price":81998,"dateOfTransfer":"1995-12-15T00:00:00","postcodeFull":"NR30 1EU","propertyType":"Semi-detached","oldOrNew":"Established","duration":"Freehold","paon":"39","saon":"","street":"WELLESLEY ROAD","locality":"","townOrCity":"GREAT YARMOUTH","district":"GREAT YARMOUTH","county":"NORFOLK","ppdCategoryType":"Standard","recordStatus":"Addition","latitude":52.61078,"longitude":1.73465,"postcodeStart":"NR30 1","postcode":["NR30","1EU"]}
{"price":53995,"dateOfTransfer":"1995-05-24T00:00:00","postcodeFull":"NR30 1NN","propertyType":"Semi-detached","oldOrNew":"Established","duration":"Freehold","paon":"84","saon":"","street":"ST NICHOLAS ROAD","locality":"","townOrCity":"GREAT YARMOUTH","district":"GREAT YARMOUTH","county":"NORFOLK","ppdCategoryType":"Standard","recordStatus":"Addition","latitude":52.609591,"longitude":1.730146,"postcodeStart":"NR30 1","postcode":["NR30","1NN"]}
{"price":46500,"dateOfTransfer":"1995-02-21T00:00:00","postcodeFull":"NR30 1BQ","propertyType":"Terraced","oldOrNew":"Established","duration":"Freehold","paon":"1 - 2","saon":"","street":"EDEN PLACE","locality":"GREAT YARMOUTH","townOrCity":"GREAT YARMOUTH","district":"GREAT YARMOUTH","county":"NORFOLK","ppdCategoryType":"Standard","recordStatus":"Addition","latitude":52.612249,"longitude":1.726937,"postcodeStart":"NR30 1","postcode":["NR30","1BQ"]}
{"price":31000,"dateOfTransfer":"1995-11-24T00:00:00","postcodeFull":"NR30 1ES","propertyType":"Terraced","oldOrNew":"Established","duration":"Freehold","paon":"29","saon":"","street":"JURY STREET","locality":"GREAT YARMOUTH","townOrCity":"GREAT YARMOUTH","district":"GREAT YARMOUTH","county":"NORFOLK","ppdCategoryType":"Standard","recordStatus":"Addition","latitude":52.610435,"longitude":1.732472,"postcodeStart":"NR30 1","postcode":["NR30","1ES"]}
{"price":30500,"dateOfTransfer":"1995-06-06T00:00:00","postcodeFull":"NR30 1QF","propertyType":"Terraced","oldOrNew":"Established","duration":"Freehold","paon":"92","saon":"","street":"PALGRAVE ROAD","locality":"GREAT YARMOUTH","townOrCity":"GREAT YARMOUTH","district":"GREAT YARMOUTH","county":"NORFOLK","ppdCategoryType":"Standard","recordStatus":"Addition","latitude":52.616932,"longitude":1.726405,"postcodeStart":"NR30 1","postcode":["NR30","1QF"]}
{"price":26000,"dateOfTransfer":"1995-06-12T00:00:00","postcodeFull":"NR30 1EE","propertyType":"Flat/Maisonette/Townhouse","oldOrNew":"Established","duration":"Leasehold","paon":"SANDPIPER COURT, 4","saon":"FLAT 2","street":"NORFOLK SQUARE","locality":"GREAT YARMOUTH","townOrCity":"GREAT YARMOUTH","district":"GREAT YARMOUTH","county":"NORFOLK","ppdCategoryType":"Standard","recordStatus":"Addition","latitude":52.610891,"longitude":1.736264,"postcodeStart":"NR30 1","postcode":["NR30","1EE"]}
{"price":29000,"dateOfTransfer":"1995-06-15T00:00:00","postcodeFull":"NR30 1DQ","propertyType":"Terraced","oldOrNew":"Established","duration":"Freehold","paon":"12","saon":"","street":"WEST ROAD","locality":"GREAT YARMOUTH","townOrCity":"GREAT YARMOUTH","district":"GREAT YARMOUTH","county":"NORFOLK","ppdCategoryType":"Standard","recordStatus":"Addition","latitude":52.61334,"longitude":1.728774,"postcodeStart":"NR30 1","postcode":["NR30","1DQ"]}
{"price":35000,"dateOfTransfer":"1995-01-20T00:00:00","postcodeFull":"NR30 1QF","propertyType":"Terraced","oldOrNew":"Established","duration":"Freehold","paon":"81","saon":"","street":"PALGRAVE ROAD","locality":"GREAT YARMOUTH","townOrCity":"GREAT YARMOUTH","district":"GREAT YARMOUTH","county":"NORFOLK","ppdCategoryType":"Standard","recordStatus":"Addition","latitude":52.616932,"longitude":1.726405,"postcodeStart":"NR30 1","postcode":["NR30","1QF"]}
{"price":18000,"dateOfTransfer":"1995-06-30T00:00:00","postcodeFull":"NR30 1ES","propertyType":"Terraced","oldOrNew":"Established","duration":"Freehold","paon":"21","saon":"","street":"JURY STREET","locality":"GREAT YARMOUTH","townOrCity":"GREAT YARMOUTH","district":"GREAT YARMOUTH","county":"NORFOLK","ppdCategoryType":"Standard","recordStatus":"Addition","latitude":52.610435,"longitude":1.732472,"postcodeStart":"NR30 1","postcode":["NR30","1ES"]}
{"price":24000,"dateOfTransfer":"1995-07-17T00:00:00","postcodeFull":"NR30 1DW","propertyType":"Terraced","oldOrNew":"Established","duration":"Freehold","paon":"61","saon":"","street":"EAST ROAD","locality":"GREAT YARMOUTH","townOrCity":"GREAT YARMOUTH","district":"GREAT YARMOUTH","county":"NORFOLK","ppdCategoryType":"Standard","recordStatus":"Addition","latitude":52.612381,"longitude":1.729801,"postcodeStart":"NR30 1","postcode":["NR30","1DW"]}
{"price":93000,"dateOfTransfer":"1995-09-20T00:00:00","postcodeFull":"NR30 1EX","propertyType":"Semi-detached","oldOrNew":"Established","duration":"Freehold","paon":"54","saon":"","street":"WELLESLEY ROAD","locality":"GREAT YARMOUTH","townOrCity":"GREAT YARMOUTH","district":"GREAT YARMOUTH","county":"NORFOLK","ppdCategoryType":"Standard","recordStatus":"Addition","latitude":52.612389,"longitude":1.73469,"postcodeStart":"NR30 1","postcode":["NR30","1EX"]}
{"price":35000,"dateOfTransfer":"1995-03-24T00:00:00","postcodeFull":"NR30 1QJ","propertyType":"Terraced","oldOrNew":"Established","duration":"Freehold","paon":"50","saon":"","street":"ALDERSON ROAD","locality":"GREAT YARMOUTH","townOrCity":"GREAT YARMOUTH","district":"GREAT YARMOUTH","county":"NORFOLK","ppdCategoryType":"Standard","recordStatus":"Addition","latitude":52.615589,"longitude":1.725233,"postcodeStart":"NR30 1","postcode":["NR30","1QJ"]}
{"price":16000,"dateOfTransfer":"1995-01-06T00:00:00","postcodeFull":"NR30 1LF","propertyType":"Semi-detached","oldOrNew":"Established","duration":"Freehold","paon":"4","saon":"","street":"CORONATION TERRACE","locality":"GREAT YARMOUTH","townOrCity":"GREAT YARMOUTH","district":"GREAT YARMOUTH","county":"NORFOLK","ppdCategoryType":"Standard","recordStatus":"Addition","latitude":52.6091,"longitude":1.722873,"postcodeStart":"NR30 1","postcode":["NR30","1LF"]}
{"price":20500,"dateOfTransfer":"1995-11-22T00:00:00","postcodeFull":"NR30 1JY","propertyType":"Terraced","oldOrNew":"Established","duration":"Freehold","paon":"4","saon":"","street":"NORTH RIVER ROAD","locality":"GREAT YARMOUTH","townOrCity":"GREAT YARMOUTH","district":"GREAT YARMOUTH","county":"NORFOLK","ppdCategoryType":"Standard","recordStatus":"Addition","latitude":52.613484,"longitude":1.723053,"postcodeStart":"NR30 1","postcode":["NR30","1JY"]}
{"price":11000,"dateOfTransfer":"1995-01-13T00:00:00","postcodeFull":"NR30 1LF","propertyType":"Terraced","oldOrNew":"Established","duration":"Freehold","paon":"12","saon":"","street":"CORONATION TERRACE","locality":"GREAT YARMOUTH","townOrCity":"GREAT YARMOUTH","district":"GREAT YARMOUTH","county":"NORFOLK","ppdCategoryType":"Standard","recordStatus":"Addition","latitude":52.6091,"longitude":1.722873,"postcodeStart":"NR30 1","postcode":["NR30","1LF"]}
{"price":16000,"dateOfTransfer":"1995-06-30T00:00:00","postcodeFull":"NR30 1JY","propertyType":"Terraced","oldOrNew":"Established","duration":"Freehold","paon":"3","saon":"","street":"NORTH RIVER ROAD","locality":"GREAT YARMOUTH","townOrCity":"GREAT YARMOUTH","district":"GREAT YARMOUTH","county":"NORFOLK","ppdCategoryType":"Standard","recordStatus":"Addition","latitude":52.613484,"longitude":1.723053,"postcodeStart":"NR30 1","postcode":["NR30","1JY"]}
{"price":19000,"dateOfTransfer":"1995-05-15T00:00:00","postcodeFull":"NR30 1DG","propertyType":"Terraced","oldOrNew":"Established","duration":"Freehold","paon":"20","saon":"","street":"MAYGROVE ROAD","locality":"GREAT YARMOUTH","townOrCity":"GREAT YARMOUTH","district":"GREAT YARMOUTH","county":"NORFOLK","ppdCategoryType":"Standard","recordStatus":"Addition","latitude":52.613394,"longitude":1.729332,"postcodeStart":"NR30 1","postcode":["NR30","1DG"]}
{"price":39000,"dateOfTransfer":"1996-08-30T00:00:00","postcodeFull":"NR30 1QA","propertyType":"Terraced","oldOrNew":"Established","duration":"Freehold","paon":"206","saon":"","street":"PALGRAVE ROAD","locality":"GREAT YARMOUTH","townOrCity":"GREAT YARMOUTH","district":"GREAT YARMOUTH","county":"NORFOLK","ppdCategoryType":"Standard","recordStatus":"Addition","latitude":52.61441,"longitude":1.72622,"postcodeStart":"NR30 1","postcode":["NR30","1QA"]}
{"price":17000,"dateOfTransfer":"1996-02-21T00:00:00","postcodeFull":"NR30 1DQ","propertyType":"Terraced","oldOrNew":"Established","duration":"Freehold","paon":"1","saon":"","street":"WEST ROAD","locality":"GREAT YARMOUTH","townOrCity":"GREAT YARMOUTH","district":"GREAT YARMOUTH","county":"NORFOLK","ppdCategoryType":"Standard","recordStatus":"Addition","latitude":52.61334,"longitude":1.728774,"postcodeStart":"NR30 1","postcode":["NR30","1DQ"]}
{"price":37000,"dateOfTransfer":"1996-11-29T00:00:00","postcodeFull":"NR30 1QD","propertyType":"Terraced","oldOrNew":"Established","duration":"Freehold","paon":"50","saon":"","street":"PALGRAVE ROAD","locality":"GREAT YARMOUTH","townOrCity":"GREAT YARMOUTH","district":"GREAT YARMOUTH","county":"NORFOLK","ppdCategoryType":"Standard","recordStatus":"Addition","latitude":52.615573,"longitude":1.726127,"postcodeStart":"NR30 1","postcode":["NR30","1QD"]}
{"price":70500,"dateOfTransfer":"1996-05-10T00:00:00","postcodeFull":"NR30 1QT","propertyType":"Detached","oldOrNew":"Established","duration":"Leasehold","paon":"2","saon":"","street":"YARE CLOSE","locality":"GREAT YARMOUTH","townOrCity":"GREAT YARMOUTH","district":"GREAT YARMOUTH","county":"NORFOLK","ppdCategoryType":"Standard","recordStatus":"Addition","latitude":52.616475,"longitude":1.723189,"postcodeStart":"NR30 1","postcode":["NR30","1QT"]}
{"price":39000,"dateOfTransfer":"1996-07-01T00:00:00","postcodeFull":"NR30 1QA","propertyType":"Terraced","oldOrNew":"Established","duration":"Freehold","paon":"186","saon":"","street":"PALGRAVE ROAD","locality":"GREAT YARMOUTH","townOrCity":"GREAT YARMOUTH","district":"GREAT YARMOUTH","county":"NORFOLK","ppdCategoryType":"Standard","recordStatus":"Addition","latitude":52.61441,"longitude":1.72622,"postcodeStart":"NR30 1","postcode":["NR30","1QA"]}
{"price":55000,"dateOfTransfer":"1996-07-03T00:00:00","postcodeFull":"NR30 1BJ","propertyType":"Terraced","oldOrNew":"Established","duration":"Freehold","paon":"44 - 46","saon":"","street":"NORTHGATE STREET","locality":"","townOrCity":"GREAT YARMOUTH","district":"GREAT YARMOUTH","county":"NORFOLK","ppdCategoryType":"Standard","recordStatus":"Addition","latitude":52.614117,"longitude":1.726955,"postcodeStart":"NR30 1","postcode":["NR30","1BJ"]}
{"price":117000,"dateOfTransfer":"1996-02-01T00:00:00","postcodeFull":"NR30 1ED","propertyType":"Semi-detached","oldOrNew":"Established","duration":"Leasehold","paon":"1","saon":"","street":"NORTH DRIVE","locality":"","townOrCity":"GREAT YARMOUTH","district":"GREAT YARMOUTH","county":"NORFOLK","ppdCategoryType":"Standard","recordStatus":"Addition","latitude":52.610931,"longitude":1.737279,"postcodeStart":"NR30 1","postcode":["NR30","1ED"]}
{"price":38000,"dateOfTransfer":"1996-08-23T00:00:00","postcodeFull":"NR30 1PB","propertyType":"Terraced","oldOrNew":"Established","duration":"Freehold","paon":"31","saon":"","street":"MARKET ROW","locality":"","townOrCity":"GREAT YARMOUTH","district":"GREAT YARMOUTH","county":"NORFOLK","ppdCategoryType":"Standard","recordStatus":"Addition","latitude":52.608092,"longitude":1.725563,"postcodeStart":"NR30 1","postcode":["NR30","1PB"]}
{"price":19000,"dateOfTransfer":"1996-01-26T00:00:00","postcodeFull":"NR30 1NG","propertyType":"Flat/Maisonette/Townhouse","oldOrNew":"Established","duration":"Leasehold","paon":"2","saon":"","street":"PRIORY MEWS","locality":"GREAT YARMOUTH","townOrCity":"GREAT YARMOUTH","district":"GREAT YARMOUTH","county":"NORFOLK","ppdCategoryType":"Standard","recordStatus":"Addition","latitude":52.610448,"longitude":1.727774,"postcodeStart":"NR30 1","postcode":["NR30","1NG"]}
{"price":28250,"dateOfTransfer":"1996-09-27T00:00:00","postcodeFull":"NR30 1EP","propertyType":"Terraced","oldOrNew":"Established","duration":"Freehold","paon":"42","saon":"","street":"TOTTENHAM STREET","locality":"GREAT YARMOUTH","townOrCity":"GREAT YARMOUTH","district":"GREAT YARMOUTH","county":"NORFOLK","ppdCategoryType":"Standard","recordStatus":"Addition","latitude":52.611378,"longitude":1.732523,"postcodeStart":"NR30 1","postcode":["NR30","1EP"]}
{"price":27000,"dateOfTransfer":"1996-11-15T00:00:00","postcodeFull":"NR30 1DG","propertyType":"Terraced","oldOrNew":"Established","duration":"Freehold","paon":"20","saon":"","street":"MAYGROVE ROAD","locality":"GREAT YARMOUTH","townOrCity":"GREAT YARMOUTH","district":"GREAT YARMOUTH","county":"NORFOLK","ppdCategoryType":"Standard","recordStatus":"Addition","latitude":52.613394,"longitude":1.729332,"postcodeStart":"NR30 1","postcode":["NR30","1DG"]}
{"price":79995,"dateOfTransfer":"1996-08-02T00:00:00","postcodeFull":"NR30 1EX","propertyType":"Semi-detached","oldOrNew":"Established","duration":"Leasehold","paon":"49","saon":"","street":"WELLESLEY ROAD","locality":"","townOrCity":"GREAT YARMOUTH","district":"GREAT YARMOUTH","county":"NORFOLK","ppdCategoryType":"Standard","recordStatus":"Addition","latitude":52.612389,"longitude":1.73469,"postcodeStart":"NR30 1","postcode":["NR30","1EX"]}
{"price":25000,"dateOfTransfer":"1996-12-02T00:00:00","postcodeFull":"NR30 1QQ","propertyType":"Terraced","oldOrNew":"Established","duration":"Freehold","paon":"91","saon":"","street":"ALDERSON ROAD","locality":"GREAT YARMOUTH","townOrCity":"GREAT YARMOUTH","district":"GREAT YARMOUTH","county":"NORFOLK","ppdCategoryType":"Standard","recordStatus":"Addition","latitude":52.617347,"longitude":1.72579,"postcodeStart":"NR30 1","postcode":["NR30","1QQ"]}
{"price":60000,"dateOfTransfer":"1996-11-13T00:00:00","postcodeFull":"NR30 1BB","propertyType":"Terraced","oldOrNew":"Established","duration":"Freehold","paon":"THE CRYSTAL RESTAURANT, 1","saon":"","street":"NORTHGATE STREET","locality":"","townOrCity":"GREAT YARMOUTH","district":"GREAT YARMOUTH","county":"NORFOLK","ppdCategoryType":"Standard","recordStatus":"Addition","latitude":52.611289,"longitude":1.72563,"postcodeStart":"NR30 1","postcode":["NR30","1BB"]}
{"price":20000,"dateOfTransfer":"1996-03-01T00:00:00","postcodeFull":"NR30 1NG","propertyType":"Flat/Maisonette/Townhouse","oldOrNew":"Established","duration":"Leasehold","paon":"4","saon":"","street":"PRIORY MEWS","locality":"GREAT YARMOUTH","townOrCity":"GREAT YARMOUTH","district":"GREAT YARMOUTH","county":"NORFOLK","ppdCategoryType":"Standard","recordStatus":"Addition","latitude":52.610448,"longitude":1.727774,"postcodeStart":"NR30 1","postcode":["NR30","1NG"]}
{"price":19950,"dateOfTransfer":"1996-08-18T00:00:00","postcodeFull":"NR30 1DS","propertyType":"Flat/Maisonette/Townhouse","oldOrNew":"Established","duration":"Leasehold","paon":"7","saon":"","street":"TOWN WALL MEWS","locality":"GREAT YARMOUTH","townOrCity":"GREAT YARMOUTH","district":"GREAT YARMOUTH","county":"NORFOLK","ppdCategoryType":"Standard","recordStatus":"Addition","latitude":52.612522,"longitude":1.727035,"postcodeStart":"NR30 1","postcode":["NR30","1DS"]}
{"price":25000,"dateOfTransfer":"1996-10-25T00:00:00","postcodeFull":"NR30 1BP","propertyType":"Terraced","oldOrNew":"Established","duration":"Freehold","paon":"108","saon":"","street":"NORTHGATE STREET","locality":"GREAT YARMOUTH","townOrCity":"GREAT YARMOUTH","district":"GREAT YARMOUTH","county":"NORFOLK","ppdCategoryType":"Standard","recordStatus":"Addition","latitude":52.617117,"longitude":1.727943,"postcodeStart":"NR30 1","postcode":["NR30","1BP"]}
{"price":32000,"dateOfTransfer":"1996-08-09T00:00:00","postcodeFull":"NR30 1QJ","propertyType":"Terraced","oldOrNew":"Established","duration":"Freehold","paon":"165","saon":"","street":"ALDERSON ROAD","locality":"GREAT YARMOUTH","townOrCity":"GREAT YARMOUTH","district":"GREAT YARMOUTH","county":"NORFOLK","ppdCategoryType":"Standard","recordStatus":"Addition","latitude":52.615589,"longitude":1.725233,"postcodeStart":"NR30 1","postcode":["NR30","1QJ"]}
{"price":140000,"dateOfTransfer":"1996-11-18T00:00:00","postcodeFull":"NR30 1DY","propertyType":"Detached","oldOrNew":"Established","duration":"Freehold","paon":"14","saon":"","street":"EUSTON ROAD","locality":"GREAT YARMOUTH","townOrCity":"GREAT YARMOUTH","district":"GREAT YARMOUTH","county":"NORFOLK","ppdCategoryType":"Standard","recordStatus":"Addition","latitude":52.60966,"longitude":1.735657,"postcodeStart":"NR30 1","postcode":["NR30","1DY"]}
{"price":37000,"dateOfTransfer":"1996-06-18T00:00:00","postcodeFull":"NR30 1EX","propertyType":"Semi-detached","oldOrNew":"Established","duration":"Leasehold","paon":"46","saon":"FLAT 6","street":"WELLESLEY ROAD","locality":"GREAT YARMOUTH","townOrCity":"GREAT YARMOUTH","district":"GREAT YARMOUTH","county":"NORFOLK","ppdCategoryType":"Standard","recordStatus":"Addition","latitude":52.612389,"longitude":1.73469,"postcodeStart":"NR30 1","postcode":["NR30","1EX"]}
{"price":90000,"dateOfTransfer":"1996-10-18T00:00:00","postcodeFull":"NR30 1EE","propertyType":"Terraced","oldOrNew":"Established","duration":"Freehold","paon":"3","saon":"","street":"NORFOLK SQUARE","locality":"","townOrCity":"GREAT YARMOUTH","district":"GREAT YARMOUTH","county":"NORFOLK","ppdCategoryType":"Standard","recordStatus":"Addition","latitude":52.610891,"longitude":1.736264,"postcodeStart":"NR30 1","postcode":["NR30","1EE"]}
{"price":15000,"dateOfTransfer":"1996-06-25T00:00:00","postcodeFull":"NR30 1BY","propertyType":"Terraced","oldOrNew":"Established","duration":"Freehold","paon":"153","saon":"","street":"NORTHGATE STREET","locality":"GREAT YARMOUTH","townOrCity":"GREAT YARMOUTH","district":"GREAT YARMOUTH","county":"NORFOLK","ppdCategoryType":"Standard","recordStatus":"Addition","latitude":52.615991,"longitude":1.728009,"postcodeStart":"NR30 1","postcode":["NR30","1BY"]}
{"price":30500,"dateOfTransfer":"1996-07-01T00:00:00","postcodeFull":"NR30 1ES","propertyType":"Terraced","oldOrNew":"Established","duration":"Freehold","paon":"5","saon":"","street":"JURY STREET","locality":"GREAT YARMOUTH","townOrCity":"GREAT YARMOUTH","district":"GREAT YARMOUTH","county":"NORFOLK","ppdCategoryType":"Standard","recordStatus":"Addition","latitude":52.610435,"longitude":1.732472,"postcodeStart":"NR30 1","postcode":["NR30","1ES"]}
{"price":29500,"dateOfTransfer":"1996-05-31T00:00:00","postcodeFull":"NR30 1DP","propertyType":"Terraced","oldOrNew":"Established","duration":"Freehold","paon":"30","saon":"","street":"EAST ROAD","locality":"GREAT YARMOUTH","townOrCity":"GREAT YARMOUTH","district":"GREAT YARMOUTH","county":"NORFOLK","ppdCategoryType":"Standard","recordStatus":"Addition","latitude":52.613383,"longitude":1.729694,"postcodeStart":"NR30 1","postcode":["NR30","1DP"]}
{"price":35250,"dateOfTransfer":"1996-07-19T00:00:00","postcodeFull":"NR30 1QQ","propertyType":"Terraced","oldOrNew":"Established","duration":"Freehold","paon":"62","saon":"","street":"ALDERSON ROAD","locality":"GREAT YARMOUTH","townOrCity":"GREAT YARMOUTH","district":"GREAT YARMOUTH","county":"NORFOLK","ppdCategoryType":"Standard","recordStatus":"Addition","latitude":52.617347,"longitude":1.72579,"postcodeStart":"NR30 1","postcode":["NR30","1QQ"]}
{"price":38000,"dateOfTransfer":"1996-09-27T00:00:00","postcodeFull":"NR30 1QJ","propertyType":"Terraced","oldOrNew":"Established","duration":"Freehold","paon":"26","saon":"","street":"ALDERSON ROAD","locality":"GREAT YARMOUTH","townOrCity":"GREAT YARMOUTH","district":"GREAT YARMOUTH","county":"NORFOLK","ppdCategoryType":"Standard","recordStatus":"Addition","latitude":52.615589,"longitude":1.725233,"postcodeStart":"NR30 1","postcode":["NR30","1QJ"]}
{"price":22500,"dateOfTransfer":"1996-03-26T00:00:00","postcodeFull":"NR30 1LA","propertyType":"Terraced","oldOrNew":"Established","duration":"Freehold","paon":"13A","saon":"","street":"SCHOOL ROAD","locality":"GREAT YARMOUTH","townOrCity":"GREAT YARMOUTH","district":"GREAT YARMOUTH","county":"NORFOLK","ppdCategoryType":"Standard","recordStatus":"Addition","latitude":52.613699,"longitude":1.722214,"postcodeStart":"NR30 1","postcode":["NR30","1LA"]}
{"price":35000,"dateOfTransfer":"1996-06-21T00:00:00","postcodeFull":"NR30 1HT","propertyType":"Terraced","oldOrNew":"Established","duration":"Freehold","paon":"30C","saon":"","street":"BROAD ROW","locality":"GREAT YARMOUTH","townOrCity":"GREAT YARMOUTH","district":"GREAT YARMOUTH","county":"NORFOLK","ppdCategoryType":"Standard","recordStatus":"Addition","latitude":52.608086,"longitude":1.723945,"postcodeStart":"NR30 1","postcode":["NR30","1HT"]}
{"price":27000,"dateOfTransfer":"1996-05-31T00:00:00","postcodeFull":"NR30 1EW","propertyType":"Terraced","oldOrNew":"Established","duration":"Freehold","paon":"40","saon":"","street":"AUDLEY STREET","locality":"GREAT YARMOUTH","townOrCity":"GREAT YARMOUTH","district":"GREAT YARMOUTH","county":"NORFOLK","ppdCategoryType":"Standard","recordStatus":"Addition","latitude":52.61182,"longitude":1.732487,"postcodeStart":"NR30 1","postcode":["NR30","1EW"]}
{"price":20000,"dateOfTransfer":"1996-02-23T00:00:00","postcodeFull":"NR30 1NG","propertyType":"Flat/Maisonette/Townhouse","oldOrNew":"Established","duration":"Leasehold","paon":"1","saon":"","street":"PRIORY MEWS","locality":"GREAT YARMOUTH","townOrCity":"GREAT YARMOUTH","district":"GREAT YARMOUTH","county":"NORFOLK","ppdCategoryType":"Standard","recordStatus":"Addition","latitude":52.610448,"longitude":1.727774,"postcodeStart":"NR30 1","postcode":["NR30","1NG"]}
{"price":35000,"dateOfTransfer":"1996-05-03T00:00:00","postcodeFull":"NR30 1QN","propertyType":"Terraced","oldOrNew":"Established","duration":"Freehold","paon":"10","saon":"","street":"LAWN AVENUE","locality":"GREAT YARMOUTH","townOrCity":"GREAT YARMOUTH","district":"GREAT YARMOUTH","county":"NORFOLK","ppdCategoryType":"Standard","recordStatus":"Addition","latitude":52.61684,"longitude":1.724756,"postcodeStart":"NR30 1","postcode":["NR30","1QN"]}
{"price":39500,"dateOfTransfer":"1996-08-16T00:00:00","postcodeFull":"NR30 1PY","propertyType":"Terraced","oldOrNew":"Established","duration":"Freehold","paon":"211","saon":"","street":"PALGRAVE ROAD","locality":"GREAT YARMOUTH","townOrCity":"GREAT YARMOUTH","district":"GREAT YARMOUTH","county":"NORFOLK","ppdCategoryType":"Standard","recordStatus":"Addition","latitude":52.613233,"longitude":1.725898,"postcodeStart":"NR30 1","postcode":["NR30","1PY"]}
{"price":27500,"dateOfTransfer":"1996-07-23T00:00:00","postcodeFull":"NR30 1DQ","propertyType":"Terraced","oldOrNew":"Established","duration":"Freehold","paon":"8","saon":"","street":"WEST ROAD","locality":"GREAT YARMOUTH","townOrCity":"GREAT YARMOUTH","district":"GREAT YARMOUTH","county":"NORFOLK","ppdCategoryType":"Standard","recordStatus":"Addition","latitude":52.61334,"longitude":1.728774,"postcodeStart":"NR30 1","postcode":["NR30","1DQ"]}
{"price":32750,"dateOfTransfer":"1996-10-21T00:00:00","postcodeFull":"NR30 1QE","propertyType":"Terraced","oldOrNew":"Established","duration":"Freehold","paon":"133","saon":"","street":"PALGRAVE ROAD","locality":"GREAT YARMOUTH","townOrCity":"GREAT YARMOUTH","district":"GREAT YARMOUTH","county":"NORFOLK","ppdCategoryType":"Standard","recordStatus":"Addition","latitude":52.617031,"longitude":1.726975,"postcodeStart":"NR30 1","postcode":["NR30","1QE"]}
{"price":80000,"dateOfTransfer":"1996-09-09T00:00:00","postcodeFull":"NR30 1EY","propertyType":"Terraced","oldOrNew":"Established","duration":"Leasehold","paon":"5","saon":"","street":"SANDOWN ROAD","locality":"GREAT YARMOUTH","townOrCity":"GREAT YARMOUTH","district":"GREAT YARMOUTH","county":"NORFOLK","ppdCategoryType":"Standard","recordStatus":"Addition","latitude":52.613709,"longitude":1.735609,"postcodeStart":"NR30 1","postcode":["NR30","1EY"]}
{"price":24000,"dateOfTransfer":"1996-11-12T00:00:00","postcodeFull":"NR30 1QL","propertyType":"Terraced","oldOrNew":"Established","duration":"Freehold","paon":"22","saon":"","street":"ALDERSON ROAD","locality":"GREAT YARMOUTH","townOrCity":"GREAT YARMOUTH","district":"GREAT YARMOUTH","county":"NORFOLK","ppdCategoryType":"Standard","recordStatus":"Addition","latitude":52.61452,"longitude":1.725305,"postcodeStart":"NR30 1","postcode":["NR30","1QL"]}
{"price":33000,"dateOfTransfer":"1996-11-01T00:00:00","postcodeFull":"NR30 1DJ","propertyType":"Terraced","oldOrNew":"Established","duration":"Freehold","paon":"21","saon":"","street":"TOWN WALL ROAD","locality":"GREAT YARMOUTH","townOrCity":"GREAT YARMOUTH","district":"GREAT YARMOUTH","county":"NORFOLK","ppdCategoryType":"Standard","recordStatus":"Addition","latitude":52.612976,"longitude":1.728625,"postcodeStart":"NR30 1","postcode":["NR30","1DJ"]}
{"price":20000,"dateOfTransfer":"1996-10-18T00:00:00","postcodeFull":"NR30 1PZ","propertyType":"Terraced","oldOrNew":"Established","duration":"Freehold","paon":"11","saon":"","street":"GARRISON ROAD","locality":"GREAT YARMOUTH","townOrCity":"GREAT YARMOUTH","district":"GREAT YARMOUTH","county":"NORFOLK","ppdCategoryType":"Standard","recordStatus":"Addition","latitude":52.613709,"longitude":1.725614,"postcodeStart":"NR30 1","postcode":["NR30","1PZ"]}
{"price":37000,"dateOfTransfer":"1996-06-28T00:00:00","postcodeFull":"NR30 1QJ","propertyType":"Terraced","oldOrNew":"Established","duration":"Freehold","paon":"149","saon":"","street":"ALDERSON ROAD","locality":"GREAT YARMOUTH","townOrCity":"GREAT YARMOUTH","district":"GREAT YARMOUTH","county":"NORFOLK","ppdCategoryType":"Standard","recordStatus":"Addition","latitude":52.615589,"longitude":1.725233,"postcodeStart":"NR30 1","postcode":["NR30","1QJ"]}
{"price":31000,"dateOfTransfer":"1996-10-31T00:00:00","postcodeFull":"NR30 1LF","propertyType":"Terraced","oldOrNew":"Established","duration":"Freehold","paon":"19","saon":"","street":"CORONATION TERRACE","locality":"GREAT YARMOUTH","townOrCity":"GREAT YARMOUTH","district":"GREAT YARMOUTH","county":"NORFOLK","ppdCategoryType":"Standard","recordStatus":"Addition","latitude":52.6091,"longitude":1.722873,"postcodeStart":"NR30 1","postcode":["NR30","1LF"]}
{"price":34000,"dateOfTransfer":"1996-08-16T00:00:00","postcodeFull":"NR30 1QD","propertyType":"Terraced","oldOrNew":"Established","duration":"Freehold","paon":"48","saon":"","street":"PALGRAVE ROAD","locality":"GREAT YARMOUTH","townOrCity":"GREAT YARMOUTH","district":"GREAT YARMOUTH","county":"NORFOLK","ppdCategoryType":"Standard","recordStatus":"Addition","latitude":52.615573,"longitude":1.726127,"postcodeStart":"NR30 1","postcode":["NR30","1QD"]}
{"price":15500,"dateOfTransfer":"1996-05-03T00:00:00","postcodeFull":"NR30 1BT","propertyType":"Terraced","oldOrNew":"Established","duration":"Freehold","paon":"1","saon":"","street":"COBDEN TERRACE","locality":"GREAT YARMOUTH","townOrCity":"GREAT YARMOUTH","district":"GREAT YARMOUTH","county":"NORFOLK","ppdCategoryType":"Standard","recordStatus":"Addition","latitude":52.617054,"longitude":1.727367,"postcodeStart":"NR30 1","postcode":["NR30","1BT"]}
{"price":20000,"dateOfTransfer":"1996-08-09T00:00:00","postcodeFull":"NR30 1ER","propertyType":"Terraced","oldOrNew":"Established","duration":"Freehold","paon":"10","saon":"","street":"WELL STREET","locality":"GREAT YARMOUTH","townOrCity":"GREAT YARMOUTH","district":"GREAT YARMOUTH","county":"NORFOLK","ppdCategoryType":"Standard","recordStatus":"Addition","latitude":52.610992,"longitude":1.73249,"postcodeStart":"NR30 1","postcode":["NR30","1ER"]}
{"price":30000,"dateOfTransfer":"1996-03-29T00:00:00","postcodeFull":"NR30 1QE","propertyType":"Terraced","oldOrNew":"Established","duration":"Freehold","paon":"144","saon":"","street":"PALGRAVE ROAD","locality":"GREAT YARMOUTH","townOrCity":"GREAT YARMOUTH","district":"GREAT YARMOUTH","county":"NORFOLK","ppdCategoryType":"Standard","recordStatus":"Addition","latitude":52.617031,"longitude":1.726975,"postcodeStart":"NR30 1","postcode":["NR30","1QE"]}
{"price":31000,"dateOfTransfer":"1996-04-26T00:00:00","postcodeFull":"NR30 1JY","propertyType":"Terraced","oldOrNew":"Established","duration":"Freehold","paon":"17","saon":"","street":"NORTH RIVER ROAD","locality":"GREAT YARMOUTH","townOrCity":"GREAT YARMOUTH","district":"GREAT YARMOUTH","county":"NORFOLK","ppdCategoryType":"Standard","recordStatus":"Addition","latitude":52.613484,"longitude":1.723053,"postcodeStart":"NR30 1","postcode":["NR30","1JY"]}
{"price":14050,"dateOfTransfer":"1996-08-28T00:00:00","postcodeFull":"NR30 1BZ","propertyType":"Terraced","oldOrNew":"Established","duration":"Freehold","paon":"5","saon":"","street":"ST NICHOLAS TERRACE","locality":"GREAT YARMOUTH","townOrCity":"GREAT YARMOUTH","district":"GREAT YARMOUTH","county":"NORFOLK","ppdCategoryType":"Standard","recordStatus":"Addition","latitude":52.615767,"longitude":1.728522,"postcodeStart":"NR30 1","postcode":["NR30","1BZ"]}
{"price":34000,"dateOfTransfer":"1996-10-28T00:00:00","postcodeFull":"NR30 1QL","propertyType":"Terraced","oldOrNew":"Established","duration":"Freehold","paon":"7","saon":"","street":"ALDERSON ROAD","locality":"GREAT YARMOUTH","townOrCity":"GREAT YARMOUTH","district":"GREAT YARMOUTH","county":"NORFOLK","ppdCategoryType":"Standard","recordStatus":"Addition","latitude":52.61452,"longitude":1.725305,"postcodeStart":"NR30 1","postcode":["NR30","1QL"]}
{"price":34000,"dateOfTransfer":"1996-10-25T00:00:00","postcodeFull":"NR30 1DE","propertyType":"Terraced","oldOrNew":"Established","duration":"Freehold","paon":"19","saon":"","street":"FREDERICK ROAD","locality":"GREAT YARMOUTH","townOrCity":"GREAT YARMOUTH","district":"GREAT YARMOUTH","county":"NORFOLK","ppdCategoryType":"Standard","recordStatus":"Addition","latitude":52.613733,"longitude":1.727995,"postcodeStart":"NR30 1","postcode":["NR30","1DE"]}
{"price":28000,"dateOfTransfer":"1996-02-16T00:00:00","postcodeFull":"NR30 1QA","propertyType":"Terraced","oldOrNew":"Established","duration":"Freehold","paon":"182","saon":"","street":"PALGRAVE ROAD","locality":"GREAT YARMOUTH","townOrCity":"GREAT YARMOUTH","district":"GREAT YARMOUTH","county":"NORFOLK","ppdCategoryType":"Standard","recordStatus":"Addition","latitude":52.61441,"longitude":1.72622,"postcodeStart":"NR30 1","postcode":["NR30","1QA"]}
{"price":20000,"dateOfTransfer":"1996-02-21T00:00:00","postcodeFull":"NR30 1EP","propertyType":"Terraced","oldOrNew":"Established","duration":"Freehold","paon":"2","saon":"","street":"TOTTENHAM STREET","locality":"GREAT YARMOUTH","townOrCity":"GREAT YARMOUTH","district":"GREAT YARMOUTH","county":"NORFOLK","ppdCategoryType":"Standard","recordStatus":"Addition","latitude":52.611378,"longitude":1.732523,"postcodeStart":"NR30 1","postcode":["NR30","1EP"]}
{"price":15000,"dateOfTransfer":"1996-07-26T00:00:00","postcodeFull":"NR30 1BP","propertyType":"Terraced","oldOrNew":"Established","duration":"Freehold","paon":"104","saon":"","street":"NORTHGATE STREET","locality":"GREAT YARMOUTH","townOrCity":"GREAT YARMOUTH","district":"GREAT YARMOUTH","county":"NORFOLK","ppdCategoryType":"Standard","recordStatus":"Addition","latitude":52.617117,"longitude":1.727943,"postcodeStart":"NR30 1","postcode":["NR30","1BP"]}
{"price":34500,"dateOfTransfer":"1996-08-02T00:00:00","postcodeFull":"NR30 1QJ","propertyType":"Terraced","oldOrNew":"Established","duration":"Freehold","paon":"161","saon":"","street":"ALDERSON ROAD","locality":"GREAT YARMOUTH","townOrCity":"GREAT YARMOUTH","district":"GREAT YARMOUTH","county":"NORFOLK","ppdCategoryType":"Standard","recordStatus":"Addition","latitude":52.615589,"longitude":1.725233,"postcodeStart":"NR30 1","postcode":["NR30","1QJ"]}
{"price":22000,"dateOfTransfer":"1996-07-31T00:00:00","postcodeFull":"NR30 1DP","propertyType":"Terraced","oldOrNew":"Established","duration":"Freehold","paon":"7","saon":"","street":"EAST ROAD","locality":"GREAT YARMOUTH","townOrCity":"GREAT YARMOUTH","district":"GREAT YARMOUTH","county":"NORFOLK","ppdCategoryType":"Standard","recordStatus":"Addition","latitude":52.613383,"longitude":1.729694,"postcodeStart":"NR30 1","postcode":["NR30","1DP"]}
{"price":36500,"dateOfTransfer":"1996-12-20T00:00:00","postcodeFull":"NR30 1QL","propertyType":"Terraced","oldOrNew":"Established","duration":"Freehold","paon":"14","saon":"","street":"ALDERSON ROAD","locality":"GREAT YARMOUTH","townOrCity":"GREAT YARMOUTH","district":"GREAT YARMOUTH","county":"NORFOLK","ppdCategoryType":"Standard","recordStatus":"Addition","latitude":52.61452,"longitude":1.725305,"postcodeStart":"NR30 1","postcode":["NR30","1QL"]}
{"price":34000,"dateOfTransfer":"1996-02-23T00:00:00","postcodeFull":"NR30 1QA","propertyType":"Terraced","oldOrNew":"Established","duration":"Freehold","paon":"199","saon":"","street":"PALGRAVE ROAD","locality":"GREAT YARMOUTH","townOrCity":"GREAT YARMOUTH","district":"GREAT YARMOUTH","county":"NORFOLK","ppdCategoryType":"Standard","recordStatus":"Addition","latitude":52.61441,"longitude":1.72622,"postcodeStart":"NR30 1","postcode":["NR30","1QA"]}
{"price":23000,"dateOfTransfer":"1996-02-27T00:00:00","postcodeFull":"NR30 1QJ","propertyType":"Terraced","oldOrNew":"Established","duration":"Freehold","paon":"48","saon":"","street":"ALDERSON ROAD","locality":"GREAT YARMOUTH","townOrCity":"GREAT YARMOUTH","district":"GREAT YARMOUTH","county":"NORFOLK","ppdCategoryType":"Standard","recordStatus":"Addition","latitude":52.615589,"longitude":1.725233,"postcodeStart":"NR30 1","postcode":["NR30","1QJ"]}
{"price":29950,"dateOfTransfer":"1996-07-26T00:00:00","postcodeFull":"NR30 1DQ","propertyType":"Terraced","oldOrNew":"Established","duration":"Freehold","paon":"1","saon":"","street":"WEST ROAD","locality":"GREAT YARMOUTH","townOrCity":"GREAT YARMOUTH","district":"GREAT YARMOUTH","county":"NORFOLK","ppdCategoryType":"Standard","recordStatus":"Addition","latitude":52.61334,"longitude":1.728774,"postcodeStart":"NR30 1","postcode":["NR30","1DQ"]}
{"price":19500,"dateOfTransfer":"1996-07-16T00:00:00","postcodeFull":"NR30 1ER","propertyType":"Terraced","oldOrNew":"Established","duration":"Freehold","paon":"23","saon":"","street":"WELL STREET","locality":"GREAT YARMOUTH","townOrCity":"GREAT YARMOUTH","district":"GREAT YARMOUTH","county":"NORFOLK","ppdCategoryType":"Standard","recordStatus":"Addition","latitude":52.610992,"longitude":1.73249,"postcodeStart":"NR30 1","postcode":["NR30","1ER"]}
{"price":40000,"dateOfTransfer":"1996-04-12T00:00:00","postcodeFull":"NR30 1QW","propertyType":"Semi-detached","oldOrNew":"Established","duration":"Freehold","paon":"108","saon":"","street":"LAWN AVENUE","locality":"GREAT YARMOUTH","townOrCity":"GREAT YARMOUTH","district":"GREAT YARMOUTH","county":"NORFOLK","ppdCategoryType":"Standard","recordStatus":"Addition","latitude":52.619106,"longitude":1.726471,"postcodeStart":"NR30 1","postcode":["NR30","1QW"]}
{"price":16000,"dateOfTransfer":"1996-01-26T00:00:00","postcodeFull":"NR30 1ER","propertyType":"Terraced","oldOrNew":"Established","duration":"Freehold","paon":"26","saon":"","street":"WELL STREET","locality":"GREAT YARMOUTH","townOrCity":"GREAT YARMOUTH","district":"GREAT YARMOUTH","county":"NORFOLK","ppdCategoryType":"Standard","recordStatus":"Addition","latitude":52.610992,"longitude":1.73249,"postcodeStart":"NR30 1","postcode":["NR30","1ER"]}
{"price":32000,"dateOfTransfer":"1996-05-24T00:00:00","postcodeFull":"NR30 1QQ","propertyType":"Terraced","oldOrNew":"Established","duration":"Freehold","paon":"71","saon":"","street":"ALDERSON ROAD","locality":"GREAT YARMOUTH","townOrCity":"GREAT YARMOUTH","district":"GREAT YARMOUTH","county":"NORFOLK","ppdCategoryType":"Standard","recordStatus":"Addition","latitude":52.617347,"longitude":1.72579,"postcodeStart":"NR30 1","postcode":["NR30","1QQ"]}
{"price":26250,"dateOfTransfer":"1996-12-18T00:00:00","postcodeFull":"NR30 1QD","propertyType":"Terraced","oldOrNew":"Established","duration":"Freehold","paon":"60","saon":"","street":"PALGRAVE ROAD","locality":"GREAT YARMOUTH","townOrCity":"GREAT YARMOUTH","district":"GREAT YARMOUTH","county":"NORFOLK","ppdCategoryType":"Standard","recordStatus":"Addition","latitude":52.615573,"longitude":1.726127,"postcodeStart":"NR30 1","postcode":["NR30","1QD"]}
{"price":34750,"dateOfTransfer":"1996-07-10T00:00:00","postcodeFull":"NR30 1QA","propertyType":"Terraced","oldOrNew":"Established","duration":"Freehold","paon":"199","saon":"","street":"PALGRAVE ROAD","locality":"GREAT YARMOUTH","townOrCity":"GREAT YARMOUTH","district":"GREAT YARMOUTH","county":"NORFOLK","ppdCategoryType":"Standard","recordStatus":"Addition","latitude":52.61441,"longitude":1.72622,"postcodeStart":"NR30 1","postcode":["NR30","1QA"]}
{"price":23500,"dateOfTransfer":"1996-08-23T00:00:00","postcodeFull":"NR30 1QD","propertyType":"Terraced","oldOrNew":"Established","duration":"Freehold","paon":"172","saon":"","street":"PALGRAVE ROAD","locality":"GREAT YARMOUTH","townOrCity":"GREAT YARMOUTH","district":"GREAT YARMOUTH","county":"NORFOLK","ppdCategoryType":"Standard","recordStatus":"Addition","latitude":52.615573,"longitude":1.726127,"postcodeStart":"NR30 1","postcode":["NR30","1QD"]}
{"price":30000,"dateOfTransfer":"1996-03-07T00:00:00","postcodeFull":"NR30 1NP","propertyType":"Terraced","oldOrNew":"Established","duration":"Freehold","paon":"67","saon":"","street":"ST NICHOLAS ROAD","locality":"GREAT YARMOUTH","townOrCity":"GREAT YARMOUTH","district":"GREAT YARMOUTH","county":"NORFOLK","ppdCategoryType":"Standard","recordStatus":"Addition","latitude":52.60969,"longitude":1.730997,"postcodeStart":"NR30 1","postcode":["NR30","1NP"]}
{"price":8500,"dateOfTransfer":"1996-07-17T00:00:00","postcodeFull":"NR30 1NL","propertyType":"Terraced","oldOrNew":"Established","duration":"Leasehold","paon":"6","saon":"FLAT 2","street":"ST NICHOLAS ROAD","locality":"GREAT YARMOUTH","townOrCity":"GREAT YARMOUTH","district":"GREAT YARMOUTH","county":"NORFOLK","ppdCategoryType":"Standard","recordStatus":"Addition","latitude":52.609852,"longitude":1.727857,"postcodeStart":"NR30 1","postcode":["NR30","1NL"]}
{"price":33000,"dateOfTransfer":"1996-04-19T00:00:00","postcodeFull":"NR30 1BJ","propertyType":"Terraced","oldOrNew":"Established","duration":"Freehold","paon":"62","saon":"","street":"NORTHGATE STREET","locality":"GREAT YARMOUTH","townOrCity":"GREAT YARMOUTH","district":"GREAT YARMOUTH","county":"NORFOLK","ppdCategoryType":"Standard","recordStatus":"Addition","latitude":52.614117,"longitude":1.726955,"postcodeStart":"NR30 1","postcode":["NR30","1BJ"]}
{"price":77500,"dateOfTransfer":"1996-05-14T00:00:00","postcodeFull":"NR30 1EX","propertyType":"Semi-detached","oldOrNew":"Established","duration":"Freehold","paon":"48","saon":"","street":"WELLESLEY ROAD","locality":"GREAT YARMOUTH","townOrCity":"GREAT YARMOUTH","district":"GREAT YARMOUTH","county":"NORFOLK","ppdCategoryType":"Standard","recordStatus":"Addition","latitude":52.612389,"longitude":1.73469,"postcodeStart":"NR30 1","postcode":["NR30","1EX"]}
{"price":24000,"dateOfTransfer":"1996-03-28T00:00:00","postcodeFull":"NR30 1QJ","propertyType":"Terraced","oldOrNew":"Established","duration":"Freehold","paon":"171","saon":"","street":"ALDERSON ROAD","locality":"GREAT YARMOUTH","townOrCity":"GREAT YARMOUTH","district":"GREAT YARMOUTH","county":"NORFOLK","ppdCategoryType":"Standard","recordStatus":"Addition","latitude":52.615589,"longitude":1.725233,"postcodeStart":"NR30 1","postcode":["NR30","1QJ"]}
{"price":22000,"dateOfTransfer":"1996-04-10T00:00:00","postcodeFull":"NR30 1BP","propertyType":"Terraced","oldOrNew":"Established","duration":"Freehold","paon":"107","saon":"","street":"NORTHGATE STREET","locality":"GREAT YARMOUTH","townOrCity":"GREAT YARMOUTH","district":"GREAT YARMOUTH","county":"NORFOLK","ppdCategoryType":"Standard","recordStatus":"Addition","latitude":52.617117,"longitude":1.727943,"postcodeStart":"NR30 1","postcode":["NR30","1BP"]}
{"price":39000,"dateOfTransfer":"1996-09-20T00:00:00","postcodeFull":"NR30 1DA","propertyType":"Terraced","oldOrNew":"Established","duration":"Freehold","paon":"168","saon":"","street":"NORTHGATE STREET","locality":"GREAT YARMOUTH","townOrCity":"GREAT YARMOUTH","district":"GREAT YARMOUTH","county":"NORFOLK","ppdCategoryType":"Standard","recordStatus":"Addition","latitude":52.614761,"longitude":1.727639,"postcodeStart":"NR30 1","postcode":["NR30","1DA"]}
{"price":26000,"dateOfTransfer":"1996-05-02T00:00:00","postcodeFull":"NR30 1BP","propertyType":"Terraced","oldOrNew":"Established","duration":"Freehold","paon":"111","saon":"","street":"NORTHGATE STREET","locality":"GREAT YARMOUTH","townOrCity":"GREAT YARMOUTH","district":"GREAT YARMOUTH","county":"NORFOLK","ppdCategoryType":"Standard","recordStatus":"Addition","latitude":52.617117,"longitude":1.727943,"postcodeStart":"NR30 1","postcode":["NR30","1BP"]}
{"price":29500,"dateOfTransfer":"1996-06-28T00:00:00","postcodeFull":"NR30 1EP","propertyType":"Terraced","oldOrNew":"Established","duration":"Freehold","paon":"9","saon":"","street":"TOTTENHAM STREET","locality":"GREAT YARMOUTH","townOrCity":"GREAT YARMOUTH","district":"GREAT YARMOUTH","county":"NORFOLK","ppdCategoryType":"Standard","recordStatus":"Addition","latitude":52.611378,"longitude":1.732523,"postcodeStart":"NR30 1","postcode":["NR30","1EP"]}
{"price":31500,"dateOfTransfer":"1996-08-02T00:00:00","postcodeFull":"NR30 1ES","propertyType":"Terraced","oldOrNew":"Established","duration":"Freehold","paon":"31","saon":"","street":"JURY STREET","locality":"GREAT YARMOUTH","townOrCity":"GREAT YARMOUTH","district":"GREAT YARMOUTH","county":"NORFOLK","ppdCategoryType":"Standard","recordStatus":"Addition","latitude":52.610435,"longitude":1.732472,"postcodeStart":"NR30 1","postcode":["NR30","1ES"]}
{"price":36000,"dateOfTransfer":"1996-07-26T00:00:00","postcodeFull":"NR30 1QS","propertyType":"Semi-detached","oldOrNew":"Established","duration":"Freehold","paon":"83","saon":"","street":"LAWN AVENUE","locality":"GREAT YARMOUTH","townOrCity":"GREAT YARMOUTH","district":"GREAT YARMOUTH","county":"NORFOLK","ppdCategoryType":"Standard","recordStatus":"Addition","latitude":52.616832,"longitude":1.724142,"postcodeStart":"NR30 1","postcode":["NR30","1QS"]}
{"price":24500,"dateOfTransfer":"1996-09-13T00:00:00","postcodeFull":"NR30 1QA","propertyType":"Terraced","oldOrNew":"Established","duration":"Freehold","paon":"15","saon":"","street":"PALGRAVE ROAD","locality":"GREAT YARMOUTH","townOrCity":"GREAT YARMOUTH","district":"GREAT YARMOUTH","county":"NORFOLK","ppdCategoryType":"Standard","recordStatus":"Addition","latitude":52.61441,"longitude":1.72622,"postcodeStart":"NR30 1","postcode":["NR30","1QA"]}
{"price":35000,"dateOfTransfer":"1996-10-29T00:00:00","postcodeFull":"NR30 1RP","propertyType":"Terraced","oldOrNew":"Established","duration":"Freehold","paon":"5","saon":"","street":"GETLIFF MEWS","locality":"GREAT YARMOUTH","townOrCity":"GREAT YARMOUTH","district":"GREAT YARMOUTH","county":"NORFOLK","ppdCategoryType":"Standard","recordStatus":"Addition","latitude":52.608924,"longitude":1.722488,"postcodeStart":"NR30 1","postcode":["NR30","1RP"]}
{"price":27250,"dateOfTransfer":"1996-04-30T00:00:00","postcodeFull":"NR30 1DU","propertyType":"Flat/Maisonette/Townhouse","oldOrNew":"Established","duration":"Leasehold","paon":"JOHN WINTER COURT","saon":"34","street":"EUSTON ROAD","locality":"GREAT YARMOUTH","townOrCity":"GREAT YARMOUTH","district":"GREAT YARMOUTH","county":"NORFOLK","ppdCategoryType":"Standard","recordStatus":"Addition","latitude":52.610162,"longitude":1.733986,"postcodeStart":"NR30 1","postcode":["NR30","1DU"]}
{"price":31000,"dateOfTransfer":"1996-01-30T00:00:00","postcodeFull":"NR30 1DF","propertyType":"Terraced","oldOrNew":"Established","duration":"Freehold","paon":"1","saon":"","street":"NORTH ROAD","locality":"GREAT YARMOUTH","townOrCity":"GREAT YARMOUTH","district":"GREAT YARMOUTH","county":"NORFOLK","ppdCategoryType":"Standard","recordStatus":"Addition","latitude":52.613803,"longitude":1.728909,"postcodeStart":"NR30 1","postcode":["NR30","1DF"]}
{"price":25500,"dateOfTransfer":"1996-07-19T00:00:00","postcodeFull":"NR30 1DA","propertyType":"Terraced","oldOrNew":"Established","duration":"Freehold","paon":"184","saon":"","street":"NORTHGATE STREET","locality":"GREAT YARMOUTH","townOrCity":"GREAT YARMOUTH","district":"GREAT YARMOUTH","county":"NORFOLK","ppdCategoryType":"Standard","recordStatus":"Addition","latitude":52.614761,"longitude":1.727639,"postcodeStart":"NR30 1","postcode":["NR30","1DA"]}
{"price":33000,"dateOfTransfer":"1996-08-23T00:00:00","postcodeFull":"NR30 1EP","propertyType":"Terraced","oldOrNew":"Established","duration":"Freehold","paon":"47","saon":"","street":"TOTTENHAM STREET","locality":"GREAT YARMOUTH","townOrCity":"GREAT YARMOUTH","district":"GREAT YARMOUTH","county":"NORFOLK","ppdCategoryType":"Standard","recordStatus":"Addition","latitude":52.611378,"longitude":1.732523,"postcodeStart":"NR30 1","postcode":["NR30","1EP"]}
{"price":22000,"dateOfTransfer":"1996-08-14T00:00:00","postcodeFull":"NR30 1NL","propertyType":"Detached","oldOrNew":"Established","duration":"Freehold","paon":"5","saon":"","street":"ST NICHOLAS ROAD","locality":"GREAT YARMOUTH","townOrCity":"GREAT YARMOUTH","district":"GREAT YARMOUTH","county":"NORFOLK","ppdCategoryType":"Standard","recordStatus":"Addition","latitude":52.609852,"longitude":1.727857,"postcodeStart":"NR30 1","postcode":["NR30","1NL"]}
{"price":16750,"dateOfTransfer":"1996-08-16T00:00:00","postcodeFull":"NR30 1LF","propertyType":"Terraced","oldOrNew":"Established","duration":"Freehold","paon":"17","saon":"","street":"CORONATION TERRACE","locality":"GREAT YARMOUTH","townOrCity":"GREAT YARMOUTH","district":"GREAT YARMOUTH","county":"NORFOLK","ppdCategoryType":"Standard","recordStatus":"Addition","latitude":52.6091,"longitude":1.722873,"postcodeStart":"NR30 1","postcode":["NR30","1LF"]}
{"price":25000,"dateOfTransfer":"1997-05-12T00:00:00","postcodeFull":"NR30 1EW","propertyType":"Terraced","oldOrNew":"Established","duration":"Freehold","paon":"17","saon":"","street":"AUDLEY STREET","locality":"GREAT YARMOUTH","townOrCity":"GREAT YARMOUTH","district":"GREAT YARMOUTH","county":"NORFOLK","ppdCategoryType":"Standard","recordStatus":"Addition","latitude":52.61182,"longitude":1.732487,"postcodeStart":"NR30 1","postcode":["NR30","1EW"]}
{"price":38000,"dateOfTransfer":"1997-08-29T00:00:00","postcodeFull":"NR30 1QF","propertyType":"Terraced","oldOrNew":"Established","duration":"Freehold","paon":"84","saon":"","street":"PALGRAVE ROAD","locality":"GREAT YARMOUTH","townOrCity":"GREAT YARMOUTH","district":"GREAT YARMOUTH","county":"NORFOLK","ppdCategoryType":"Standard","recordStatus":"Addition","latitude":52.616932,"longitude":1.726405,"postcodeStart":"NR30 1","postcode":["NR30","1QF"]}
{"price":44000,"dateOfTransfer":"1997-04-14T00:00:00","postcodeFull":"NR30 1QB","propertyType":"Terraced","oldOrNew":"Established","duration":"Freehold","paon":"8","saon":"","street":"ORMOND ROAD","locality":"GREAT YARMOUTH","townOrCity":"GREAT YARMOUTH","district":"GREAT YARMOUTH","county":"NORFOLK","ppdCategoryType":"Standard","recordStatus":"Addition","latitude":52.615103,"longitude":1.726758,"postcodeStart":"NR30 1","postcode":["NR30","1QB"]}
{"price":28500,"dateOfTransfer":"1997-05-23T00:00:00","postcodeFull":"NR30 1DQ","propertyType":"Terraced","oldOrNew":"Established","duration":"Freehold","paon":"10","saon":"","street":"WEST ROAD","locality":"GREAT YARMOUTH","townOrCity":"GREAT YARMOUTH","district":"GREAT YARMOUTH","county":"NORFOLK","ppdCategoryType":"Standard","recordStatus":"Addition","latitude":52.61334,"longitude":1.728774,"postcodeStart":"NR30 1","postcode":["NR30","1DQ"]}
{"price":57500,"dateOfTransfer":"1997-12-15T00:00:00","postcodeFull":"NR30 1EU","propertyType":"Semi-detached","oldOrNew":"Established","duration":"Leasehold","paon":"33","saon":"","street":"WELLESLEY ROAD","locality":"GREAT YARMOUTH","townOrCity":"GREAT YARMOUTH","district":"GREAT YARMOUTH","county":"NORFOLK","ppdCategoryType":"Standard","recordStatus":"Addition","latitude":52.61078,"longitude":1.73465,"postcodeStart":"NR30 1","postcode":["NR30","1EU"]}
{"price":14500,"dateOfTransfer":"1997-07-24T00:00:00","postcodeFull":"NR30 1ER","propertyType":"Terraced","oldOrNew":"Established","duration":"Freehold","paon":"9","saon":"","street":"WELL STREET","locality":"GREAT YARMOUTH","townOrCity":"GREAT YARMOUTH","district":"GREAT YARMOUTH","county":"NORFOLK","ppdCategoryType":"Standard","recordStatus":"Addition","latitude":52.610992,"longitude":1.73249,"postcodeStart":"NR30 1","postcode":["NR30","1ER"]}
{"price":29000,"dateOfTransfer":"1997-04-25T00:00:00","postcodeFull":"NR30 1EW","propertyType":"Terraced","oldOrNew":"Established","duration":"Freehold","paon":"26","saon":"","street":"AUDLEY STREET","locality":"GREAT YARMOUTH","townOrCity":"GREAT YARMOUTH","district":"GREAT YARMOUTH","county":"NORFOLK","ppdCategoryType":"Standard","recordStatus":"Addition","latitude":52.61182,"longitude":1.732487,"postcodeStart":"NR30 1","postcode":["NR30","1EW"]}
{"price":21000,"dateOfTransfer":"1997-02-07T00:00:00","postcodeFull":"NR30 1EP","propertyType":"Terraced","oldOrNew":"Established","duration":"Freehold","paon":"34","saon":"","street":"TOTTENHAM STREET","locality":"GREAT YARMOUTH","townOrCity":"GREAT YARMOUTH","district":"GREAT YARMOUTH","county":"NORFOLK","ppdCategoryType":"Standard","recordStatus":"Addition","latitude":52.611378,"longitude":1.732523,"postcodeStart":"NR30 1","postcode":["NR30","1EP"]}
{"price":24500,"dateOfTransfer":"1997-08-29T00:00:00","postcodeFull":"NR30 1LD","propertyType":"Flat/Maisonette/Townhouse","oldOrNew":"Established","duration":"Leasehold","paon":"1","saon":"","street":"PATTERSON CLOSE","locality":"GREAT YARMOUTH","townOrCity":"GREAT YARMOUTH","district":"GREAT YARMOUTH","county":"NORFOLK","ppdCategoryType":"Standard","recordStatus":"Addition","latitude":52.609379,"longitude":1.72232,"postcodeStart":"NR30 1","postcode":["NR30","1LD"]}
{"price":80000,"dateOfTransfer":"1997-01-29T00:00:00","postcodeFull":"NR30 1EX","propertyType":"Semi-detached","oldOrNew":"Established","duration":"Freehold","paon":"65","saon":"","street":"WELLESLEY ROAD","locality":"GREAT YARMOUTH","townOrCity":"GREAT YARMOUTH","district":"GREAT YARMOUTH","county":"NORFOLK","ppdCategoryType":"Standard","recordStatus":"Addition","latitude":52.612389,"longitude":1.73469,"postcodeStart":"NR30 1","postcode":["NR30","1EX"]}
{"price":45000,"dateOfTransfer":"1997-11-03T00:00:00","postcodeFull":"NR30 1JF","propertyType":"Terraced","oldOrNew":"Established","duration":"Freehold","paon":"81","saon":"","street":"NORTH QUAY","locality":"GREAT YARMOUTH","townOrCity":"GREAT YARMOUTH","district":"GREAT YARMOUTH","county":"NORFOLK","ppdCategoryType":"Standard","recordStatus":"Addition","latitude":52.609729,"longitude":1.721455,"postcodeStart":"NR30 1","postcode":["NR30","1JF"]}
{"price":38950,"dateOfTransfer":"1997-04-18T00:00:00","postcodeFull":"NR30 1QN","propertyType":"Terraced","oldOrNew":"Established","duration":"Freehold","paon":"26","saon":"","street":"LAWN AVENUE","locality":"GREAT YARMOUTH","townOrCity":"GREAT YARMOUTH","district":"GREAT YARMOUTH","county":"NORFOLK","ppdCategoryType":"Standard","recordStatus":"Addition","latitude":52.61684,"longitude":1.724756,"postcodeStart":"NR30 1","postcode":["NR30","1QN"]}
{"price":30950,"dateOfTransfer":"1997-06-10T00:00:00","postcodeFull":"NR30 1BP","propertyType":"Semi-detached","oldOrNew":"Established","duration":"Freehold","paon":"124","saon":"","street":"NORTHGATE STREET","locality":"GREAT YARMOUTH","townOrCity":"GREAT YARMOUTH","district":"GREAT YARMOUTH","county":"NORFOLK","ppdCategoryType":"Standard","recordStatus":"Addition","latitude":52.617117,"longitude":1.727943,"postcodeStart":"NR30 1","postcode":["NR30","1BP"]}
{"price":29500,"dateOfTransfer":"1997-11-04T00:00:00","postcodeFull":"NR30 1JU","propertyType":"Terraced","oldOrNew":"Established","duration":"Freehold","paon":"12","saon":"","street":"BRIDGE ROAD","locality":"GREAT YARMOUTH","townOrCity":"GREAT YARMOUTH","district":"GREAT YARMOUTH","county":"NORFOLK","ppdCategoryType":"Standard","recordStatus":"Addition","latitude":52.612872,"longitude":1.722203,"postcodeStart":"NR30 1","postcode":["NR30","1JU"]}
{"price":11000,"dateOfTransfer":"1997-07-25T00:00:00","postcodeFull":"NR30 1JY","propertyType":"Terraced","oldOrNew":"Established","duration":"Freehold","paon":"16","saon":"","street":"NORTH RIVER ROAD","locality":"GREAT YARMOUTH","townOrCity":"GREAT YARMOUTH","district":"GREAT YARMOUTH","county":"NORFOLK","ppdCategoryType":"Standard","recordStatus":"Addition","latitude":52.613484,"longitude":1.723053,"postcodeStart":"NR30 1","postcode":["NR30","1JY"]}
{"price":76000,"dateOfTransfer":"1997-12-10T00:00:00","postcodeFull":"NR30 1QP","propertyType":"Semi-detached","oldOrNew":"Established","duration":"Leasehold","paon":"125","saon":"","street":"LAWN AVENUE","locality":"GREAT YARMOUTH","townOrCity":"GREAT YARMOUTH","district":"GREAT YARMOUTH","county":"NORFOLK","ppdCategoryType":"Standard","recordStatus":"Addition","latitude":52.619127,"longitude":1.725527,"postcodeStart":"NR30 1","postcode":["NR30","1QP"]}
{"price":23040,"dateOfTransfer":"1997-08-25T00:00:00","postcodeFull":"NR30 1QN","propertyType":"Terraced","oldOrNew":"Established","duration":"Freehold","paon":"18","saon":"","street":"LAWN AVENUE","locality":"GREAT YARMOUTH","townOrCity":"GREAT YARMOUTH","district":"GREAT YARMOUTH","county":"NORFOLK","ppdCategoryType":"Standard","recordStatus":"Addition","latitude":52.61684,"longitude":1.724756,"postcodeStart":"NR30 1","postcode":["NR30","1QN"]}
{"price":30000,"dateOfTransfer":"1997-06-27T00:00:00","postcodeFull":"NR30 1DP","propertyType":"Terraced","oldOrNew":"Established","duration":"Freehold","paon":"4","saon":"","street":"EAST ROAD","locality":"GREAT YARMOUTH","townOrCity":"GREAT YARMOUTH","district":"GREAT YARMOUTH","county":"NORFOLK","ppdCategoryType":"Standard","recordStatus":"Addition","latitude":52.613383,"longitude":1.729694,"postcodeStart":"NR30 1","postcode":["NR30","1DP"]}
{"price":32000,"dateOfTransfer":"1997-03-14T00:00:00","postcodeFull":"NR30 1QG","propertyType":"Terraced","oldOrNew":"Established","duration":"Freehold","paon":"138","saon":"","street":"ALDERSON ROAD","locality":"GREAT YARMOUTH","townOrCity":"GREAT YARMOUTH","district":"GREAT YARMOUTH","county":"NORFOLK","ppdCategoryType":"Standard","recordStatus":"Addition","latitude":52.616818,"longitude":1.726026,"postcodeStart":"NR30 1","postcode":["NR30","1QG"]}
{"price":36000,"dateOfTransfer":"1997-11-10T00:00:00","postcodeFull":"NR30 1QL","propertyType":"Terraced","oldOrNew":"Established","duration":"Freehold","paon":"177","saon":"","street":"ALDERSON ROAD","locality":"GREAT YARMOUTH","townOrCity":"GREAT YARMOUTH","district":"GREAT YARMOUTH","county":"NORFOLK","ppdCategoryType":"Standard","recordStatus":"Addition","latitude":52.61452,"longitude":1.725305,"postcodeStart":"NR30 1","postcode":["NR30","1QL"]}
{"price":29500,"dateOfTransfer":"1997-04-30T00:00:00","postcodeFull":"NR30 1QQ","propertyType":"Terraced","oldOrNew":"Established","duration":"Freehold","paon":"69","saon":"","street":"ALDERSON ROAD","locality":"GREAT YARMOUTH","townOrCity":"GREAT YARMOUTH","district":"GREAT YARMOUTH","county":"NORFOLK","ppdCategoryType":"Standard","recordStatus":"Addition","latitude":52.617347,"longitude":1.72579,"postcodeStart":"NR30 1","postcode":["NR30","1QQ"]}
{"price":18000,"dateOfTransfer":"1997-03-14T00:00:00","postcodeFull":"NR30 1EP","propertyType":"Terraced","oldOrNew":"Established","duration":"Freehold","paon":"10","saon":"","street":"TOTTENHAM STREET","locality":"GREAT YARMOUTH","townOrCity":"GREAT YARMOUTH","district":"GREAT YARMOUTH","county":"NORFOLK","ppdCategoryType":"Standard","recordStatus":"Addition","latitude":52.611378,"longitude":1.732523,"postcodeStart":"NR30 1","postcode":["NR30","1EP"]}
{"price":36000,"dateOfTransfer":"1997-09-19T00:00:00","postcodeFull":"NR30 1QL","propertyType":"Terraced","oldOrNew":"Established","duration":"Freehold","paon":"196","saon":"","street":"ALDERSON ROAD","locality":"GREAT YARMOUTH","townOrCity":"GREAT YARMOUTH","district":"GREAT YARMOUTH","county":"NORFOLK","ppdCategoryType":"Standard","recordStatus":"Addition","latitude":52.61452,"longitude":1.725305,"postcodeStart":"NR30 1","postcode":["NR30","1QL"]}
{"price":26250,"dateOfTransfer":"1997-07-18T00:00:00","postcodeFull":"NR30 1BJ","propertyType":"Terraced","oldOrNew":"Established","duration":"Freehold","paon":"51","saon":"","street":"NORTHGATE STREET","locality":"GREAT YARMOUTH","townOrCity":"GREAT YARMOUTH","district":"GREAT YARMOUTH","county":"NORFOLK","ppdCategoryType":"Standard","recordStatus":"Addition","latitude":52.614117,"longitude":1.726955,"postcodeStart":"NR30 1","postcode":["NR30","1BJ"]}
{"price":31500,"dateOfTransfer":"1997-01-24T00:00:00","postcodeFull":"NR30 1QD","propertyType":"Terraced","oldOrNew":"Established","duration":"Freehold","paon":"152","saon":"","street":"PALGRAVE ROAD","locality":"GREAT YARMOUTH","townOrCity":"GREAT YARMOUTH","district":"GREAT YARMOUTH","county":"NORFOLK","ppdCategoryType":"Standard","recordStatus":"Addition","latitude":52.615573,"longitude":1.726127,"postcodeStart":"NR30 1","postcode":["NR30","1QD"]}
{"price":23950,"dateOfTransfer":"1997-08-29T00:00:00","postcodeFull":"NR30 1NQ","propertyType":"Flat/Maisonette/Townhouse","oldOrNew":"Established","duration":"Freehold","paon":"21","saon":"","street":"PRIORY PLAIN","locality":"GREAT YARMOUTH","townOrCity":"GREAT YARMOUTH","district":"GREAT YARMOUTH","county":"NORFOLK","ppdCategoryType":"Standard","recordStatus":"Addition","latitude":52.610058,"longitude":1.7276,"postcodeStart":"NR30 1","postcode":["NR30","1NQ"]}
{"price":30500,"dateOfTransfer":"1997-03-11T00:00:00","postcodeFull":"NR30 1DS","propertyType":"Flat/Maisonette/Townhouse","oldOrNew":"Established","duration":"Leasehold","paon":"4","saon":"","street":"TOWN WALL MEWS","locality":"GREAT YARMOUTH","townOrCity":"GREAT YARMOUTH","district":"GREAT YARMOUTH","county":"NORFOLK","ppdCategoryType":"Standard","recordStatus":"Addition","latitude":52.612522,"longitude":1.727035,"postcodeStart":"NR30 1","postcode":["NR30","1DS"]}
{"price":14000,"dateOfTransfer":"1997-10-06T00:00:00","postcodeFull":"NR30 1ER","propertyType":"Terraced","oldOrNew":"Established","duration":"Freehold","paon":"38","saon":"","street":"WELL STREET","locality":"GREAT YARMOUTH","townOrCity":"GREAT YARMOUTH","district":"GREAT YARMOUTH","county":"NORFOLK","ppdCategoryType":"Standard","recordStatus":"Addition","latitude":52.610992,"longitude":1.73249,"postcodeStart":"NR30 1","postcode":["NR30","1ER"]}
{"price":77500,"dateOfTransfer":"1997-09-26T00:00:00","postcodeFull":"NR30 1QP","propertyType":"Detached","oldOrNew":"Established","duration":"Leasehold","paon":"127","saon":"","street":"LAWN AVENUE","locality":"GREAT YARMOUTH","townOrCity":"GREAT YARMOUTH","district":"GREAT YARMOUTH","county":"NORFOLK","ppdCategoryType":"Standard","recordStatus":"Addition","latitude":52.619127,"longitude":1.725527,"postcodeStart":"NR30 1","postcode":["NR30","1QP"]}
{"price":35200,"dateOfTransfer":"1997-12-05T00:00:00","postcodeFull":"NR30 1QN","propertyType":"Terraced","oldOrNew":"Established","duration":"Freehold","paon":"50","saon":"","street":"LAWN AVENUE","locality":"GREAT YARMOUTH","townOrCity":"GREAT YARMOUTH","district":"GREAT YARMOUTH","county":"NORFOLK","ppdCategoryType":"Standard","recordStatus":"Addition","latitude":52.61684,"longitude":1.724756,"postcodeStart":"NR30 1","postcode":["NR30","1QN"]}
{"price":29000,"dateOfTransfer":"1997-02-28T00:00:00","postcodeFull":"NR30 1DG","propertyType":"Terraced","oldOrNew":"Established","duration":"Freehold","paon":"9","saon":"","street":"MAYGROVE ROAD","locality":"GREAT YARMOUTH","townOrCity":"GREAT YARMOUTH","district":"GREAT YARMOUTH","county":"NORFOLK","ppdCategoryType":"Standard","recordStatus":"Addition","latitude":52.613394,"longitude":1.729332,"postcodeStart":"NR30 1","postcode":["NR30","1DG"]}
{"price":38250,"dateOfTransfer":"1997-11-21T00:00:00","postcodeFull":"NR30 1QL","propertyType":"Terraced","oldOrNew":"Established","duration":"Freehold","paon":"185","saon":"","street":"ALDERSON ROAD","locality":"GREAT YARMOUTH","townOrCity":"GREAT YARMOUTH","district":"GREAT YARMOUTH","county":"NORFOLK","ppdCategoryType":"Standard","recordStatus":"Addition","latitude":52.61452,"longitude":1.725305,"postcodeStart":"NR30 1","postcode":["NR30","1QL"]}
{"price":32000,"dateOfTransfer":"1997-06-13T00:00:00","postcodeFull":"NR30 1QF","propertyType":"Terraced","oldOrNew":"Established","duration":"Freehold","paon":"104","saon":"","street":"PALGRAVE ROAD","locality":"GREAT YARMOUTH","townOrCity":"GREAT YARMOUTH","district":"GREAT YARMOUTH","county":"NORFOLK","ppdCategoryType":"Standard","recordStatus":"Addition","latitude":52.616932,"longitude":1.726405,"postcodeStart":"NR30 1","postcode":["NR30","1QF"]}
{"price":13000,"dateOfTransfer":"1997-08-22T00:00:00","postcodeFull":"NR30 1LA","propertyType":"Semi-detached","oldOrNew":"Established","duration":"Freehold","paon":"19","saon":"","street":"SCHOOL ROAD","locality":"GREAT YARMOUTH","townOrCity":"GREAT YARMOUTH","district":"GREAT YARMOUTH","county":"NORFOLK","ppdCategoryType":"Standard","recordStatus":"Addition","latitude":52.613699,"longitude":1.722214,"postcodeStart":"NR30 1","postcode":["NR30","1LA"]}
{"price":28250,"dateOfTransfer":"1997-01-31T00:00:00","postcodeFull":"NR30 1DQ","propertyType":"Terraced","oldOrNew":"Established","duration":"Freehold","paon":"3","saon":"","street":"WEST ROAD","locality":"GREAT YARMOUTH","townOrCity":"GREAT YARMOUTH","district":"GREAT YARMOUTH","county":"NORFOLK","ppdCategoryType":"Standard","recordStatus":"Addition","latitude":52.61334,"longitude":1.728774,"postcodeStart":"NR30 1","postcode":["NR30","1DQ"]}
{"price":34500,"dateOfTransfer":"1997-05-14T00:00:00","postcodeFull":"NR30 1QE","propertyType":"Terraced","oldOrNew":"Established","duration":"Freehold","paon":"135","saon":"","street":"PALGRAVE ROAD","locality":"GREAT YARMOUTH","townOrCity":"GREAT YARMOUTH","district":"GREAT YARMOUTH","county":"NORFOLK","ppdCategoryType":"Standard","recordStatus":"Addition","latitude":52.617031,"longitude":1.726975,"postcodeStart":"NR30 1","postcode":["NR30","1QE"]}
{"price":50000,"dateOfTransfer":"1997-10-29T00:00:00","postcodeFull":"NR30 1DX","propertyType":"Terraced","oldOrNew":"Established","duration":"Freehold","paon":"6","saon":"","street":"EUSTON ROAD","locality":"GREAT YARMOUTH","townOrCity":"GREAT YARMOUTH","district":"GREAT YARMOUTH","county":"NORFOLK","ppdCategoryType":"Standard","recordStatus":"Addition","latitude":52.609787,"longitude":1.733909,"postcodeStart":"NR30 1","postcode":["NR30","1DX"]}
{"price":50000,"dateOfTransfer":"1997-03-21T00:00:00","postcodeFull":"NR30 1QP","propertyType":"Semi-detached","oldOrNew":"Established","duration":"Freehold","paon":"123","saon":"","street":"LAWN AVENUE","locality":"GREAT YARMOUTH","townOrCity":"GREAT YARMOUTH","district":"GREAT YARMOUTH","county":"NORFOLK","ppdCategoryType":"Standard","recordStatus":"Addition","latitude":52.619127,"longitude":1.725527,"postcodeStart":"NR30 1","postcode":["NR30","1QP"]}
{"price":28000,"dateOfTransfer":"1997-06-06T00:00:00","postcodeFull":"NR30 1EP","propertyType":"Terraced","oldOrNew":"Established","duration":"Freehold","paon":"12","saon":"","street":"TOTTENHAM STREET","locality":"GREAT YARMOUTH","townOrCity":"GREAT YARMOUTH","district":"GREAT YARMOUTH","county":"NORFOLK","ppdCategoryType":"Standard","recordStatus":"Addition","latitude":52.611378,"longitude":1.732523,"postcodeStart":"NR30 1","postcode":["NR30","1EP"]}
{"price":47000,"dateOfTransfer":"1997-02-21T00:00:00","postcodeFull":"NR30 1BJ","propertyType":"Terraced","oldOrNew":"Established","duration":"Freehold","paon":"41","saon":"","street":"NORTHGATE STREET","locality":"GREAT YARMOUTH","townOrCity":"GREAT YARMOUTH","district":"GREAT YARMOUTH","county":"NORFOLK","ppdCategoryType":"Standard","recordStatus":"Addition","latitude":52.614117,"longitude":1.726955,"postcodeStart":"NR30 1","postcode":["NR30","1BJ"]}
{"price":29000,"dateOfTransfer":"1997-12-08T00:00:00","postcodeFull":"NR30 1QQ","propertyType":"Terraced","oldOrNew":"Established","duration":"Freehold","paon":"98","saon":"","street":"ALDERSON ROAD","locality":"GREAT YARMOUTH","townOrCity":"GREAT YARMOUTH","district":"GREAT YARMOUTH","county":"NORFOLK","ppdCategoryType":"Standard","recordStatus":"Addition","latitude":52.617347,"longitude":1.72579,"postcodeStart":"NR30 1","postcode":["NR30","1QQ"]}
{"price":21000,"dateOfTransfer":"1997-09-04T00:00:00","postcodeFull":"NR30 1NQ","propertyType":"Terraced","oldOrNew":"Established","duration":"Freehold","paon":"25","saon":"","street":"PRIORY PLAIN","locality":"GREAT YARMOUTH","townOrCity":"GREAT YARMOUTH","district":"GREAT YARMOUTH","county":"NORFOLK","ppdCategoryType":"Standard","recordStatus":"Addition","latitude":52.610058,"longitude":1.7276,"postcodeStart":"NR30 1","postcode":["NR30","1NQ"]}
{"price":37000,"dateOfTransfer":"1997-05-09T00:00:00","postcodeFull":"NR30 1QL","propertyType":"Terraced","oldOrNew":"Established","duration":"Freehold","paon":"173","saon":"","street":"ALDERSON ROAD","locality":"GREAT YARMOUTH","townOrCity":"GREAT YARMOUTH","district":"GREAT YARMOUTH","county":"NORFOLK","ppdCategoryType":"Standard","recordStatus":"Addition","latitude":52.61452,"longitude":1.725305,"postcodeStart":"NR30 1","postcode":["NR30","1QL"]}
{"price":26000,"dateOfTransfer":"1997-11-14T00:00:00","postcodeFull":"NR30 1DG","propertyType":"Terraced","oldOrNew":"Established","duration":"Freehold","paon":"7","saon":"","street":"MAYGROVE ROAD","locality":"GREAT YARMOUTH","townOrCity":"GREAT YARMOUTH","district":"GREAT YARMOUTH","county":"NORFOLK","ppdCategoryType":"Standard","recordStatus":"Addition","latitude":52.613394,"longitude":1.729332,"postcodeStart":"NR30 1","postcode":["NR30","1DG"]}
{"price":65000,"dateOfTransfer":"1997-05-28T00:00:00","postcodeFull":"NR30 1QU","propertyType":"Detached","oldOrNew":"Established","duration":"Leasehold","paon":"3","saon":"","street":"BURE CLOSE","locality":"GREAT YARMOUTH","townOrCity":"GREAT YARMOUTH","district":"GREAT YARMOUTH","county":"NORFOLK","ppdCategoryType":"Standard","recordStatus":"Addition","latitude":52.617079,"longitude":1.722856,"postcodeStart":"NR30 1","postcode":["NR30","1QU"]}
{"price":25500,"dateOfTransfer":"1997-10-16T00:00:00","postcodeFull":"NR30 1BN","propertyType":"Terraced","oldOrNew":"Established","duration":"Freehold","paon":"69","saon":"","street":"NORTHGATE STREET","locality":"GREAT YARMOUTH","townOrCity":"GREAT YARMOUTH","district":"GREAT YARMOUTH","county":"NORFOLK","ppdCategoryType":"Standard","recordStatus":"Addition","latitude":52.61546,"longitude":1.727432,"postcodeStart":"NR30 1","postcode":["NR30","1BN"]}
{"price":17250,"dateOfTransfer":"1997-07-02T00:00:00","postcodeFull":"NR30 1BT","propertyType":"Terraced","oldOrNew":"Established","duration":"Freehold","paon":"2","saon":"","street":"COBDEN TERRACE","locality":"GREAT YARMOUTH","townOrCity":"GREAT YARMOUTH","district":"GREAT YARMOUTH","county":"NORFOLK","ppdCategoryType":"Standard","recordStatus":"Addition","latitude":52.617054,"longitude":1.727367,"postcodeStart":"NR30 1","postcode":["NR30","1BT"]}
{"price":30500,"dateOfTransfer":"1997-06-30T00:00:00","postcodeFull":"NR30 1QE","propertyType":"Terraced","oldOrNew":"Established","duration":"Freehold","paon":"139","saon":"","street":"PALGRAVE ROAD","locality":"GREAT YARMOUTH","townOrCity":"GREAT YARMOUTH","district":"GREAT YARMOUTH","county":"NORFOLK","ppdCategoryType":"Standard","recordStatus":"Addition","latitude":52.617031,"longitude":1.726975,"postcodeStart":"NR30 1","postcode":["NR30","1QE"]}
{"price":75500,"dateOfTransfer":"1997-11-21T00:00:00","postcodeFull":"NR30 1EX","propertyType":"Semi-detached","oldOrNew":"Established","duration":"Leasehold","paon":"51","saon":"","street":"WELLESLEY ROAD","locality":"GREAT YARMOUTH","townOrCity":"GREAT YARMOUTH","district":"GREAT YARMOUTH","county":"NORFOLK","ppdCategoryType":"Standard","recordStatus":"Addition","latitude":52.612389,"longitude":1.73469,"postcodeStart":"NR30 1","postcode":["NR30","1EX"]}
{"price":27000,"dateOfTransfer":"1997-08-22T00:00:00","postcodeFull":"NR30 1DA","propertyType":"Flat/Maisonette/Townhouse","oldOrNew":"Established","duration":"Freehold","paon":"184A","saon":"","street":"NORTHGATE STREET","locality":"GREAT YARMOUTH","townOrCity":"GREAT YARMOUTH","district":"GREAT YARMOUTH","county":"NORFOLK","ppdCategoryType":"Standard","recordStatus":"Addition","latitude":52.614761,"longitude":1.727639,"postcodeStart":"NR30 1","postcode":["NR30","1DA"]}
{"price":28500,"dateOfTransfer":"1997-07-24T00:00:00","postcodeFull":"NR30 1QG","propertyType":"Terraced","oldOrNew":"Established","duration":"Freehold","paon":"140","saon":"","street":"ALDERSON ROAD","locality":"GREAT YARMOUTH","townOrCity":"GREAT YARMOUTH","district":"GREAT YARMOUTH","county":"NORFOLK","ppdCategoryType":"Standard","recordStatus":"Addition","latitude":52.616818,"longitude":1.726026,"postcodeStart":"NR30 1","postcode":["NR30","1QG"]}
{"price":46500,"dateOfTransfer":"1997-10-24T00:00:00","postcodeFull":"NR30 1EW","propertyType":"Terraced","oldOrNew":"Established","duration":"Freehold","paon":"23","saon":"","street":"AUDLEY STREET","locality":"GREAT YARMOUTH","townOrCity":"GREAT YARMOUTH","district":"GREAT YARMOUTH","county":"NORFOLK","ppdCategoryType":"Standard","recordStatus":"Addition","latitude":52.61182,"longitude":1.732487,"postcodeStart":"NR30 1","postcode":["NR30","1EW"]}
{"price":33000,"dateOfTransfer":"1997-06-20T00:00:00","postcodeFull":"NR30 1BN","propertyType":"Flat/Maisonette/Townhouse","oldOrNew":"Established","duration":"Freehold","paon":"86","saon":"","street":"NORTHGATE STREET","locality":"GREAT YARMOUTH","townOrCity":"GREAT YARMOUTH","district":"GREAT YARMOUTH","county":"NORFOLK","ppdCategoryType":"Standard","recordStatus":"Addition","latitude":52.61546,"longitude":1.727432,"postcodeStart":"NR30 1","postcode":["NR30","1BN"]}
{"price":34995,"dateOfTransfer":"1997-05-30T00:00:00","postcodeFull":"NR30 1QE","propertyType":"Terraced","oldOrNew":"Established","duration":"Freehold","paon":"111","saon":"","street":"PALGRAVE ROAD","locality":"GREAT YARMOUTH","townOrCity":"GREAT YARMOUTH","district":"GREAT YARMOUTH","county":"NORFOLK","ppdCategoryType":"Standard","recordStatus":"Addition","latitude":52.617031,"longitude":1.726975,"postcodeStart":"NR30 1","postcode":["NR30","1QE"]}
{"price":34500,"dateOfTransfer":"1997-06-27T00:00:00","postcodeFull":"NR30 1BY","propertyType":"Terraced","oldOrNew":"Established","duration":"Freehold","paon":"163","saon":"","street":"NORTHGATE STREET","locality":"","townOrCity":"GREAT YARMOUTH","district":"GREAT YARMOUTH","county":"NORFOLK","ppdCategoryType":"Standard","recordStatus":"Addition","latitude":52.615991,"longitude":1.728009,"postcodeStart":"NR30 1","postcode":["NR30","1BY"]}
{"price":24500,"dateOfTransfer":"1997-07-25T00:00:00","postcodeFull":"NR30 1BT","propertyType":"Terraced","oldOrNew":"Established","duration":"Freehold","paon":"5","saon":"","street":"COBDEN TERRACE","locality":"GREAT YARMOUTH","townOrCity":"GREAT YARMOUTH","district":"GREAT YARMOUTH","county":"NORFOLK","ppdCategoryType":"Standard","recordStatus":"Addition","latitude":52.617054,"longitude":1.727367,"postcodeStart":"NR30 1","postcode":["NR30","1BT"]}
{"price":37500,"dateOfTransfer":"1997-02-28T00:00:00","postcodeFull":"NR30 1EY","propertyType":"Terraced","oldOrNew":"Established","duration":"Freehold","paon":"13","saon":"","street":"SANDOWN ROAD","locality":"","townOrCity":"GREAT YARMOUTH","district":"GREAT YARMOUTH","county":"NORFOLK","ppdCategoryType":"Standard","recordStatus":"Addition","latitude":52.613709,"longitude":1.735609,"postcodeStart":"NR30 1","postcode":["NR30","1EY"]}
{"price":40000,"dateOfTransfer":"1997-01-10T00:00:00","postcodeFull":"NR30 1BA","propertyType":"Terraced","oldOrNew":"Established","duration":"Freehold","paon":"24 - 25","saon":"","street":"NORTHGATE STREET","locality":"","townOrCity":"GREAT YARMOUTH","district":"GREAT YARMOUTH","county":"NORFOLK","ppdCategoryType":"Standard","recordStatus":"Addition","latitude":52.612243,"longitude":1.725917,"postcodeStart":"NR30 1","postcode":["NR30","1BA"]}
{"price":25000,"dateOfTransfer":"1997-09-26T00:00:00","postcodeFull":"NR30 1EE","propertyType":"Flat/Maisonette/Townhouse","oldOrNew":"Established","duration":"Leasehold","paon":"SANDPIPER COURT, 4","saon":"FLAT 3","street":"NORFOLK SQUARE","locality":"GREAT YARMOUTH","townOrCity":"GREAT YARMOUTH","district":"GREAT YARMOUTH","county":"NORFOLK","ppdCategoryType":"Standard","recordStatus":"Addition","latitude":52.610891,"longitude":1.736264,"postcodeStart":"NR30 1","postcode":["NR30","1EE"]}
{"price":21300,"dateOfTransfer":"1997-09-17T00:00:00","postcodeFull":"NR30 1EP","propertyType":"Terraced","oldOrNew":"Established","duration":"Freehold","paon":"34","saon":"","street":"TOTTENHAM STREET","locality":"GREAT YARMOUTH","townOrCity":"GREAT YARMOUTH","district":"GREAT YARMOUTH","county":"NORFOLK","ppdCategoryType":"Standard","recordStatus":"Addition","latitude":52.611378,"longitude":1.732523,"postcodeStart":"NR30 1","postcode":["NR30","1EP"]}
{"price":29100,"dateOfTransfer":"1997-02-14T00:00:00","postcodeFull":"NR30 1ER","propertyType":"Terraced","oldOrNew":"Established","duration":"Freehold","paon":"4","saon":"","street":"WELL STREET","locality":"GREAT YARMOUTH","townOrCity":"GREAT YARMOUTH","district":"GREAT YARMOUTH","county":"NORFOLK","ppdCategoryType":"Standard","recordStatus":"Addition","latitude":52.610992,"longitude":1.73249,"postcodeStart":"NR30 1","postcode":["NR30","1ER"]}
{"price":57000,"dateOfTransfer":"1997-05-14T00:00:00","postcodeFull":"NR30 1QH","propertyType":"Terraced","oldOrNew":"Established","duration":"Freehold","paon":"20","saon":"","street":"APOLLO WALK","locality":"GREAT YARMOUTH","townOrCity":"GREAT YARMOUTH","district":"GREAT YARMOUTH","county":"NORFOLK","ppdCategoryType":"Standard","recordStatus":"Addition","latitude":52.616071,"longitude":1.727166,"postcodeStart":"NR30 1","postcode":["NR30","1QH"]}
{"price":37500,"dateOfTransfer":"1997-01-24T00:00:00","postcodeFull":"NR30 1QB","propertyType":"Terraced","oldOrNew":"Established","duration":"Freehold","paon":"4","saon":"","street":"ORMOND ROAD","locality":"GREAT YARMOUTH","townOrCity":"GREAT YARMOUTH","district":"GREAT YARMOUTH","county":"NORFOLK","ppdCategoryType":"Standard","recordStatus":"Addition","latitude":52.615103,"longitude":1.726758,"postcodeStart":"NR30 1","postcode":["NR30","1QB"]}
{"price":50000,"dateOfTransfer":"1997-11-28T00:00:00","postcodeFull":"NR30 1PX","propertyType":"Detached","oldOrNew":"Established","duration":"Freehold","paon":"10","saon":"","street":"RAMPART ROAD","locality":"GREAT YARMOUTH","townOrCity":"GREAT YARMOUTH","district":"GREAT YARMOUTH","county":"NORFOLK","ppdCategoryType":"Standard","recordStatus":"Addition","latitude":52.612756,"longitude":1.725902,"postcodeStart":"NR30 1","postcode":["NR30","1PX"]}
{"price":29000,"dateOfTransfer":"1997-01-03T00:00:00","postcodeFull":"NR30 1DP","propertyType":"Terraced","oldOrNew":"Established","duration":"Freehold","paon":"31","saon":"","street":"EAST ROAD","locality":"GREAT YARMOUTH","townOrCity":"GREAT YARMOUTH","district":"GREAT YARMOUTH","county":"NORFOLK","ppdCategoryType":"Standard","recordStatus":"Addition","latitude":52.613383,"longitude":1.729694,"postcodeStart":"NR30 1","postcode":["NR30","1DP"]}
{"price":21500,"dateOfTransfer":"1997-08-19T00:00:00","postcodeFull":"NR30 1QJ","propertyType":"Terraced","oldOrNew":"Established","duration":"Freehold","paon":"29","saon":"","street":"ALDERSON ROAD","locality":"GREAT YARMOUTH","townOrCity":"GREAT YARMOUTH","district":"GREAT YARMOUTH","county":"NORFOLK","ppdCategoryType":"Standard","recordStatus":"Addition","latitude":52.615589,"longitude":1.725233,"postcodeStart":"NR30 1","postcode":["NR30","1QJ"]}
{"price":38000,"dateOfTransfer":"1997-08-26T00:00:00","postcodeFull":"NR30 1QF","propertyType":"Terraced","oldOrNew":"Established","duration":"Freehold","paon":"69","saon":"","street":"PALGRAVE ROAD","locality":"GREAT YARMOUTH","townOrCity":"GREAT YARMOUTH","district":"GREAT YARMOUTH","county":"NORFOLK","ppdCategoryType":"Standard","recordStatus":"Addition","latitude":52.616932,"longitude":1.726405,"postcodeStart":"NR30 1","postcode":["NR30","1QF"]}
{"price":19000,"dateOfTransfer":"1997-03-06T00:00:00","postcodeFull":"NR30 1QQ","propertyType":"Terraced","oldOrNew":"Established","duration":"Freehold","paon":"86","saon":"","street":"ALDERSON ROAD","locality":"GREAT YARMOUTH","townOrCity":"GREAT YARMOUTH","district":"GREAT YARMOUTH","county":"NORFOLK","ppdCategoryType":"Standard","recordStatus":"Addition","latitude":52.617347,"longitude":1.72579,"postcodeStart":"NR30 1","postcode":["NR30","1QQ"]}
{"price":70000,"dateOfTransfer":"1997-04-11T00:00:00","postcodeFull":"NR30 1QS","propertyType":"Detached","oldOrNew":"Established","duration":"Leasehold","paon":"69","saon":"","street":"LAWN AVENUE","locality":"GREAT YARMOUTH","townOrCity":"GREAT YARMOUTH","district":"GREAT YARMOUTH","county":"NORFOLK","ppdCategoryType":"Standard","recordStatus":"Addition","latitude":52.616832,"longitude":1.724142,"postcodeStart":"NR30 1","postcode":["NR30","1QS"]}
{"price":31750,"dateOfTransfer":"1997-02-28T00:00:00","postcodeFull":"NR30 1QA","propertyType":"Terraced","oldOrNew":"Established","duration":"Freehold","paon":"192","saon":"","street":"PALGRAVE ROAD","locality":"GREAT YARMOUTH","townOrCity":"GREAT YARMOUTH","district":"GREAT YARMOUTH","county":"NORFOLK","ppdCategoryType":"Standard","recordStatus":"Addition","latitude":52.61441,"longitude":1.72622,"postcodeStart":"NR30 1","postcode":["NR30","1QA"]}
{"price":11000,"dateOfTransfer":"1997-05-22T00:00:00","postcodeFull":"NR30 1LA","propertyType":"Terraced","oldOrNew":"Established","duration":"Freehold","paon":"15","saon":"","street":"SCHOOL ROAD","locality":"GREAT YARMOUTH","townOrCity":"GREAT YARMOUTH","district":"GREAT YARMOUTH","county":"NORFOLK","ppdCategoryType":"Standard","recordStatus":"Addition","latitude":52.613699,"longitude":1.722214,"postcodeStart":"NR30 1","postcode":["NR30","1LA"]}
{"price":38000,"dateOfTransfer":"1997-11-28T00:00:00","postcodeFull":"NR30 1QD","propertyType":"Terraced","oldOrNew":"Established","duration":"Freehold","paon":"176","saon":"","street":"PALGRAVE ROAD","locality":"GREAT YARMOUTH","townOrCity":"GREAT YARMOUTH","district":"GREAT YARMOUTH","county":"NORFOLK","ppdCategoryType":"Standard","recordStatus":"Addition","latitude":52.615573,"longitude":1.726127,"postcodeStart":"NR30 1","postcode":["NR30","1QD"]}
{"price":81500,"dateOfTransfer":"1997-12-05T00:00:00","postcodeFull":"NR30 1QW","propertyType":"Detached","oldOrNew":"Established","duration":"Freehold","paon":"72","saon":"","street":"LAWN AVENUE","locality":"GREAT YARMOUTH","townOrCity":"GREAT YARMOUTH","district":"GREAT YARMOUTH","county":"NORFOLK","ppdCategoryType":"Standard","recordStatus":"Addition","latitude":52.619106,"longitude":1.726471,"postcodeStart":"NR30 1","postcode":["NR30","1QW"]}
