{"price":68000,"dateOfTransfer":"1995-09-15T00:00:00","postcodeFull":"OL3 6JJ","propertyType":"Semi-detached","oldOrNew":"Established","duration":"Leasehold","paon":"49","saon":"","street":"GROVE ROAD","locality":"UPPERMILL","townOrCity":"OLDHAM","district":"OLDHAM","county":"GREATER MANCHESTER","ppdCategoryType":"Standard","recordStatus":"Addition","latitude":53.544655,"longitude":-2.001923,"postcodeStart":"OL3 6","postcode":["OL3","6JJ"]}
{"price":61000,"dateOfTransfer":"1995-05-26T00:00:00","postcodeFull":"OL3 6AL","propertyType":"Flat/Maisonette/Townhouse","oldOrNew":"Established","duration":"Leasehold","paon":"WILLOW BANK","saon":"FLAT 61","street":"VILLAGE GREEN","locality":"UPPERMILL","townOrCity":"OLDHAM","district":"OLDHAM","county":"GREATER MANCHESTER","ppdCategoryType":"Standard","recordStatus":"Addition","latitude":53.548583,"longitude":-2.004157,"postcodeStart":"OL3 6","postcode":["OL3","6AL"]}
{"price":69000,"dateOfTransfer":"1995-02-16T00:00:00","postcodeFull":"OL3 6HG","propertyType":"Semi-detached","oldOrNew":"Established","duration":"Freehold","paon":"4","saon":"","street":"MERLEWOOD AVENUE","locality":"UPPERMILL","townOrCity":"OLDHAM","district":"OLDHAM","county":"GREATER MANCHESTER","ppdCategoryType":"Standard","recordStatus":"Addition","latitude":53.546497,"longitude":-2.003131,"postcodeStart":"OL3 6","postcode":["OL3","6HG"]}
{"price":87000,"dateOfTransfer":"1995-04-28T00:00:00","postcodeFull":"OL3 6HA","propertyType":"Detached","oldOrNew":"Established","duration":"Freehold","paon":"58","saon":"","street":"HIGH STREET","locality":"UPPERMILL","townOrCity":"OLDHAM","district":"OLDHAM","county":"GREATER MANCHESTER","ppdCategoryType":"Standard","recordStatus":"Addition","latitude":53.547342,"longitude":-2.006376,"postcodeStart":"OL3 6","postcode":["OL3","6HA"]}
{"price":33000,"dateOfTransfer":"1995-12-01T00:00:00","postcodeFull":"OL3 6HD","propertyType":"Terraced","oldOrNew":"Established","duration":"Freehold","paon":"30","saon":"","street":"COURT STREET","locality":"UPPERMILL","townOrCity":"OLDHAM","district":"OLDHAM","county":"GREATER MANCHESTER","ppdCategoryType":"Standard","recordStatus":"Addition","latitude":53.54754,"longitude":-2.005516,"postcodeStart":"OL3 6","postcode":["OL3","6HD"]}
{"price":65000,"dateOfTransfer":"1995-10-20T00:00:00","postcodeFull":"OL3 6DX","propertyType":"Semi-detached","oldOrNew":"Established","duration":"Leasehold","paon":"26","saon":"","street":"WELLMEADOW LANE","locality":"UPPERMILL","townOrCity":"OLDHAM","district":"OLDHAM","county":"GREATER MANCHESTER","ppdCategoryType":"Standard","recordStatus":"Addition","latitude":53.550075,"longitude":-1.998981,"postcodeStart":"OL3 6","postcode":["OL3","6DX"]}
{"price":60000,"dateOfTransfer":"1995-02-17T00:00:00","postcodeFull":"OL3 6DB","propertyType":"Terraced","oldOrNew":"Established","duration":"Freehold","paon":"16","saon":"","street":"MOUNT VIEW","locality":"UPPERMILL","townOrCity":"OLDHAM","district":"OLDHAM","county":"GREATER MANCHESTER","ppdCategoryType":"Standard","recordStatus":"Addition","latitude":53.548681,"longitude":-2.008504,"postcodeStart":"OL3 6","postcode":["OL3","6DB"]}
{"price":66000,"dateOfTransfer":"1995-09-29T00:00:00","postcodeFull":"OL3 6EX","propertyType":"Flat/Maisonette/Townhouse","oldOrNew":"Established","duration":"Leasehold","paon":"HOLMDALE","saon":"FLAT 2","street":"HEATHFIELDS SQUARE","locality":"UPPERMILL","townOrCity":"OLDHAM","district":"OLDHAM","county":"GREATER MANCHESTER","ppdCategoryType":"Standard","recordStatus":"Addition","latitude":53.548726,"longitude":-1.997637,"postcodeStart":"OL3 6","postcode":["OL3","6EX"]}
{"price":71000,"dateOfTransfer":"1995-02-17T00:00:00","postcodeFull":"OL3 6EF","propertyType":"Semi-detached","oldOrNew":"Established","duration":"Leasehold","paon":"12","saon":"","street":"SHERBROOKE AVENUE","locality":"UPPERMILL","townOrCity":"OLDHAM","district":"OLDHAM","county":"GREATER MANCHESTER","ppdCategoryType":"Standard","recordStatus":"Addition","latitude":53.551252,"longitude":-2.000052,"postcodeStart":"OL3 6","postcode":["OL3","6EF"]}
{"price":38000,"dateOfTransfer":"1995-07-17T00:00:00","postcodeFull":"OL3 6BD","propertyType":"Flat/Maisonette/Townhouse","oldOrNew":"Established","duration":"Leasehold","paon":"109B","saon":"FLAT 4","street":"HIGH STREET","locality":"UPPERMILL","townOrCity":"OLDHAM","district":"OLDHAM","county":"GREATER MANCHESTER","ppdCategoryType":"Standard","recordStatus":"Addition","latitude":53.549795,"longitude":-2.005453,"postcodeStart":"OL3 6","postcode":["OL3","6BD"]}
{"price":81500,"dateOfTransfer":"1995-10-31T00:00:00","postcodeFull":"OL3 6EJ","propertyType":"Semi-detached","oldOrNew":"Established","duration":"Freehold","paon":"42","saon":"","street":"CHURCH ROAD","locality":"UPPERMILL","townOrCity":"OLDHAM","district":"OLDHAM","county":"GREATER MANCHESTER","ppdCategoryType":"Standard","recordStatus":"Addition","latitude":53.549886,"longitude":-1.996898,"postcodeStart":"OL3 6","postcode":["OL3","6EJ"]}
{"price":64000,"dateOfTransfer":"1995-08-31T00:00:00","postcodeFull":"OL3 6DX","propertyType":"Semi-detached","oldOrNew":"Established","duration":"Leasehold","paon":"34","saon":"","street":"WELLMEADOW LANE","locality":"UPPERMILL","townOrCity":"OLDHAM","district":"OLDHAM","county":"GREATER MANCHESTER","ppdCategoryType":"Standard","recordStatus":"Addition","latitude":53.550075,"longitude":-1.998981,"postcodeStart":"OL3 6","postcode":["OL3","6DX"]}
{"price":61000,"dateOfTransfer":"1995-05-26T00:00:00","postcodeFull":"OL3 6JN","propertyType":"Detached","oldOrNew":"Established","duration":"Leasehold","paon":"17","saon":"","street":"BIRCH ROAD","locality":"UPPERMILL","townOrCity":"OLDHAM","district":"OLDHAM","county":"GREATER MANCHESTER","ppdCategoryType":"Standard","recordStatus":"Addition","latitude":53.545257,"longitude":-2.000882,"postcodeStart":"OL3 6","postcode":["OL3","6JN"]}
{"price":66000,"dateOfTransfer":"1995-10-17T00:00:00","postcodeFull":"OL3 6EA","propertyType":"Semi-detached","oldOrNew":"Established","duration":"Leasehold","paon":"5","saon":"","street":"FERNTHORPE AVENUE","locality":"UPPERMILL","townOrCity":"OLDHAM","district":"OLDHAM","county":"GREATER MANCHESTER","ppdCategoryType":"Standard","recordStatus":"Addition","latitude":53.551117,"longitude":-1.998467,"postcodeStart":"OL3 6","postcode":["OL3","6EA"]}
{"price":55000,"dateOfTransfer":"1995-08-04T00:00:00","postcodeFull":"OL3 6AD","propertyType":"Terraced","oldOrNew":"Established","duration":"Freehold","paon":"6","saon":"","street":"CO OPERATIVE STREET","locality":"UPPERMILL","townOrCity":"OLDHAM","district":"OLDHAM","county":"GREATER MANCHESTER","ppdCategoryType":"Standard","recordStatus":"Addition","latitude":53.547898,"longitude":-2.004985,"postcodeStart":"OL3 6","postcode":["OL3","6AD"]}
{"price":140000,"dateOfTransfer":"1995-10-31T00:00:00","postcodeFull":"OL3 6ES","propertyType":"Semi-detached","oldOrNew":"Established","duration":"Freehold","paon":"7","saon":"","street":"ABELS LANE","locality":"UPPERMILL","townOrCity":"OLDHAM","district":"OLDHAM","county":"GREATER MANCHESTER","ppdCategoryType":"Standard","recordStatus":"Addition","latitude":53.549311,"longitude":-1.996022,"postcodeStart":"OL3 6","postcode":["OL3","6ES"]}
{"price":95000,"dateOfTransfer":"1995-05-05T00:00:00","postcodeFull":"OL3 6ED","propertyType":"Detached","oldOrNew":"Established","duration":"Leasehold","paon":"8","saon":"","street":"RHODES AVENUE","locality":"UPPERMILL","townOrCity":"OLDHAM","district":"OLDHAM","county":"GREATER MANCHESTER","ppdCategoryType":"Standard","recordStatus":"Addition","latitude":53.551818,"longitude":-1.999313,"postcodeStart":"OL3 6","postcode":["OL3","6ED"]}
{"price":51000,"dateOfTransfer":"1995-10-10T00:00:00","postcodeFull":"OL3 6BJ","propertyType":"Terraced","oldOrNew":"Established","duration":"Leasehold","paon":"15","saon":"","street":"CHURCH ROAD","locality":"UPPERMILL","townOrCity":"OLDHAM","district":"OLDHAM","county":"GREATER MANCHESTER","ppdCategoryType":"Standard","recordStatus":"Addition","latitude":53.549068,"longitude":-2.003418,"postcodeStart":"OL3 6","postcode":["OL3","6BJ"]}
{"price":155000,"dateOfTransfer":"1995-07-31T00:00:00","postcodeFull":"OL3 6HH","propertyType":"Detached","oldOrNew":"Established","duration":"Freehold","paon":"48A","saon":"","street":"SPRINGMEADOW LANE","locality":"UPPERMILL","townOrCity":"OLDHAM","district":"OLDHAM","county":"GREATER MANCHESTER","ppdCategoryType":"Standard","recordStatus":"Addition","latitude":53.547621,"longitude":-2.001275,"postcodeStart":"OL3 6","postcode":["OL3","6HH"]}
{"price":67000,"dateOfTransfer":"1995-10-11T00:00:00","postcodeFull":"OL3 6EA","propertyType":"Semi-detached","oldOrNew":"Established","duration":"Leasehold","paon":"23","saon":"","street":"FERNTHORPE AVENUE","locality":"UPPERMILL","townOrCity":"OLDHAM","district":"OLDHAM","county":"GREATER MANCHESTER","ppdCategoryType":"Standard","recordStatus":"Addition","latitude":53.551117,"longitude":-1.998467,"postcodeStart":"OL3 6","postcode":["OL3","6EA"]}
{"price":38500,"dateOfTransfer":"1995-05-25T00:00:00","postcodeFull":"OL3 6BD","propertyType":"Flat/Maisonette/Townhouse","oldOrNew":"Established","duration":"Leasehold","paon":"109B","saon":"FLAT 3","street":"HIGH STREET","locality":"UPPERMILL","townOrCity":"OLDHAM","district":"OLDHAM","county":"GREATER MANCHESTER","ppdCategoryType":"Standard","recordStatus":"Addition","latitude":53.549795,"longitude":-2.005453,"postcodeStart":"OL3 6","postcode":["OL3","6BD"]}
{"price":64250,"dateOfTransfer":"1995-06-16T00:00:00","postcodeFull":"OL3 6DX","propertyType":"Semi-detached","oldOrNew":"Established","duration":"Leasehold","paon":"38","saon":"","street":"WELLMEADOW LANE","locality":"UPPERMILL","townOrCity":"OLDHAM","district":"OLDHAM","county":"GREATER MANCHESTER","ppdCategoryType":"Standard","recordStatus":"Addition","latitude":53.550075,"longitude":-1.998981,"postcodeStart":"OL3 6","postcode":["OL3","6DX"]}
{"price":65000,"dateOfTransfer":"1995-05-03T00:00:00","postcodeFull":"OL3 6HU","propertyType":"Flat/Maisonette/Townhouse","oldOrNew":"Established","duration":"Leasehold","paon":"18","saon":"","street":"GLENGARTH","locality":"UPPERMILL","townOrCity":"OLDHAM","district":"OLDHAM","county":"GREATER MANCHESTER","ppdCategoryType":"Standard","recordStatus":"Addition","latitude":53.543657,"longitude":-2.00473,"postcodeStart":"OL3 6","postcode":["OL3","6HU"]}
{"price":37500,"dateOfTransfer":"1995-01-31T00:00:00","postcodeFull":"OL3 6AE","propertyType":"Semi-detached","oldOrNew":"Established","duration":"Freehold","paon":"33","saon":"","street":"LEE STREET","locality":"UPPERMILL","townOrCity":"OLDHAM","district":"OLDHAM","county":"GREATER MANCHESTER","ppdCategoryType":"Standard","recordStatus":"Addition","latitude":53.5478,"longitude":-2.004248,"postcodeStart":"OL3 6","postcode":["OL3","6AE"]}
{"price":50000,"dateOfTransfer":"1995-05-03T00:00:00","postcodeFull":"OL3 6HU","propertyType":"Flat/Maisonette/Townhouse","oldOrNew":"Established","duration":"Leasehold","paon":"25","saon":"","street":"GLENGARTH","locality":"UPPERMILL","townOrCity":"OLDHAM","district":"OLDHAM","county":"GREATER MANCHESTER","ppdCategoryType":"Standard","recordStatus":"Addition","latitude":53.543657,"longitude":-2.00473,"postcodeStart":"OL3 6","postcode":["OL3","6HU"]}
{"price":68500,"dateOfTransfer":"1995-07-31T00:00:00","postcodeFull":"OL3 6DX","propertyType":"Semi-detached","oldOrNew":"Established","duration":"Leasehold","paon":"32","saon":"","street":"WELLMEADOW LANE","locality":"UPPERMILL","townOrCity":"OLDHAM","district":"OLDHAM","county":"GREATER MANCHESTER","ppdCategoryType":"Standard","recordStatus":"Addition","latitude":53.550075,"longitude":-1.998981,"postcodeStart":"OL3 6","postcode":["OL3","6DX"]}
{"price":34000,"dateOfTransfer":"1995-01-06T00:00:00","postcodeFull":"OL3 6HY","propertyType":"Terraced","oldOrNew":"Established","duration":"Freehold","paon":"18","saon":"","street":"OLDHAM ROAD","locality":"UPPERMILL","townOrCity":"OLDHAM","district":"OLDHAM","county":"GREATER MANCHESTER","ppdCategoryType":"Standard","recordStatus":"Addition","latitude":53.544537,"longitude":-2.009333,"postcodeStart":"OL3 6","postcode":["OL3","6HY"]}
{"price":26000,"dateOfTransfer":"1995-11-29T00:00:00","postcodeFull":"OL3 6HD","propertyType":"Terraced","oldOrNew":"Established","duration":"Freehold","paon":"9","saon":"","street":"COURT STREET","locality":"UPPERMILL","townOrCity":"OLDHAM","district":"OLDHAM","county":"GREATER MANCHESTER","ppdCategoryType":"Standard","recordStatus":"Addition","latitude":53.54754,"longitude":-2.005516,"postcodeStart":"OL3 6","postcode":["OL3","6HD"]}
{"price":35829,"dateOfTransfer":"1995-04-28T00:00:00","postcodeFull":"OL3 6AL","propertyType":"Terraced","oldOrNew":"Established","duration":"Freehold","paon":"3","saon":"","street":"VILLAGE GREEN","locality":"UPPERMILL","townOrCity":"OLDHAM","district":"OLDHAM","county":"GREATER MANCHESTER","ppdCategoryType":"Standard","recordStatus":"Addition","latitude":53.548583,"longitude":-2.004157,"postcodeStart":"OL3 6","postcode":["OL3","6AL"]}
{"price":85000,"dateOfTransfer":"1995-11-03T00:00:00","postcodeFull":"OL3 6AT","propertyType":"Semi-detached","oldOrNew":"Established","duration":"Freehold","paon":"8","saon":"","street":"ST MARYS GATE","locality":"UPPERMILL","townOrCity":"OLDHAM","district":"OLDHAM","county":"GREATER MANCHESTER","ppdCategoryType":"Standard","recordStatus":"Addition","latitude":53.548484,"longitude":-2.006059,"postcodeStart":"OL3 6","postcode":["OL3","6AT"]}
{"price":67000,"dateOfTransfer":"1995-08-25T00:00:00","postcodeFull":"OL3 6EW","propertyType":"Semi-detached","oldOrNew":"Established","duration":"Leasehold","paon":"8","saon":"","street":"HEATHFIELDS ROAD","locality":"UPPERMILL","townOrCity":"OLDHAM","district":"OLDHAM","county":"GREATER MANCHESTER","ppdCategoryType":"Standard","recordStatus":"Addition","latitude":53.549086,"longitude":-1.998875,"postcodeStart":"OL3 6","postcode":["OL3","6EW"]}
{"price":53000,"dateOfTransfer":"1995-10-11T00:00:00","postcodeFull":"OL3 6HY","propertyType":"Semi-detached","oldOrNew":"Established","duration":"Freehold","paon":"28","saon":"","street":"OLDHAM ROAD","locality":"UPPERMILL","townOrCity":"OLDHAM","district":"OLDHAM","county":"GREATER MANCHESTER","ppdCategoryType":"Standard","recordStatus":"Addition","latitude":53.544537,"longitude":-2.009333,"postcodeStart":"OL3 6","postcode":["OL3","6HY"]}
{"price":59950,"dateOfTransfer":"1995-07-31T00:00:00","postcodeFull":"OL3 6JW","propertyType":"Terraced","oldOrNew":"Established","duration":"Leasehold","paon":"6","saon":"","street":"REDWOOD ROAD","locality":"UPPERMILL","townOrCity":"OLDHAM","district":"OLDHAM","county":"GREATER MANCHESTER","ppdCategoryType":"Standard","recordStatus":"Addition","latitude":53.544664,"longitude":-2.000701,"postcodeStart":"OL3 6","postcode":["OL3","6JW"]}
{"price":108500,"dateOfTransfer":"1995-12-12T00:00:00","postcodeFull":"OL3 6DY","propertyType":"Detached","oldOrNew":"Established","duration":"Leasehold","paon":"83","saon":"","street":"CHURCH ROAD","locality":"UPPERMILL","townOrCity":"OLDHAM","district":"OLDHAM","county":"GREATER MANCHESTER","ppdCategoryType":"Standard","recordStatus":"Addition","latitude":53.549778,"longitude":-1.999011,"postcodeStart":"OL3 6","postcode":["OL3","6DY"]}
{"price":115000,"dateOfTransfer":"1995-06-30T00:00:00","postcodeFull":"OL3 6HS","propertyType":"Detached","oldOrNew":"Established","duration":"Leasehold","paon":"41","saon":"","street":"HIGH STREET","locality":"UPPERMILL","townOrCity":"OLDHAM","district":"OLDHAM","county":"GREATER MANCHESTER","ppdCategoryType":"Standard","recordStatus":"Addition","latitude":53.547162,"longitude":-2.007025,"postcodeStart":"OL3 6","postcode":["OL3","6HS"]}
{"price":115000,"dateOfTransfer":"1995-10-31T00:00:00","postcodeFull":"OL3 6DW","propertyType":"Detached","oldOrNew":"Established","duration":"Leasehold","paon":"3","saon":"","street":"BAGNALL CLOSE","locality":"UPPERMILL","townOrCity":"OLDHAM","district":"OLDHAM","county":"GREATER MANCHESTER","ppdCategoryType":"Standard","recordStatus":"Addition","latitude":53.55216,"longitude":-2.000581,"postcodeStart":"OL3 6","postcode":["OL3","6DW"]}
{"price":87600,"dateOfTransfer":"1995-11-21T00:00:00","postcodeFull":"OL3 6ES","propertyType":"Semi-detached","oldOrNew":"Established","duration":"Freehold","paon":"1","saon":"","street":"ABELS LANE","locality":"UPPERMILL","townOrCity":"OLDHAM","district":"OLDHAM","county":"GREATER MANCHESTER","ppdCategoryType":"Standard","recordStatus":"Addition","latitude":53.549311,"longitude":-1.996022,"postcodeStart":"OL3 6","postcode":["OL3","6ES"]}
{"price":48000,"dateOfTransfer":"1995-08-25T00:00:00","postcodeFull":"OL3 6HD","propertyType":"Terraced","oldOrNew":"Established","duration":"Freehold","paon":"22","saon":"","street":"COURT STREET","locality":"UPPERMILL","townOrCity":"OLDHAM","district":"OLDHAM","county":"GREATER MANCHESTER","ppdCategoryType":"Standard","recordStatus":"Addition","latitude":53.54754,"longitude":-2.005516,"postcodeStart":"OL3 6","postcode":["OL3","6HD"]}
{"price":70500,"dateOfTransfer":"1995-01-10T00:00:00","postcodeFull":"OL3 6EL","propertyType":"Semi-detached","oldOrNew":"Established","duration":"Freehold","paon":"30","saon":"","street":"CHURCH ROAD","locality":"UPPERMILL","townOrCity":"OLDHAM","district":"OLDHAM","county":"GREATER MANCHESTER","ppdCategoryType":"Standard","recordStatus":"Addition","latitude":53.549419,"longitude":-1.9988,"postcodeStart":"OL3 6","postcode":["OL3","6EL"]}
{"price":60000,"dateOfTransfer":"1995-10-02T00:00:00","postcodeFull":"OL3 6HY","propertyType":"Detached","oldOrNew":"Established","duration":"Freehold","paon":"38","saon":"","street":"OLDHAM ROAD","locality":"UPPERMILL","townOrCity":"OLDHAM","district":"OLDHAM","county":"GREATER MANCHESTER","ppdCategoryType":"Standard","recordStatus":"Addition","latitude":53.544537,"longitude":-2.009333,"postcodeStart":"OL3 6","postcode":["OL3","6HY"]}
{"price":85500,"dateOfTransfer":"1995-08-30T00:00:00","postcodeFull":"OL3 6EF","propertyType":"Semi-detached","oldOrNew":"Established","duration":"Leasehold","paon":"23","saon":"","street":"SHERBROOKE AVENUE","locality":"UPPERMILL","townOrCity":"OLDHAM","district":"OLDHAM","county":"GREATER MANCHESTER","ppdCategoryType":"Standard","recordStatus":"Addition","latitude":53.551252,"longitude":-2.000052,"postcodeStart":"OL3 6","postcode":["OL3","6EF"]}
{"price":45750,"dateOfTransfer":"1995-01-06T00:00:00","postcodeFull":"OL3 6BW","propertyType":"Semi-detached","oldOrNew":"Established","duration":"Freehold","paon":"4","saon":"","street":"HAWTHORPE GROVE","locality":"UPPERMILL","townOrCity":"OLDHAM","district":"OLDHAM","county":"GREATER MANCHESTER","ppdCategoryType":"Standard","recordStatus":"Addition","latitude":53.550236,"longitude":-2.002754,"postcodeStart":"OL3 6","postcode":["OL3","6BW"]}
{"price":70425,"dateOfTransfer":"1995-12-11T00:00:00","postcodeFull":"OL3 6EA","propertyType":"Semi-detached","oldOrNew":"Established","duration":"Leasehold","paon":"8","saon":"","street":"FERNTHORPE AVENUE","locality":"UPPERMILL","townOrCity":"OLDHAM","district":"OLDHAM","county":"GREATER MANCHESTER","ppdCategoryType":"Standard","recordStatus":"Addition","latitude":53.551117,"longitude":-1.998467,"postcodeStart":"OL3 6","postcode":["OL3","6EA"]}
{"price":78000,"dateOfTransfer":"1995-12-20T00:00:00","postcodeFull":"OL3 6BJ","propertyType":"Terraced","oldOrNew":"Established","duration":"Freehold","paon":"23","saon":"","street":"CHURCH ROAD","locality":"UPPERMILL","townOrCity":"OLDHAM","district":"OLDHAM","county":"GREATER MANCHESTER","ppdCategoryType":"Standard","recordStatus":"Addition","latitude":53.549068,"longitude":-2.003418,"postcodeStart":"OL3 6","postcode":["OL3","6BJ"]}
{"price":72000,"dateOfTransfer":"1995-06-16T00:00:00","postcodeFull":"OL3 6JW","propertyType":"Semi-detached","oldOrNew":"Established","duration":"Leasehold","paon":"3","saon":"","street":"REDWOOD ROAD","locality":"UPPERMILL","townOrCity":"OLDHAM","district":"OLDHAM","county":"GREATER MANCHESTER","ppdCategoryType":"Standard","recordStatus":"Addition","latitude":53.544664,"longitude":-2.000701,"postcodeStart":"OL3 6","postcode":["OL3","6JW"]}
{"price":49000,"dateOfTransfer":"1995-06-02T00:00:00","postcodeFull":"OL3 6AL","propertyType":"Flat/Maisonette/Townhouse","oldOrNew":"Established","duration":"Leasehold","paon":"WILLOW BANK","saon":"FLAT 35","street":"VILLAGE GREEN","locality":"UPPERMILL","townOrCity":"OLDHAM","district":"OLDHAM","county":"GREATER MANCHESTER","ppdCategoryType":"Standard","recordStatus":"Addition","latitude":53.548583,"longitude":-2.004157,"postcodeStart":"OL3 6","postcode":["OL3","6AL"]}
{"price":47500,"dateOfTransfer":"1995-04-13T00:00:00","postcodeFull":"OL3 6DY","propertyType":"Terraced","oldOrNew":"Established","duration":"Freehold","paon":"89","saon":"","street":"CHURCH ROAD","locality":"UPPERMILL","townOrCity":"OLDHAM","district":"OLDHAM","county":"GREATER MANCHESTER","ppdCategoryType":"Standard","recordStatus":"Addition","latitude":53.549778,"longitude":-1.999011,"postcodeStart":"OL3 6","postcode":["OL3","6DY"]}
{"price":53500,"dateOfTransfer":"1995-01-27T00:00:00","postcodeFull":"OL3 6BN","propertyType":"Terraced","oldOrNew":"Established","duration":"Leasehold","paon":"1A","saon":"","street":"PICKHILL","locality":"UPPERMILL","townOrCity":"OLDHAM","district":"OLDHAM","county":"GREATER MANCHESTER","ppdCategoryType":"Standard","recordStatus":"Addition","latitude":53.549859,"longitude":-2.003086,"postcodeStart":"OL3 6","postcode":["OL3","6BN"]}
{"price":60000,"dateOfTransfer":"1995-09-08T00:00:00","postcodeFull":"OL3 6BD","propertyType":"Flat/Maisonette/Townhouse","oldOrNew":"New build","duration":"Leasehold","paon":"SADDLEWORTH HOUSE","saon":"APARTMENT 1","street":"HIGH STREET","locality":"UPPERMILL","townOrCity":"OLDHAM","district":"OLDHAM","county":"GREATER MANCHESTER","ppdCategoryType":"Standard","recordStatus":"Addition","latitude":53.549795,"longitude":-2.005453,"postcodeStart":"OL3 6","postcode":["OL3","6BD"]}
{"price":79000,"dateOfTransfer":"1995-10-19T00:00:00","postcodeFull":"OL3 6JJ","propertyType":"Semi-detached","oldOrNew":"Established","duration":"Leasehold","paon":"35","saon":"","street":"GROVE ROAD","locality":"UPPERMILL","townOrCity":"OLDHAM","district":"OLDHAM","county":"GREATER MANCHESTER","ppdCategoryType":"Standard","recordStatus":"Addition","latitude":53.544655,"longitude":-2.001923,"postcodeStart":"OL3 6","postcode":["OL3","6JJ"]}
{"price":50000,"dateOfTransfer":"1995-12-21T00:00:00","postcodeFull":"OL3 6AN","propertyType":"Terraced","oldOrNew":"Established","duration":"Freehold","paon":"1","saon":"","street":"BOLTONS YARD","locality":"UPPERMILL","townOrCity":"OLDHAM","district":"OLDHAM","county":"GREATER MANCHESTER","ppdCategoryType":"Standard","recordStatus":"Addition","latitude":53.548511,"longitude":-2.004686,"postcodeStart":"OL3 6","postcode":["OL3","6AN"]}
{"price":85000,"dateOfTransfer":"1995-11-17T00:00:00","postcodeFull":"OL3 6BJ","propertyType":"Terraced","oldOrNew":"Established","duration":"Freehold","paon":"21","saon":"","street":"CHURCH ROAD","locality":"UPPERMILL","townOrCity":"OLDHAM","district":"OLDHAM","county":"GREATER MANCHESTER","ppdCategoryType":"Standard","recordStatus":"Addition","latitude":53.549068,"longitude":-2.003418,"postcodeStart":"OL3 6","postcode":["OL3","6BJ"]}
{"price":90000,"dateOfTransfer":"1996-09-27T00:00:00","postcodeFull":"OL3 6ES","propertyType":"Semi-detached","oldOrNew":"Established","duration":"Freehold","paon":"1","saon":"","street":"ABELS LANE","locality":"UPPERMILL","townOrCity":"OLDHAM","district":"OLDHAM","county":"GREATER MANCHESTER","ppdCategoryType":"Standard","recordStatus":"Addition","latitude":53.549311,"longitude":-1.996022,"postcodeStart":"OL3 6","postcode":["OL3","6ES"]}
{"price":92950,"dateOfTransfer":"1996-12-20T00:00:00","postcodeFull":"OL3 6DL","propertyType":"Detached","oldOrNew":"New build","duration":"Leasehold","paon":"10","saon":"","street":"PICKMERE MEWS","locality":"UPPERMILL","townOrCity":"OLDHAM","district":"OLDHAM","county":"GREATER MANCHESTER","ppdCategoryType":"Standard","recordStatus":"Addition","latitude":53.550083,"longitude":-2.007221,"postcodeStart":"OL3 6","postcode":["OL3","6DL"]}
{"price":84500,"dateOfTransfer":"1996-10-30T00:00:00","postcodeFull":"OL3 6JR","propertyType":"Terraced","oldOrNew":"Established","duration":"Freehold","paon":"16A","saon":"","street":"GROVE ROAD","locality":"UPPERMILL","townOrCity":"OLDHAM","district":"OLDHAM","county":"GREATER MANCHESTER","ppdCategoryType":"Standard","recordStatus":"Addition","latitude":53.546021,"longitude":-2.001924,"postcodeStart":"OL3 6","postcode":["OL3","6JR"]}
{"price":138000,"dateOfTransfer":"1996-10-18T00:00:00","postcodeFull":"OL3 6BD","propertyType":"Semi-detached","oldOrNew":"Established","duration":"Freehold","paon":"159","saon":"","street":"HIGH STREET","locality":"UPPERMILL","townOrCity":"OLDHAM","district":"OLDHAM","county":"GREATER MANCHESTER","ppdCategoryType":"Standard","recordStatus":"Addition","latitude":53.549795,"longitude":-2.005453,"postcodeStart":"OL3 6","postcode":["OL3","6BD"]}
{"price":132000,"dateOfTransfer":"1996-08-09T00:00:00","postcodeFull":"OL3 6LD","propertyType":"Detached","oldOrNew":"Established","duration":"Leasehold","paon":"2","saon":"","street":"RUSHGROVE","locality":"UPPERMILL","townOrCity":"OLDHAM","district":"OLDHAM","county":"GREATER MANCHESTER","ppdCategoryType":"Standard","recordStatus":"Addition","latitude":53.543909,"longitude":-2.002859,"postcodeStart":"OL3 6","postcode":["OL3","6LD"]}
{"price":124000,"dateOfTransfer":"1996-06-14T00:00:00","postcodeFull":"OL3 6EJ","propertyType":"Semi-detached","oldOrNew":"Established","duration":"Freehold","paon":"44","saon":"","street":"CHURCH ROAD","locality":"UPPERMILL","townOrCity":"OLDHAM","district":"OLDHAM","county":"GREATER MANCHESTER","ppdCategoryType":"Standard","recordStatus":"Addition","latitude":53.549886,"longitude":-1.996898,"postcodeStart":"OL3 6","postcode":["OL3","6EJ"]}
{"price":58000,"dateOfTransfer":"1996-06-25T00:00:00","postcodeFull":"OL3 6JU","propertyType":"Terraced","oldOrNew":"Established","duration":"Freehold","paon":"10","saon":"","street":"BANKSIDE AVENUE","locality":"UPPERMILL","townOrCity":"OLDHAM","district":"OLDHAM","county":"GREATER MANCHESTER","ppdCategoryType":"Standard","recordStatus":"Addition","latitude":53.545778,"longitude":-2.000822,"postcodeStart":"OL3 6","postcode":["OL3","6JU"]}
{"price":69950,"dateOfTransfer":"1996-08-30T00:00:00","postcodeFull":"OL3 6BE","propertyType":"Flat/Maisonette/Townhouse","oldOrNew":"New build","duration":"Leasehold","paon":"7","saon":"","street":"OUTRAM MEWS","locality":"UPPERMILL","townOrCity":"OLDHAM","district":"OLDHAM","county":"GREATER MANCHESTER","ppdCategoryType":"Standard","recordStatus":"Addition","latitude":53.550955,"longitude":-2.006271,"postcodeStart":"OL3 6","postcode":["OL3","6BE"]}
{"price":66500,"dateOfTransfer":"1996-06-26T00:00:00","postcodeFull":"OL3 6EX","propertyType":"Flat/Maisonette/Townhouse","oldOrNew":"Established","duration":"Leasehold","paon":"HOLMDALE","saon":"FLAT 3","street":"HEATHFIELDS SQUARE","locality":"UPPERMILL","townOrCity":"OLDHAM","district":"OLDHAM","county":"GREATER MANCHESTER","ppdCategoryType":"Standard","recordStatus":"Addition","latitude":53.548726,"longitude":-1.997637,"postcodeStart":"OL3 6","postcode":["OL3","6EX"]}
{"price":64950,"dateOfTransfer":"1996-06-28T00:00:00","postcodeFull":"OL3 6BS","propertyType":"Semi-detached","oldOrNew":"New build","duration":"Leasehold","paon":"7","saon":"","street":"TELFORD MEWS","locality":"UPPERMILL","townOrCity":"OLDHAM","district":"OLDHAM","county":"GREATER MANCHESTER","ppdCategoryType":"Standard","recordStatus":"Addition","latitude":53.550434,"longitude":-2.006542,"postcodeStart":"OL3 6","postcode":["OL3","6BS"]}
{"price":69000,"dateOfTransfer":"1996-08-16T00:00:00","postcodeFull":"OL3 6JJ","propertyType":"Semi-detached","oldOrNew":"Established","duration":"Leasehold","paon":"43","saon":"","street":"GROVE ROAD","locality":"UPPERMILL","townOrCity":"OLDHAM","district":"OLDHAM","county":"GREATER MANCHESTER","ppdCategoryType":"Standard","recordStatus":"Addition","latitude":53.544655,"longitude":-2.001923,"postcodeStart":"OL3 6","postcode":["OL3","6JJ"]}
{"price":77500,"dateOfTransfer":"1996-12-06T00:00:00","postcodeFull":"OL3 6EF","propertyType":"Semi-detached","oldOrNew":"Established","duration":"Leasehold","paon":"27","saon":"","street":"SHERBROOKE AVENUE","locality":"UPPERMILL","townOrCity":"OLDHAM","district":"OLDHAM","county":"GREATER MANCHESTER","ppdCategoryType":"Standard","recordStatus":"Addition","latitude":53.551252,"longitude":-2.000052,"postcodeStart":"OL3 6","postcode":["OL3","6EF"]}
{"price":68000,"dateOfTransfer":"1996-07-23T00:00:00","postcodeFull":"OL3 6EP","propertyType":"Semi-detached","oldOrNew":"Established","duration":"Freehold","paon":"8","saon":"","street":"SPRINGMEADOW LANE","locality":"UPPERMILL","townOrCity":"OLDHAM","district":"OLDHAM","county":"GREATER MANCHESTER","ppdCategoryType":"Standard","recordStatus":"Addition","latitude":53.549327,"longitude":-1.997348,"postcodeStart":"OL3 6","postcode":["OL3","6EP"]}
{"price":39000,"dateOfTransfer":"1996-07-19T00:00:00","postcodeFull":"OL3 6HD","propertyType":"Semi-detached","oldOrNew":"Established","duration":"Freehold","paon":"15","saon":"","street":"COURT STREET","locality":"UPPERMILL","townOrCity":"OLDHAM","district":"OLDHAM","county":"GREATER MANCHESTER","ppdCategoryType":"Standard","recordStatus":"Addition","latitude":53.54754,"longitude":-2.005516,"postcodeStart":"OL3 6","postcode":["OL3","6HD"]}
{"price":69950,"dateOfTransfer":"1996-12-06T00:00:00","postcodeFull":"OL3 6BE","propertyType":"Flat/Maisonette/Townhouse","oldOrNew":"New build","duration":"Leasehold","paon":"9","saon":"","street":"OUTRAM MEWS","locality":"UPPERMILL","townOrCity":"OLDHAM","district":"OLDHAM","county":"GREATER MANCHESTER","ppdCategoryType":"Standard","recordStatus":"Addition","latitude":53.550955,"longitude":-2.006271,"postcodeStart":"OL3 6","postcode":["OL3","6BE"]}
{"price":98000,"dateOfTransfer":"1996-12-04T00:00:00","postcodeFull":"OL3 6JN","propertyType":"Detached","oldOrNew":"Established","duration":"Leasehold","paon":"2","saon":"","street":"BIRCH ROAD","locality":"UPPERMILL","townOrCity":"OLDHAM","district":"OLDHAM","county":"GREATER MANCHESTER","ppdCategoryType":"Standard","recordStatus":"Addition","latitude":53.545257,"longitude":-2.000882,"postcodeStart":"OL3 6","postcode":["OL3","6JN"]}
{"price":122000,"dateOfTransfer":"1996-03-01T00:00:00","postcodeFull":"OL3 6DJ","propertyType":"Detached","oldOrNew":"Established","duration":"Freehold","paon":"6","saon":"","street":"WALKERS CLOSE","locality":"UPPERMILL","townOrCity":"OLDHAM","district":"OLDHAM","county":"GREATER MANCHESTER","ppdCategoryType":"Standard","recordStatus":"Addition","latitude":53.54825,"longitude":-2.002558,"postcodeStart":"OL3 6","postcode":["OL3","6DJ"]}
{"price":74500,"dateOfTransfer":"1996-02-02T00:00:00","postcodeFull":"OL3 6HX","propertyType":"Detached","oldOrNew":"Established","duration":"Freehold","paon":"2","saon":"","street":"HIGH STREET","locality":"UPPERMILL","townOrCity":"OLDHAM","district":"OLDHAM","county":"GREATER MANCHESTER","ppdCategoryType":"Standard","recordStatus":"Addition","latitude":53.546111,"longitude":-2.007658,"postcodeStart":"OL3 6","postcode":["OL3","6HX"]}
{"price":47500,"dateOfTransfer":"1996-09-02T00:00:00","postcodeFull":"OL3 6BA","propertyType":"Terraced","oldOrNew":"Established","duration":"Freehold","paon":"10","saon":"","street":"WADE ROW","locality":"UPPERMILL","townOrCity":"OLDHAM","district":"OLDHAM","county":"GREATER MANCHESTER","ppdCategoryType":"Standard","recordStatus":"Addition","latitude":53.54905,"longitude":-2.00701,"postcodeStart":"OL3 6","postcode":["OL3","6BA"]}
{"price":45000,"dateOfTransfer":"1996-02-15T00:00:00","postcodeFull":"OL3 6BA","propertyType":"Terraced","oldOrNew":"Established","duration":"Freehold","paon":"1","saon":"","street":"WADE ROW","locality":"UPPERMILL","townOrCity":"OLDHAM","district":"OLDHAM","county":"GREATER MANCHESTER","ppdCategoryType":"Standard","recordStatus":"Addition","latitude":53.54905,"longitude":-2.00701,"postcodeStart":"OL3 6","postcode":["OL3","6BA"]}
{"price":79950,"dateOfTransfer":"1996-06-21T00:00:00","postcodeFull":"OL3 6BS","propertyType":"Terraced","oldOrNew":"New build","duration":"Leasehold","paon":"1","saon":"","street":"TELFORD MEWS","locality":"UPPERMILL","townOrCity":"OLDHAM","district":"OLDHAM","county":"GREATER MANCHESTER","ppdCategoryType":"Standard","recordStatus":"Addition","latitude":53.550434,"longitude":-2.006542,"postcodeStart":"OL3 6","postcode":["OL3","6BS"]}
{"price":59950,"dateOfTransfer":"1996-02-23T00:00:00","postcodeFull":"OL3 6DX","propertyType":"Semi-detached","oldOrNew":"Established","duration":"Leasehold","paon":"40","saon":"","street":"WELLMEADOW LANE","locality":"UPPERMILL","townOrCity":"OLDHAM","district":"OLDHAM","county":"GREATER MANCHESTER","ppdCategoryType":"Standard","recordStatus":"Addition","latitude":53.550075,"longitude":-1.998981,"postcodeStart":"OL3 6","postcode":["OL3","6DX"]}
{"price":49950,"dateOfTransfer":"1996-10-31T00:00:00","postcodeFull":"OL3 6BE","propertyType":"Flat/Maisonette/Townhouse","oldOrNew":"New build","duration":"Leasehold","paon":"1","saon":"","street":"OUTRAM MEWS","locality":"UPPERMILL","townOrCity":"OLDHAM","district":"OLDHAM","county":"GREATER MANCHESTER","ppdCategoryType":"Standard","recordStatus":"Addition","latitude":53.550955,"longitude":-2.006271,"postcodeStart":"OL3 6","postcode":["OL3","6BE"]}
{"price":45000,"dateOfTransfer":"1996-06-25T00:00:00","postcodeFull":"OL3 6DT","propertyType":"Terraced","oldOrNew":"Established","duration":"Leasehold","paon":"11A","saon":"","street":"WELLMEADOW LANE","locality":"UPPERMILL","townOrCity":"OLDHAM","district":"OLDHAM","county":"GREATER MANCHESTER","ppdCategoryType":"Standard","recordStatus":"Addition","latitude":53.550066,"longitude":-2.001184,"postcodeStart":"OL3 6","postcode":["OL3","6DT"]}
{"price":63750,"dateOfTransfer":"1996-11-04T00:00:00","postcodeFull":"OL3 6EX","propertyType":"Flat/Maisonette/Townhouse","oldOrNew":"Established","duration":"Leasehold","paon":"HOLMDALE","saon":"FLAT 1","street":"HEATHFIELDS SQUARE","locality":"UPPERMILL","townOrCity":"OLDHAM","district":"OLDHAM","county":"GREATER MANCHESTER","ppdCategoryType":"Standard","recordStatus":"Addition","latitude":53.548726,"longitude":-1.997637,"postcodeStart":"OL3 6","postcode":["OL3","6EX"]}
{"price":37500,"dateOfTransfer":"1996-10-25T00:00:00","postcodeFull":"OL3 6HZ","propertyType":"Terraced","oldOrNew":"Established","duration":"Freehold","paon":"9","saon":"","street":"BRIDGE STREET","locality":"UPPERMILL","townOrCity":"OLDHAM","district":"OLDHAM","county":"GREATER MANCHESTER","ppdCategoryType":"Standard","recordStatus":"Addition","latitude":53.545931,"longitude":-2.007251,"postcodeStart":"OL3 6","postcode":["OL3","6HZ"]}
{"price":72500,"dateOfTransfer":"1996-12-18T00:00:00","postcodeFull":"OL3 6HD","propertyType":"Semi-detached","oldOrNew":"Established","duration":"Freehold","paon":"11","saon":"","street":"COURT STREET","locality":"UPPERMILL","townOrCity":"OLDHAM","district":"OLDHAM","county":"GREATER MANCHESTER","ppdCategoryType":"Standard","recordStatus":"Addition","latitude":53.54754,"longitude":-2.005516,"postcodeStart":"OL3 6","postcode":["OL3","6HD"]}
{"price":68750,"dateOfTransfer":"1996-08-13T00:00:00","postcodeFull":"OL3 6AL","propertyType":"Flat/Maisonette/Townhouse","oldOrNew":"New build","duration":"Leasehold","paon":"WILLOW BANK","saon":"FLAT 63","street":"VILLAGE GREEN","locality":"UPPERMILL","townOrCity":"OLDHAM","district":"OLDHAM","county":"GREATER MANCHESTER","ppdCategoryType":"Standard","recordStatus":"Addition","latitude":53.548583,"longitude":-2.004157,"postcodeStart":"OL3 6","postcode":["OL3","6AL"]}
{"price":60000,"dateOfTransfer":"1996-08-23T00:00:00","postcodeFull":"OL3 6HX","propertyType":"Terraced","oldOrNew":"Established","duration":"Freehold","paon":"8","saon":"","street":"HIGH STREET","locality":"UPPERMILL","townOrCity":"OLDHAM","district":"OLDHAM","county":"GREATER MANCHESTER","ppdCategoryType":"Standard","recordStatus":"Addition","latitude":53.546111,"longitude":-2.007658,"postcodeStart":"OL3 6","postcode":["OL3","6HX"]}
{"price":148000,"dateOfTransfer":"1996-11-08T00:00:00","postcodeFull":"OL3 6HP","propertyType":"Detached","oldOrNew":"Established","duration":"Freehold","paon":"FORESTFIELD","saon":"","street":"SPRINGMEADOW LANE","locality":"UPPERMILL","townOrCity":"OLDHAM","district":"OLDHAM","county":"GREATER MANCHESTER","ppdCategoryType":"Standard","recordStatus":"Addition","latitude":53.546938,"longitude":-1.999826,"postcodeStart":"OL3 6","postcode":["OL3","6HP"]}
{"price":77500,"dateOfTransfer":"1996-10-25T00:00:00","postcodeFull":"OL3 6DY","propertyType":"Semi-detached","oldOrNew":"Established","duration":"Leasehold","paon":"79","saon":"","street":"CHURCH ROAD","locality":"UPPERMILL","townOrCity":"OLDHAM","district":"OLDHAM","county":"GREATER MANCHESTER","ppdCategoryType":"Standard","recordStatus":"Addition","latitude":53.549778,"longitude":-1.999011,"postcodeStart":"OL3 6","postcode":["OL3","6DY"]}
{"price":87000,"dateOfTransfer":"1996-10-21T00:00:00","postcodeFull":"OL3 6BZ","propertyType":"Semi-detached","oldOrNew":"Established","duration":"Freehold","paon":"18","saon":"","street":"BROWNHILL LANE","locality":"UPPERMILL","townOrCity":"OLDHAM","district":"OLDHAM","county":"GREATER MANCHESTER","ppdCategoryType":"Standard","recordStatus":"Addition","latitude":53.55429,"longitude":-2.00526,"postcodeStart":"OL3 6","postcode":["OL3","6BZ"]}
{"price":59950,"dateOfTransfer":"1996-08-07T00:00:00","postcodeFull":"OL3 6DB","propertyType":"Terraced","oldOrNew":"Established","duration":"Freehold","paon":"6","saon":"","street":"MOUNT VIEW","locality":"UPPERMILL","townOrCity":"OLDHAM","district":"OLDHAM","county":"GREATER MANCHESTER","ppdCategoryType":"Standard","recordStatus":"Addition","latitude":53.548681,"longitude":-2.008504,"postcodeStart":"OL3 6","postcode":["OL3","6DB"]}
{"price":43000,"dateOfTransfer":"1996-08-30T00:00:00","postcodeFull":"OL3 6HD","propertyType":"Terraced","oldOrNew":"Established","duration":"Freehold","paon":"9","saon":"","street":"COURT STREET","locality":"UPPERMILL","townOrCity":"OLDHAM","district":"OLDHAM","county":"GREATER MANCHESTER","ppdCategoryType":"Standard","recordStatus":"Addition","latitude":53.54754,"longitude":-2.005516,"postcodeStart":"OL3 6","postcode":["OL3","6HD"]}
{"price":93500,"dateOfTransfer":"1996-10-28T00:00:00","postcodeFull":"OL3 6ED","propertyType":"Detached","oldOrNew":"Established","duration":"Freehold","paon":"3","saon":"","street":"RHODES AVENUE","locality":"UPPERMILL","townOrCity":"OLDHAM","district":"OLDHAM","county":"GREATER MANCHESTER","ppdCategoryType":"Standard","recordStatus":"Addition","latitude":53.551818,"longitude":-1.999313,"postcodeStart":"OL3 6","postcode":["OL3","6ED"]}
{"price":60000,"dateOfTransfer":"1996-03-11T00:00:00","postcodeFull":"OL3 6EA","propertyType":"Semi-detached","oldOrNew":"Established","duration":"Leasehold","paon":"7","saon":"","street":"FERNTHORPE AVENUE","locality":"UPPERMILL","townOrCity":"OLDHAM","district":"OLDHAM","county":"GREATER MANCHESTER","ppdCategoryType":"Standard","recordStatus":"Addition","latitude":53.551117,"longitude":-1.998467,"postcodeStart":"OL3 6","postcode":["OL3","6EA"]}
{"price":92000,"dateOfTransfer":"1996-11-08T00:00:00","postcodeFull":"OL3 6DT","propertyType":"Detached","oldOrNew":"Established","duration":"Leasehold","paon":"29","saon":"","street":"WELLMEADOW LANE","locality":"UPPERMILL","townOrCity":"OLDHAM","district":"OLDHAM","county":"GREATER MANCHESTER","ppdCategoryType":"Standard","recordStatus":"Addition","latitude":53.550066,"longitude":-2.001184,"postcodeStart":"OL3 6","postcode":["OL3","6DT"]}
{"price":56950,"dateOfTransfer":"1996-08-05T00:00:00","postcodeFull":"OL3 6BS","propertyType":"Flat/Maisonette/Townhouse","oldOrNew":"New build","duration":"Leasehold","paon":"10","saon":"","street":"TELFORD MEWS","locality":"UPPERMILL","townOrCity":"OLDHAM","district":"OLDHAM","county":"GREATER MANCHESTER","ppdCategoryType":"Standard","recordStatus":"Addition","latitude":53.550434,"longitude":-2.006542,"postcodeStart":"OL3 6","postcode":["OL3","6BS"]}
{"price":79950,"dateOfTransfer":"1996-06-26T00:00:00","postcodeFull":"OL3 6BS","propertyType":"Semi-detached","oldOrNew":"New build","duration":"Leasehold","paon":"3","saon":"","street":"TELFORD MEWS","locality":"UPPERMILL","townOrCity":"OLDHAM","district":"OLDHAM","county":"GREATER MANCHESTER","ppdCategoryType":"Standard","recordStatus":"Addition","latitude":53.550434,"longitude":-2.006542,"postcodeStart":"OL3 6","postcode":["OL3","6BS"]}
{"price":101500,"dateOfTransfer":"1996-10-25T00:00:00","postcodeFull":"OL3 6ER","propertyType":"Detached","oldOrNew":"Established","duration":"Freehold","paon":"3","saon":"","street":"WHITE BROOK LANE","locality":"UPPERMILL","townOrCity":"OLDHAM","district":"OLDHAM","county":"GREATER MANCHESTER","ppdCategoryType":"Standard","recordStatus":"Addition","latitude":53.548717,"longitude":-1.996792,"postcodeStart":"OL3 6","postcode":["OL3","6ER"]}
{"price":89950,"dateOfTransfer":"1996-07-12T00:00:00","postcodeFull":"OL3 6BS","propertyType":"Terraced","oldOrNew":"New build","duration":"Leasehold","paon":"4","saon":"","street":"TELFORD MEWS","locality":"UPPERMILL","townOrCity":"OLDHAM","district":"OLDHAM","county":"GREATER MANCHESTER","ppdCategoryType":"Standard","recordStatus":"Addition","latitude":53.550434,"longitude":-2.006542,"postcodeStart":"OL3 6","postcode":["OL3","6BS"]}
{"price":82950,"dateOfTransfer":"1996-11-15T00:00:00","postcodeFull":"OL3 6BS","propertyType":"Terraced","oldOrNew":"New build","duration":"Leasehold","paon":"2","saon":"","street":"TELFORD MEWS","locality":"UPPERMILL","townOrCity":"OLDHAM","district":"OLDHAM","county":"GREATER MANCHESTER","ppdCategoryType":"Standard","recordStatus":"Addition","latitude":53.550434,"longitude":-2.006542,"postcodeStart":"OL3 6","postcode":["OL3","6BS"]}
{"price":49950,"dateOfTransfer":"1996-12-06T00:00:00","postcodeFull":"OL3 6BE","propertyType":"Flat/Maisonette/Townhouse","oldOrNew":"New build","duration":"Leasehold","paon":"12","saon":"","street":"OUTRAM MEWS","locality":"UPPERMILL","townOrCity":"OLDHAM","district":"OLDHAM","county":"GREATER MANCHESTER","ppdCategoryType":"Standard","recordStatus":"Addition","latitude":53.550955,"longitude":-2.006271,"postcodeStart":"OL3 6","postcode":["OL3","6BE"]}
{"price":90000,"dateOfTransfer":"1996-09-20T00:00:00","postcodeFull":"OL3 6ED","propertyType":"Detached","oldOrNew":"Established","duration":"Leasehold","paon":"2","saon":"","street":"RHODES AVENUE","locality":"UPPERMILL","townOrCity":"OLDHAM","district":"OLDHAM","county":"GREATER MANCHESTER","ppdCategoryType":"Standard","recordStatus":"Addition","latitude":53.551818,"longitude":-1.999313,"postcodeStart":"OL3 6","postcode":["OL3","6ED"]}
{"price":59995,"dateOfTransfer":"1996-12-13T00:00:00","postcodeFull":"OL3 6DU","propertyType":"Detached","oldOrNew":"Established","duration":"Leasehold","paon":"31","saon":"","street":"WELLMEADOW LANE","locality":"UPPERMILL","townOrCity":"OLDHAM","district":"OLDHAM","county":"GREATER MANCHESTER","ppdCategoryType":"Standard","recordStatus":"Addition","latitude":53.550623,"longitude":-1.997924,"postcodeStart":"OL3 6","postcode":["OL3","6DU"]}
{"price":48250,"dateOfTransfer":"1996-11-15T00:00:00","postcodeFull":"OL3 6BD","propertyType":"Flat/Maisonette/Townhouse","oldOrNew":"Established","duration":"Leasehold","paon":"SADDLEWORTH HOUSE","saon":"APARTMENT 2","street":"HIGH STREET","locality":"UPPERMILL","townOrCity":"OLDHAM","district":"OLDHAM","county":"GREATER MANCHESTER","ppdCategoryType":"Standard","recordStatus":"Addition","latitude":53.549795,"longitude":-2.005453,"postcodeStart":"OL3 6","postcode":["OL3","6BD"]}
{"price":55000,"dateOfTransfer":"1996-01-26T00:00:00","postcodeFull":"OL3 6BT","propertyType":"Semi-detached","oldOrNew":"Established","duration":"Freehold","paon":"116","saon":"","street":"HIGH STREET","locality":"UPPERMILL","townOrCity":"OLDHAM","district":"OLDHAM","county":"GREATER MANCHESTER","ppdCategoryType":"Standard","recordStatus":"Addition","latitude":53.551252,"longitude":-2.005305,"postcodeStart":"OL3 6","postcode":["OL3","6BT"]}
{"price":53000,"dateOfTransfer":"1996-05-24T00:00:00","postcodeFull":"OL3 6AD","propertyType":"Terraced","oldOrNew":"Established","duration":"Freehold","paon":"2","saon":"","street":"CO OPERATIVE STREET","locality":"UPPERMILL","townOrCity":"OLDHAM","district":"OLDHAM","county":"GREATER MANCHESTER","ppdCategoryType":"Standard","recordStatus":"Addition","latitude":53.547898,"longitude":-2.004985,"postcodeStart":"OL3 6","postcode":["OL3","6AD"]}
{"price":79950,"dateOfTransfer":"1996-08-09T00:00:00","postcodeFull":"OL3 6BS","propertyType":"Detached","oldOrNew":"New build","duration":"Leasehold","paon":"8","saon":"","street":"TELFORD MEWS","locality":"UPPERMILL","townOrCity":"OLDHAM","district":"OLDHAM","county":"GREATER MANCHESTER","ppdCategoryType":"Standard","recordStatus":"Addition","latitude":53.550434,"longitude":-2.006542,"postcodeStart":"OL3 6","postcode":["OL3","6BS"]}
{"price":71520,"dateOfTransfer":"1996-10-04T00:00:00","postcodeFull":"OL3 6BH","propertyType":"Terraced","oldOrNew":"Established","duration":"Leasehold","paon":"4","saon":"","street":"CHURCH ROAD","locality":"UPPERMILL","townOrCity":"OLDHAM","district":"OLDHAM","county":"GREATER MANCHESTER","ppdCategoryType":"Standard","recordStatus":"Addition","latitude":53.548762,"longitude":-2.004504,"postcodeStart":"OL3 6","postcode":["OL3","6BH"]}
{"price":70000,"dateOfTransfer":"1996-09-24T00:00:00","postcodeFull":"OL3 6AQ","propertyType":"Flat/Maisonette/Townhouse","oldOrNew":"Established","duration":"Leasehold","paon":"2","saon":"","street":"SMITHY YARD","locality":"UPPERMILL","townOrCity":"OLDHAM","district":"OLDHAM","county":"GREATER MANCHESTER","ppdCategoryType":"Standard","recordStatus":"Addition","latitude":53.548536,"longitude":-2.005196,"postcodeStart":"OL3 6","postcode":["OL3","6AQ"]}
{"price":79000,"dateOfTransfer":"1996-09-11T00:00:00","postcodeFull":"OL3 6AL","propertyType":"Terraced","oldOrNew":"Established","duration":"Leasehold","paon":"WILLOW BANK","saon":"FLAT 59","street":"VILLAGE GREEN","locality":"UPPERMILL","townOrCity":"OLDHAM","district":"OLDHAM","county":"GREATER MANCHESTER","ppdCategoryType":"Standard","recordStatus":"Addition","latitude":53.548583,"longitude":-2.004157,"postcodeStart":"OL3 6","postcode":["OL3","6AL"]}
{"price":35000,"dateOfTransfer":"1996-06-21T00:00:00","postcodeFull":"OL3 6BP","propertyType":"Terraced","oldOrNew":"Established","duration":"Leasehold","paon":"9","saon":"","street":"BUCKLEY STREET","locality":"UPPERMILL","townOrCity":"OLDHAM","district":"OLDHAM","county":"GREATER MANCHESTER","ppdCategoryType":"Standard","recordStatus":"Addition","latitude":53.549751,"longitude":-2.003916,"postcodeStart":"OL3 6","postcode":["OL3","6BP"]}
{"price":50000,"dateOfTransfer":"1996-12-20T00:00:00","postcodeFull":"OL3 6DT","propertyType":"Semi-detached","oldOrNew":"Established","duration":"Leasehold","paon":"11","saon":"","street":"WELLMEADOW LANE","locality":"UPPERMILL","townOrCity":"OLDHAM","district":"OLDHAM","county":"GREATER MANCHESTER","ppdCategoryType":"Standard","recordStatus":"Addition","latitude":53.550066,"longitude":-2.001184,"postcodeStart":"OL3 6","postcode":["OL3","6DT"]}
{"price":71000,"dateOfTransfer":"1996-12-20T00:00:00","postcodeFull":"OL3 6JN","propertyType":"Detached","oldOrNew":"Established","duration":"Leasehold","paon":"7","saon":"","street":"BIRCH ROAD","locality":"UPPERMILL","townOrCity":"OLDHAM","district":"OLDHAM","county":"GREATER MANCHESTER","ppdCategoryType":"Standard","recordStatus":"Addition","latitude":53.545257,"longitude":-2.000882,"postcodeStart":"OL3 6","postcode":["OL3","6JN"]}
{"price":128000,"dateOfTransfer":"1996-11-08T00:00:00","postcodeFull":"OL3 6DW","propertyType":"Detached","oldOrNew":"Established","duration":"Freehold","paon":"19","saon":"","street":"BAGNALL CLOSE","locality":"UPPERMILL","townOrCity":"OLDHAM","district":"OLDHAM","county":"GREATER MANCHESTER","ppdCategoryType":"Standard","recordStatus":"Addition","latitude":53.55216,"longitude":-2.000581,"postcodeStart":"OL3 6","postcode":["OL3","6DW"]}
{"price":66950,"dateOfTransfer":"1996-12-19T00:00:00","postcodeFull":"OL3 6DL","propertyType":"Terraced","oldOrNew":"New build","duration":"Leasehold","paon":"11","saon":"","street":"PICKMERE MEWS","locality":"UPPERMILL","townOrCity":"OLDHAM","district":"OLDHAM","county":"GREATER MANCHESTER","ppdCategoryType":"Standard","recordStatus":"Addition","latitude":53.550083,"longitude":-2.007221,"postcodeStart":"OL3 6","postcode":["OL3","6DL"]}
{"price":93000,"dateOfTransfer":"1996-12-13T00:00:00","postcodeFull":"OL3 6ED","propertyType":"Detached","oldOrNew":"Established","duration":"Leasehold","paon":"14","saon":"","street":"RHODES AVENUE","locality":"UPPERMILL","townOrCity":"OLDHAM","district":"OLDHAM","county":"GREATER MANCHESTER","ppdCategoryType":"Standard","recordStatus":"Addition","latitude":53.551818,"longitude":-1.999313,"postcodeStart":"OL3 6","postcode":["OL3","6ED"]}
{"price":175000,"dateOfTransfer":"1996-04-10T00:00:00","postcodeFull":"OL3 6EN","propertyType":"Detached","oldOrNew":"Established","duration":"Freehold","paon":"HEATHFIELD HOUSE","saon":"","street":"HEATHFIELDS ROAD","locality":"UPPERMILL","townOrCity":"OLDHAM","district":"OLDHAM","county":"GREATER MANCHESTER","ppdCategoryType":"Standard","recordStatus":"Addition","latitude":53.548708,"longitude":-1.99963,"postcodeStart":"OL3 6","postcode":["OL3","6EN"]}
{"price":58000,"dateOfTransfer":"1996-07-12T00:00:00","postcodeFull":"OL3 6BT","propertyType":"Terraced","oldOrNew":"Established","duration":"Freehold","paon":"110","saon":"","street":"HIGH STREET","locality":"UPPERMILL","townOrCity":"OLDHAM","district":"OLDHAM","county":"GREATER MANCHESTER","ppdCategoryType":"Standard","recordStatus":"Addition","latitude":53.551252,"longitude":-2.005305,"postcodeStart":"OL3 6","postcode":["OL3","6BT"]}
{"price":84950,"dateOfTransfer":"1996-12-19T00:00:00","postcodeFull":"OL3 6DL","propertyType":"Detached","oldOrNew":"New build","duration":"Leasehold","paon":"12","saon":"","street":"PICKMERE MEWS","locality":"UPPERMILL","townOrCity":"OLDHAM","district":"OLDHAM","county":"GREATER MANCHESTER","ppdCategoryType":"Standard","recordStatus":"Addition","latitude":53.550083,"longitude":-2.007221,"postcodeStart":"OL3 6","postcode":["OL3","6DL"]}
{"price":59995,"dateOfTransfer":"1996-09-02T00:00:00","postcodeFull":"OL3 6JP","propertyType":"Semi-detached","oldOrNew":"Established","duration":"Leasehold","paon":"5","saon":"","street":"WILLOW ROAD","locality":"UPPERMILL","townOrCity":"OLDHAM","district":"OLDHAM","county":"GREATER MANCHESTER","ppdCategoryType":"Standard","recordStatus":"Addition","latitude":53.544475,"longitude":-2.001063,"postcodeStart":"OL3 6","postcode":["OL3","6JP"]}
{"price":65000,"dateOfTransfer":"1996-11-29T00:00:00","postcodeFull":"OL3 6BP","propertyType":"Terraced","oldOrNew":"Established","duration":"Leasehold","paon":"19","saon":"","street":"BUCKLEY STREET","locality":"UPPERMILL","townOrCity":"OLDHAM","district":"OLDHAM","county":"GREATER MANCHESTER","ppdCategoryType":"Standard","recordStatus":"Addition","latitude":53.549751,"longitude":-2.003916,"postcodeStart":"OL3 6","postcode":["OL3","6BP"]}
{"price":49950,"dateOfTransfer":"1996-08-30T00:00:00","postcodeFull":"OL3 6BE","propertyType":"Flat/Maisonette/Townhouse","oldOrNew":"New build","duration":"Leasehold","paon":"11","saon":"","street":"OUTRAM MEWS","locality":"UPPERMILL","townOrCity":"OLDHAM","district":"OLDHAM","county":"GREATER MANCHESTER","ppdCategoryType":"Standard","recordStatus":"Addition","latitude":53.550955,"longitude":-2.006271,"postcodeStart":"OL3 6","postcode":["OL3","6BE"]}
{"price":73500,"dateOfTransfer":"1996-05-03T00:00:00","postcodeFull":"OL3 6EJ","propertyType":"Semi-detached","oldOrNew":"Established","duration":"Freehold","paon":"46","saon":"","street":"CHURCH ROAD","locality":"UPPERMILL","townOrCity":"OLDHAM","district":"OLDHAM","county":"GREATER MANCHESTER","ppdCategoryType":"Standard","recordStatus":"Addition","latitude":53.549886,"longitude":-1.996898,"postcodeStart":"OL3 6","postcode":["OL3","6EJ"]}
{"price":64000,"dateOfTransfer":"1996-08-30T00:00:00","postcodeFull":"OL3 6HG","propertyType":"Semi-detached","oldOrNew":"Established","duration":"Freehold","paon":"11","saon":"","street":"MERLEWOOD AVENUE","locality":"UPPERMILL","townOrCity":"OLDHAM","district":"OLDHAM","county":"GREATER MANCHESTER","ppdCategoryType":"Standard","recordStatus":"Addition","latitude":53.546497,"longitude":-2.003131,"postcodeStart":"OL3 6","postcode":["OL3","6HG"]}
{"price":56000,"dateOfTransfer":"1996-03-29T00:00:00","postcodeFull":"OL3 6HX","propertyType":"Semi-detached","oldOrNew":"Established","duration":"Freehold","paon":"18","saon":"","street":"HIGH STREET","locality":"UPPERMILL","townOrCity":"OLDHAM","district":"OLDHAM","county":"GREATER MANCHESTER","ppdCategoryType":"Standard","recordStatus":"Addition","latitude":53.546111,"longitude":-2.007658,"postcodeStart":"OL3 6","postcode":["OL3","6HX"]}
{"price":49950,"dateOfTransfer":"1996-11-11T00:00:00","postcodeFull":"OL3 6BE","propertyType":"Flat/Maisonette/Townhouse","oldOrNew":"New build","duration":"Leasehold","paon":"14","saon":"","street":"OUTRAM MEWS","locality":"UPPERMILL","townOrCity":"OLDHAM","district":"OLDHAM","county":"GREATER MANCHESTER","ppdCategoryType":"Standard","recordStatus":"Addition","latitude":53.550955,"longitude":-2.006271,"postcodeStart":"OL3 6","postcode":["OL3","6BE"]}
{"price":99000,"dateOfTransfer":"1996-01-12T00:00:00","postcodeFull":"OL3 6BJ","propertyType":"Terraced","oldOrNew":"Established","duration":"Freehold","paon":"25","saon":"","street":"CHURCH ROAD","locality":"UPPERMILL","townOrCity":"OLDHAM","district":"OLDHAM","county":"GREATER MANCHESTER","ppdCategoryType":"Standard","recordStatus":"Addition","latitude":53.549068,"longitude":-2.003418,"postcodeStart":"OL3 6","postcode":["OL3","6BJ"]}
{"price":43500,"dateOfTransfer":"1996-06-17T00:00:00","postcodeFull":"OL3 6BD","propertyType":"Flat/Maisonette/Townhouse","oldOrNew":"Established","duration":"Leasehold","paon":"109B","saon":"FLAT 6","street":"HIGH STREET","locality":"UPPERMILL","townOrCity":"OLDHAM","district":"OLDHAM","county":"GREATER MANCHESTER","ppdCategoryType":"Standard","recordStatus":"Addition","latitude":53.549795,"longitude":-2.005453,"postcodeStart":"OL3 6","postcode":["OL3","6BD"]}
{"price":18000,"dateOfTransfer":"1996-04-18T00:00:00","postcodeFull":"OL3 6HW","propertyType":"Semi-detached","oldOrNew":"Established","duration":"Freehold","paon":"27","saon":"","street":"SPRINGMEADOW LANE","locality":"UPPERMILL","townOrCity":"OLDHAM","district":"OLDHAM","county":"GREATER MANCHESTER","ppdCategoryType":"Standard","recordStatus":"Addition","latitude":53.547837,"longitude":-1.997698,"postcodeStart":"OL3 6","postcode":["OL3","6HW"]}
{"price":49950,"dateOfTransfer":"1996-09-02T00:00:00","postcodeFull":"OL3 6BE","propertyType":"Flat/Maisonette/Townhouse","oldOrNew":"New build","duration":"Leasehold","paon":"15","saon":"","street":"OUTRAM MEWS","locality":"UPPERMILL","townOrCity":"OLDHAM","district":"OLDHAM","county":"GREATER MANCHESTER","ppdCategoryType":"Standard","recordStatus":"Addition","latitude":53.550955,"longitude":-2.006271,"postcodeStart":"OL3 6","postcode":["OL3","6BE"]}
{"price":73000,"dateOfTransfer":"1996-04-04T00:00:00","postcodeFull":"OL3 6AL","propertyType":"Detached","oldOrNew":"Established","duration":"Leasehold","paon":"WILLOW BANK","saon":"FLAT 49","street":"VILLAGE GREEN","locality":"UPPERMILL","townOrCity":"OLDHAM","district":"OLDHAM","county":"GREATER MANCHESTER","ppdCategoryType":"Standard","recordStatus":"Addition","latitude":53.548583,"longitude":-2.004157,"postcodeStart":"OL3 6","postcode":["OL3","6AL"]}
{"price":89950,"dateOfTransfer":"1996-07-12T00:00:00","postcodeFull":"OL3 6BS","propertyType":"Detached","oldOrNew":"New build","duration":"Leasehold","paon":"6","saon":"","street":"TELFORD MEWS","locality":"UPPERMILL","townOrCity":"OLDHAM","district":"OLDHAM","county":"GREATER MANCHESTER","ppdCategoryType":"Standard","recordStatus":"Addition","latitude":53.550434,"longitude":-2.006542,"postcodeStart":"OL3 6","postcode":["OL3","6BS"]}
{"price":64950,"dateOfTransfer":"1996-08-23T00:00:00","postcodeFull":"OL3 6BS","propertyType":"Terraced","oldOrNew":"New build","duration":"Leasehold","paon":"5","saon":"","street":"TELFORD MEWS","locality":"UPPERMILL","townOrCity":"OLDHAM","district":"OLDHAM","county":"GREATER MANCHESTER","ppdCategoryType":"Standard","recordStatus":"Addition","latitude":53.550434,"longitude":-2.006542,"postcodeStart":"OL3 6","postcode":["OL3","6BS"]}
{"price":91000,"dateOfTransfer":"1996-05-24T00:00:00","postcodeFull":"OL3 6LA","propertyType":"Semi-detached","oldOrNew":"Established","duration":"Leasehold","paon":"4","saon":"","street":"LEEFIELDS CLOSE","locality":"UPPERMILL","townOrCity":"OLDHAM","district":"OLDHAM","county":"GREATER MANCHESTER","ppdCategoryType":"Standard","recordStatus":"Addition","latitude":53.546902,"longitude":-2.004202,"postcodeStart":"OL3 6","postcode":["OL3","6LA"]}
{"price":63000,"dateOfTransfer":"1997-11-28T00:00:00","postcodeFull":"OL3 6JU","propertyType":"Terraced","oldOrNew":"Established","duration":"Freehold","paon":"8","saon":"","street":"BANKSIDE AVENUE","locality":"UPPERMILL","townOrCity":"OLDHAM","district":"OLDHAM","county":"GREATER MANCHESTER","ppdCategoryType":"Standard","recordStatus":"Addition","latitude":53.545778,"longitude":-2.000822,"postcodeStart":"OL3 6","postcode":["OL3","6JU"]}
{"price":104000,"dateOfTransfer":"1997-08-29T00:00:00","postcodeFull":"OL3 6JN","propertyType":"Detached","oldOrNew":"Established","duration":"Leasehold","paon":"2","saon":"","street":"BIRCH ROAD","locality":"UPPERMILL","townOrCity":"OLDHAM","district":"OLDHAM","county":"GREATER MANCHESTER","ppdCategoryType":"Standard","recordStatus":"Addition","latitude":53.545257,"longitude":-2.000882,"postcodeStart":"OL3 6","postcode":["OL3","6JN"]}
{"price":76000,"dateOfTransfer":"1997-03-10T00:00:00","postcodeFull":"OL3 6DT","propertyType":"Semi-detached","oldOrNew":"Established","duration":"Leasehold","paon":"25","saon":"","street":"WELLMEADOW LANE","locality":"UPPERMILL","townOrCity":"OLDHAM","district":"OLDHAM","county":"GREATER MANCHESTER","ppdCategoryType":"Standard","recordStatus":"Addition","latitude":53.550066,"longitude":-2.001184,"postcodeStart":"OL3 6","postcode":["OL3","6DT"]}
{"price":69950,"dateOfTransfer":"1997-07-25T00:00:00","postcodeFull":"OL3 6ET","propertyType":"Semi-detached","oldOrNew":"New build","duration":"Leasehold","paon":"9","saon":"","street":"KENWORTHY GARDENS","locality":"UPPERMILL","townOrCity":"OLDHAM","district":"OLDHAM","county":"GREATER MANCHESTER","ppdCategoryType":"Standard","recordStatus":"Addition","latitude":53.549607,"longitude":-2.007236,"postcodeStart":"OL3 6","postcode":["OL3","6ET"]}
{"price":82950,"dateOfTransfer":"1997-12-05T00:00:00","postcodeFull":"OL3 6DL","propertyType":"Detached","oldOrNew":"New build","duration":"Leasehold","paon":"6","saon":"","street":"PICKMERE MEWS","locality":"UPPERMILL","townOrCity":"OLDHAM","district":"OLDHAM","county":"GREATER MANCHESTER","ppdCategoryType":"Standard","recordStatus":"Addition","latitude":53.550083,"longitude":-2.007221,"postcodeStart":"OL3 6","postcode":["OL3","6DL"]}
{"price":55000,"dateOfTransfer":"1997-05-23T00:00:00","postcodeFull":"OL3 6DL","propertyType":"Flat/Maisonette/Townhouse","oldOrNew":"New build","duration":"Leasehold","paon":"1","saon":"","street":"PICKMERE MEWS","locality":"UPPERMILL","townOrCity":"OLDHAM","district":"OLDHAM","county":"GREATER MANCHESTER","ppdCategoryType":"Standard","recordStatus":"Addition","latitude":53.550083,"longitude":-2.007221,"postcodeStart":"OL3 6","postcode":["OL3","6DL"]}
{"price":71000,"dateOfTransfer":"1997-03-27T00:00:00","postcodeFull":"OL3 6AE","propertyType":"Semi-detached","oldOrNew":"Established","duration":"Freehold","paon":"10","saon":"","street":"LEE STREET","locality":"UPPERMILL","townOrCity":"OLDHAM","district":"OLDHAM","county":"GREATER MANCHESTER","ppdCategoryType":"Standard","recordStatus":"Addition","latitude":53.5478,"longitude":-2.004248,"postcodeStart":"OL3 6","postcode":["OL3","6AE"]}
{"price":125000,"dateOfTransfer":"1997-09-16T00:00:00","postcodeFull":"OL3 6ET","propertyType":"Detached","oldOrNew":"New build","duration":"Leasehold","paon":"11","saon":"","street":"KENWORTHY GARDENS","locality":"UPPERMILL","townOrCity":"OLDHAM","district":"OLDHAM","county":"GREATER MANCHESTER","ppdCategoryType":"Standard","recordStatus":"Addition","latitude":53.549607,"longitude":-2.007236,"postcodeStart":"OL3 6","postcode":["OL3","6ET"]}
{"price":68000,"dateOfTransfer":"1997-02-10T00:00:00","postcodeFull":"OL3 6JE","propertyType":"Semi-detached","oldOrNew":"Established","duration":"Leasehold","paon":"12","saon":"","street":"RUSH HILL ROAD","locality":"UPPERMILL","townOrCity":"OLDHAM","district":"OLDHAM","county":"GREATER MANCHESTER","ppdCategoryType":"Standard","recordStatus":"Addition","latitude":53.544727,"longitude":-2.005153,"postcodeStart":"OL3 6","postcode":["OL3","6JE"]}
{"price":94000,"dateOfTransfer":"1997-01-17T00:00:00","postcodeFull":"OL3 6HY","propertyType":"Semi-detached","oldOrNew":"Established","duration":"Freehold","paon":"34","saon":"","street":"OLDHAM ROAD","locality":"UPPERMILL","townOrCity":"OLDHAM","district":"OLDHAM","county":"GREATER MANCHESTER","ppdCategoryType":"Standard","recordStatus":"Addition","latitude":53.544537,"longitude":-2.009333,"postcodeStart":"OL3 6","postcode":["OL3","6HY"]}
{"price":150000,"dateOfTransfer":"1997-09-05T00:00:00","postcodeFull":"OL3 6EQ","propertyType":"Detached","oldOrNew":"Established","duration":"Freehold","paon":"5","saon":"","street":"SADDLEWORTH FOLD","locality":"UPPERMILL","townOrCity":"OLDHAM","district":"OLDHAM","county":"GREATER MANCHESTER","ppdCategoryType":"Standard","recordStatus":"Addition","latitude":53.550839,"longitude":-1.996324,"postcodeStart":"OL3 6","postcode":["OL3","6EQ"]}
{"price":84950,"dateOfTransfer":"1997-09-19T00:00:00","postcodeFull":"OL3 6ET","propertyType":"Detached","oldOrNew":"New build","duration":"Leasehold","paon":"7","saon":"","street":"KENWORTHY GARDENS","locality":"UPPERMILL","townOrCity":"OLDHAM","district":"OLDHAM","county":"GREATER MANCHESTER","ppdCategoryType":"Standard","recordStatus":"Addition","latitude":53.549607,"longitude":-2.007236,"postcodeStart":"OL3 6","postcode":["OL3","6ET"]}
{"price":66690,"dateOfTransfer":"1997-04-01T00:00:00","postcodeFull":"OL3 6DX","propertyType":"Semi-detached","oldOrNew":"Established","duration":"Freehold","paon":"38","saon":"","street":"WELLMEADOW LANE","locality":"UPPERMILL","townOrCity":"OLDHAM","district":"OLDHAM","county":"GREATER MANCHESTER","ppdCategoryType":"Standard","recordStatus":"Addition","latitude":53.550075,"longitude":-1.998981,"postcodeStart":"OL3 6","postcode":["OL3","6DX"]}
{"price":46000,"dateOfTransfer":"1997-08-15T00:00:00","postcodeFull":"OL3 6BW","propertyType":"Semi-detached","oldOrNew":"Established","duration":"Freehold","paon":"6","saon":"","street":"HAWTHORPE GROVE","locality":"UPPERMILL","townOrCity":"OLDHAM","district":"OLDHAM","county":"GREATER MANCHESTER","ppdCategoryType":"Standard","recordStatus":"Addition","latitude":53.550236,"longitude":-2.002754,"postcodeStart":"OL3 6","postcode":["OL3","6BW"]}
{"price":69500,"dateOfTransfer":"1997-10-03T00:00:00","postcodeFull":"OL3 6DX","propertyType":"Semi-detached","oldOrNew":"Established","duration":"Leasehold","paon":"42","saon":"","street":"WELLMEADOW LANE","locality":"UPPERMILL","townOrCity":"OLDHAM","district":"OLDHAM","county":"GREATER MANCHESTER","ppdCategoryType":"Standard","recordStatus":"Addition","latitude":53.550075,"longitude":-1.998981,"postcodeStart":"OL3 6","postcode":["OL3","6DX"]}
{"price":180000,"dateOfTransfer":"1997-01-17T00:00:00","postcodeFull":"OL3 6EN","propertyType":"Semi-detached","oldOrNew":"Established","duration":"Freehold","paon":"THE LIMES","saon":"","street":"HEATHFIELDS ROAD","locality":"UPPERMILL","townOrCity":"OLDHAM","district":"OLDHAM","county":"GREATER MANCHESTER","ppdCategoryType":"Standard","recordStatus":"Addition","latitude":53.548708,"longitude":-1.99963,"postcodeStart":"OL3 6","postcode":["OL3","6EN"]}
{"price":40000,"dateOfTransfer":"1997-11-12T00:00:00","postcodeFull":"OL3 6BH","propertyType":"Terraced","oldOrNew":"Established","duration":"Freehold","paon":"2","saon":"","street":"CHURCH ROAD","locality":"UPPERMILL","townOrCity":"OLDHAM","district":"OLDHAM","county":"GREATER MANCHESTER","ppdCategoryType":"Standard","recordStatus":"Addition","latitude":53.548762,"longitude":-2.004504,"postcodeStart":"OL3 6","postcode":["OL3","6BH"]}
{"price":49950,"dateOfTransfer":"1997-05-30T00:00:00","postcodeFull":"OL3 6BE","propertyType":"Flat/Maisonette/Townhouse","oldOrNew":"New build","duration":"Leasehold","paon":"17","saon":"","street":"OUTRAM MEWS","locality":"UPPERMILL","townOrCity":"OLDHAM","district":"OLDHAM","county":"GREATER MANCHESTER","ppdCategoryType":"Standard","recordStatus":"Addition","latitude":53.550955,"longitude":-2.006271,"postcodeStart":"OL3 6","postcode":["OL3","6BE"]}
{"price":139000,"dateOfTransfer":"1997-05-15T00:00:00","postcodeFull":"OL3 6HH","propertyType":"Detached","oldOrNew":"Established","duration":"Freehold","paon":"59","saon":"","street":"SPRINGMEADOW LANE","locality":"UPPERMILL","townOrCity":"OLDHAM","district":"OLDHAM","county":"GREATER MANCHESTER","ppdCategoryType":"Standard","recordStatus":"Addition","latitude":53.547621,"longitude":-2.001275,"postcodeStart":"OL3 6","postcode":["OL3","6HH"]}
{"price":57500,"dateOfTransfer":"1997-08-15T00:00:00","postcodeFull":"OL3 6EX","propertyType":"Flat/Maisonette/Townhouse","oldOrNew":"Established","duration":"Leasehold","paon":"MOORDALE","saon":"FLAT 3","street":"HEATHFIELDS SQUARE","locality":"UPPERMILL","townOrCity":"OLDHAM","district":"OLDHAM","county":"GREATER MANCHESTER","ppdCategoryType":"Standard","recordStatus":"Addition","latitude":53.548726,"longitude":-1.997637,"postcodeStart":"OL3 6","postcode":["OL3","6EX"]}
{"price":69950,"dateOfTransfer":"1997-03-27T00:00:00","postcodeFull":"OL3 6BE","propertyType":"Flat/Maisonette/Townhouse","oldOrNew":"New build","duration":"Leasehold","paon":"4","saon":"","street":"OUTRAM MEWS","locality":"UPPERMILL","townOrCity":"OLDHAM","district":"OLDHAM","county":"GREATER MANCHESTER","ppdCategoryType":"Standard","recordStatus":"Addition","latitude":53.550955,"longitude":-2.006271,"postcodeStart":"OL3 6","postcode":["OL3","6BE"]}
{"price":64950,"dateOfTransfer":"1997-11-03T00:00:00","postcodeFull":"OL3 6ET","propertyType":"Flat/Maisonette/Townhouse","oldOrNew":"New build","duration":"Leasehold","paon":"5","saon":"","street":"KENWORTHY GARDENS","locality":"UPPERMILL","townOrCity":"OLDHAM","district":"OLDHAM","county":"GREATER MANCHESTER","ppdCategoryType":"Standard","recordStatus":"Addition","latitude":53.549607,"longitude":-2.007236,"postcodeStart":"OL3 6","postcode":["OL3","6ET"]}
{"price":66500,"dateOfTransfer":"1997-01-17T00:00:00","postcodeFull":"OL3 6JX","propertyType":"Terraced","oldOrNew":"Established","duration":"Freehold","paon":"3","saon":"","street":"SHAWS","locality":"UPPERMILL","townOrCity":"OLDHAM","district":"OLDHAM","county":"GREATER MANCHESTER","ppdCategoryType":"Standard","recordStatus":"Addition","latitude":53.545401,"longitude":-1.999584,"postcodeStart":"OL3 6","postcode":["OL3","6JX"]}
{"price":68250,"dateOfTransfer":"1997-03-13T00:00:00","postcodeFull":"OL3 6AH","propertyType":"Flat/Maisonette/Townhouse","oldOrNew":"Established","duration":"Freehold","paon":"11","saon":"","street":"SMITHY LANE","locality":"UPPERMILL","townOrCity":"OLDHAM","district":"OLDHAM","county":"GREATER MANCHESTER","ppdCategoryType":"Standard","recordStatus":"Addition","latitude":53.548331,"longitude":-2.004957,"postcodeStart":"OL3 6","postcode":["OL3","6AH"]}
{"price":33600,"dateOfTransfer":"1997-10-02T00:00:00","postcodeFull":"OL3 6LY","propertyType":"Flat/Maisonette/Townhouse","oldOrNew":"New build","duration":"Leasehold","paon":"21","saon":"","street":"PICKHILL MEWS","locality":"UPPERMILL","townOrCity":"OLDHAM","district":"OLDHAM","county":"GREATER MANCHESTER","ppdCategoryType":"Standard","recordStatus":"Addition","latitude":53.549706,"longitude":-2.002437,"postcodeStart":"OL3 6","postcode":["OL3","6LY"]}
{"price":112500,"dateOfTransfer":"1997-12-17T00:00:00","postcodeFull":"OL3 6BD","propertyType":"Semi-detached","oldOrNew":"Established","duration":"Freehold","paon":"157","saon":"","street":"HIGH STREET","locality":"UPPERMILL","townOrCity":"OLDHAM","district":"OLDHAM","county":"GREATER MANCHESTER","ppdCategoryType":"Standard","recordStatus":"Addition","latitude":53.549795,"longitude":-2.005453,"postcodeStart":"OL3 6","postcode":["OL3","6BD"]}
{"price":54000,"dateOfTransfer":"1997-09-09T00:00:00","postcodeFull":"OL3 6HD","propertyType":"Terraced","oldOrNew":"Established","duration":"Freehold","paon":"9","saon":"","street":"COURT STREET","locality":"UPPERMILL","townOrCity":"OLDHAM","district":"OLDHAM","county":"GREATER MANCHESTER","ppdCategoryType":"Standard","recordStatus":"Addition","latitude":53.54754,"longitude":-2.005516,"postcodeStart":"OL3 6","postcode":["OL3","6HD"]}
{"price":180000,"dateOfTransfer":"1997-08-27T00:00:00","postcodeFull":"OL3 6HH","propertyType":"Detached","oldOrNew":"Established","duration":"Freehold","paon":"48A","saon":"","street":"SPRINGMEADOW LANE","locality":"UPPERMILL","townOrCity":"OLDHAM","district":"OLDHAM","county":"GREATER MANCHESTER","ppdCategoryType":"Standard","recordStatus":"Addition","latitude":53.547621,"longitude":-2.001275,"postcodeStart":"OL3 6","postcode":["OL3","6HH"]}
{"price":74950,"dateOfTransfer":"1997-08-20T00:00:00","postcodeFull":"OL3 6DL","propertyType":"Flat/Maisonette/Townhouse","oldOrNew":"New build","duration":"Leasehold","paon":"2","saon":"","street":"PICKMERE MEWS","locality":"UPPERMILL","townOrCity":"OLDHAM","district":"OLDHAM","county":"GREATER MANCHESTER","ppdCategoryType":"Standard","recordStatus":"Addition","latitude":53.550083,"longitude":-2.007221,"postcodeStart":"OL3 6","postcode":["OL3","6DL"]}
{"price":50500,"dateOfTransfer":"1997-02-21T00:00:00","postcodeFull":"OL3 6AL","propertyType":"Flat/Maisonette/Townhouse","oldOrNew":"Established","duration":"Leasehold","paon":"WILLOW BANK","saon":"FLAT 71","street":"VILLAGE GREEN","locality":"UPPERMILL","townOrCity":"OLDHAM","district":"OLDHAM","county":"GREATER MANCHESTER","ppdCategoryType":"Standard","recordStatus":"Addition","latitude":53.548583,"longitude":-2.004157,"postcodeStart":"OL3 6","postcode":["OL3","6AL"]}
{"price":55000,"dateOfTransfer":"1997-10-31T00:00:00","postcodeFull":"OL3 6BJ","propertyType":"Terraced","oldOrNew":"Established","duration":"Freehold","paon":"27","saon":"","street":"CHURCH ROAD","locality":"UPPERMILL","townOrCity":"OLDHAM","district":"OLDHAM","county":"GREATER MANCHESTER","ppdCategoryType":"Standard","recordStatus":"Addition","latitude":53.549068,"longitude":-2.003418,"postcodeStart":"OL3 6","postcode":["OL3","6BJ"]}
{"price":117450,"dateOfTransfer":"1997-08-29T00:00:00","postcodeFull":"OL3 6ET","propertyType":"Detached","oldOrNew":"New build","duration":"Leasehold","paon":"16","saon":"","street":"KENWORTHY GARDENS","locality":"UPPERMILL","townOrCity":"OLDHAM","district":"OLDHAM","county":"GREATER MANCHESTER","ppdCategoryType":"Standard","recordStatus":"Addition","latitude":53.549607,"longitude":-2.007236,"postcodeStart":"OL3 6","postcode":["OL3","6ET"]}
{"price":50000,"dateOfTransfer":"1997-07-11T00:00:00","postcodeFull":"OL3 6HB","propertyType":"Terraced","oldOrNew":"Established","duration":"Leasehold","paon":"5A","saon":"","street":"SCHOOL STREET","locality":"UPPERMILL","townOrCity":"OLDHAM","district":"OLDHAM","county":"GREATER MANCHESTER","ppdCategoryType":"Standard","recordStatus":"Addition","latitude":53.546983,"longitude":-2.006119,"postcodeStart":"OL3 6","postcode":["OL3","6HB"]}
{"price":52000,"dateOfTransfer":"1997-02-25T00:00:00","postcodeFull":"OL3 6HU","propertyType":"Flat/Maisonette/Townhouse","oldOrNew":"Established","duration":"Leasehold","paon":"31","saon":"","street":"GLENGARTH","locality":"UPPERMILL","townOrCity":"OLDHAM","district":"OLDHAM","county":"GREATER MANCHESTER","ppdCategoryType":"Standard","recordStatus":"Addition","latitude":53.543657,"longitude":-2.00473,"postcodeStart":"OL3 6","postcode":["OL3","6HU"]}
{"price":62500,"dateOfTransfer":"1997-11-21T00:00:00","postcodeFull":"OL3 6BH","propertyType":"Terraced","oldOrNew":"Established","duration":"Leasehold","paon":"8","saon":"","street":"CHURCH ROAD","locality":"UPPERMILL","townOrCity":"OLDHAM","district":"OLDHAM","county":"GREATER MANCHESTER","ppdCategoryType":"Standard","recordStatus":"Addition","latitude":53.548762,"longitude":-2.004504,"postcodeStart":"OL3 6","postcode":["OL3","6BH"]}
{"price":94950,"dateOfTransfer":"1997-07-25T00:00:00","postcodeFull":"OL3 6ET","propertyType":"Terraced","oldOrNew":"New build","duration":"Leasehold","paon":"8","saon":"","street":"KENWORTHY GARDENS","locality":"UPPERMILL","townOrCity":"OLDHAM","district":"OLDHAM","county":"GREATER MANCHESTER","ppdCategoryType":"Standard","recordStatus":"Addition","latitude":53.549607,"longitude":-2.007236,"postcodeStart":"OL3 6","postcode":["OL3","6ET"]}
{"price":77000,"dateOfTransfer":"1997-12-15T00:00:00","postcodeFull":"OL3 6AQ","propertyType":"Flat/Maisonette/Townhouse","oldOrNew":"Established","duration":"Leasehold","paon":"2","saon":"","street":"SMITHY YARD","locality":"UPPERMILL","townOrCity":"OLDHAM","district":"OLDHAM","county":"GREATER MANCHESTER","ppdCategoryType":"Standard","recordStatus":"Addition","latitude":53.548536,"longitude":-2.005196,"postcodeStart":"OL3 6","postcode":["OL3","6AQ"]}
{"price":42000,"dateOfTransfer":"1997-03-21T00:00:00","postcodeFull":"OL3 6AE","propertyType":"Terraced","oldOrNew":"Established","duration":"Freehold","paon":"45","saon":"","street":"LEE STREET","locality":"UPPERMILL","townOrCity":"OLDHAM","district":"OLDHAM","county":"GREATER MANCHESTER","ppdCategoryType":"Standard","recordStatus":"Addition","latitude":53.5478,"longitude":-2.004248,"postcodeStart":"OL3 6","postcode":["OL3","6AE"]}
{"price":83000,"dateOfTransfer":"1997-07-11T00:00:00","postcodeFull":"OL3 6HH","propertyType":"Semi-detached","oldOrNew":"Established","duration":"Freehold","paon":"52","saon":"","street":"SPRINGMEADOW LANE","locality":"UPPERMILL","townOrCity":"OLDHAM","district":"OLDHAM","county":"GREATER MANCHESTER","ppdCategoryType":"Standard","recordStatus":"Addition","latitude":53.547621,"longitude":-2.001275,"postcodeStart":"OL3 6","postcode":["OL3","6HH"]}
{"price":136500,"dateOfTransfer":"1997-09-09T00:00:00","postcodeFull":"OL3 6JB","propertyType":"Detached","oldOrNew":"Established","duration":"Freehold","paon":"15","saon":"","street":"RUSH HILL TERRACE","locality":"UPPERMILL","townOrCity":"OLDHAM","district":"OLDHAM","county":"GREATER MANCHESTER","ppdCategoryType":"Standard","recordStatus":"Addition","latitude":53.545158,"longitude":-2.005757,"postcodeStart":"OL3 6","postcode":["OL3","6JB"]}
{"price":72000,"dateOfTransfer":"1997-08-29T00:00:00","postcodeFull":"OL3 6BS","propertyType":"Flat/Maisonette/Townhouse","oldOrNew":"New build","duration":"Leasehold","paon":"9","saon":"","street":"TELFORD MEWS","locality":"UPPERMILL","townOrCity":"OLDHAM","district":"OLDHAM","county":"GREATER MANCHESTER","ppdCategoryType":"Standard","recordStatus":"Addition","latitude":53.550434,"longitude":-2.006542,"postcodeStart":"OL3 6","postcode":["OL3","6BS"]}
{"price":66000,"dateOfTransfer":"1997-10-10T00:00:00","postcodeFull":"OL3 6DR","propertyType":"Semi-detached","oldOrNew":"Established","duration":"Freehold","paon":"4","saon":"","street":"BROOK AVENUE","locality":"UPPERMILL","townOrCity":"OLDHAM","district":"OLDHAM","county":"GREATER MANCHESTER","ppdCategoryType":"Standard","recordStatus":"Addition","latitude":53.548619,"longitude":-2.000731,"postcodeStart":"OL3 6","postcode":["OL3","6DR"]}
{"price":85950,"dateOfTransfer":"1997-09-19T00:00:00","postcodeFull":"OL3 6ET","propertyType":"Detached","oldOrNew":"New build","duration":"Leasehold","paon":"10","saon":"","street":"KENWORTHY GARDENS","locality":"UPPERMILL","townOrCity":"OLDHAM","district":"OLDHAM","county":"GREATER MANCHESTER","ppdCategoryType":"Standard","recordStatus":"Addition","latitude":53.549607,"longitude":-2.007236,"postcodeStart":"OL3 6","postcode":["OL3","6ET"]}
{"price":67950,"dateOfTransfer":"1997-01-22T00:00:00","postcodeFull":"OL3 6DL","propertyType":"Detached","oldOrNew":"New build","duration":"Leasehold","paon":"9","saon":"","street":"PICKMERE MEWS","locality":"UPPERMILL","townOrCity":"OLDHAM","district":"OLDHAM","county":"GREATER MANCHESTER","ppdCategoryType":"Standard","recordStatus":"Addition","latitude":53.550083,"longitude":-2.007221,"postcodeStart":"OL3 6","postcode":["OL3","6DL"]}
{"price":49950,"dateOfTransfer":"1997-08-29T00:00:00","postcodeFull":"OL3 6BE","propertyType":"Flat/Maisonette/Townhouse","oldOrNew":"New build","duration":"Leasehold","paon":"19","saon":"","street":"OUTRAM MEWS","locality":"UPPERMILL","townOrCity":"OLDHAM","district":"OLDHAM","county":"GREATER MANCHESTER","ppdCategoryType":"Standard","recordStatus":"Addition","latitude":53.550955,"longitude":-2.006271,"postcodeStart":"OL3 6","postcode":["OL3","6BE"]}
{"price":66500,"dateOfTransfer":"1997-02-26T00:00:00","postcodeFull":"OL3 6HU","propertyType":"Detached","oldOrNew":"Established","duration":"Leasehold","paon":"9","saon":"","street":"GLENGARTH","locality":"UPPERMILL","townOrCity":"OLDHAM","district":"OLDHAM","county":"GREATER MANCHESTER","ppdCategoryType":"Standard","recordStatus":"Addition","latitude":53.543657,"longitude":-2.00473,"postcodeStart":"OL3 6","postcode":["OL3","6HU"]}
{"price":36000,"dateOfTransfer":"1997-03-26T00:00:00","postcodeFull":"OL3 6HZ","propertyType":"Terraced","oldOrNew":"Established","duration":"Freehold","paon":"11","saon":"","street":"BRIDGE STREET","locality":"UPPERMILL","townOrCity":"OLDHAM","district":"OLDHAM","county":"GREATER MANCHESTER","ppdCategoryType":"Standard","recordStatus":"Addition","latitude":53.545931,"longitude":-2.007251,"postcodeStart":"OL3 6","postcode":["OL3","6HZ"]}
{"price":70000,"dateOfTransfer":"1997-12-19T00:00:00","postcodeFull":"OL3 6DE","propertyType":"Terraced","oldOrNew":"Established","duration":"Leasehold","paon":"10","saon":"","street":"MOORGATE STREET","locality":"UPPERMILL","townOrCity":"OLDHAM","district":"OLDHAM","county":"GREATER MANCHESTER","ppdCategoryType":"Standard","recordStatus":"Addition","latitude":53.547476,"longitude":-2.00746,"postcodeStart":"OL3 6","postcode":["OL3","6DE"]}
{"price":85950,"dateOfTransfer":"1997-06-27T00:00:00","postcodeFull":"OL3 6ET","propertyType":"Semi-detached","oldOrNew":"New build","duration":"Leasehold","paon":"15","saon":"","street":"KENWORTHY GARDENS","locality":"UPPERMILL","townOrCity":"OLDHAM","district":"OLDHAM","county":"GREATER MANCHESTER","ppdCategoryType":"Standard","recordStatus":"Addition","latitude":53.549607,"longitude":-2.007236,"postcodeStart":"OL3 6","postcode":["OL3","6ET"]}
{"price":125000,"dateOfTransfer":"1997-05-22T00:00:00","postcodeFull":"OL3 6DL","propertyType":"Detached","oldOrNew":"New build","duration":"Leasehold","paon":"14","saon":"","street":"PICKMERE MEWS","locality":"UPPERMILL","townOrCity":"OLDHAM","district":"OLDHAM","county":"GREATER MANCHESTER","ppdCategoryType":"Standard","recordStatus":"Addition","latitude":53.550083,"longitude":-2.007221,"postcodeStart":"OL3 6","postcode":["OL3","6DL"]}
{"price":83950,"dateOfTransfer":"1997-02-27T00:00:00","postcodeFull":"OL3 6DL","propertyType":"Detached","oldOrNew":"New build","duration":"Leasehold","paon":"7","saon":"","street":"PICKMERE MEWS","locality":"UPPERMILL","townOrCity":"OLDHAM","district":"OLDHAM","county":"GREATER MANCHESTER","ppdCategoryType":"Standard","recordStatus":"Addition","latitude":53.550083,"longitude":-2.007221,"postcodeStart":"OL3 6","postcode":["OL3","6DL"]}
{"price":72000,"dateOfTransfer":"1997-09-26T00:00:00","postcodeFull":"OL3 6ET","propertyType":"Flat/Maisonette/Townhouse","oldOrNew":"New build","duration":"Leasehold","paon":"17","saon":"","street":"KENWORTHY GARDENS","locality":"UPPERMILL","townOrCity":"OLDHAM","district":"OLDHAM","county":"GREATER MANCHESTER","ppdCategoryType":"Standard","recordStatus":"Addition","latitude":53.549607,"longitude":-2.007236,"postcodeStart":"OL3 6","postcode":["OL3","6ET"]}
{"price":98500,"dateOfTransfer":"1997-05-16T00:00:00","postcodeFull":"OL3 6HY","propertyType":"Detached","oldOrNew":"Established","duration":"Freehold","paon":"32","saon":"","street":"OLDHAM ROAD","locality":"UPPERMILL","townOrCity":"OLDHAM","district":"OLDHAM","county":"GREATER MANCHESTER","ppdCategoryType":"Standard","recordStatus":"Addition","latitude":53.544537,"longitude":-2.009333,"postcodeStart":"OL3 6","postcode":["OL3","6HY"]}
{"price":81950,"dateOfTransfer":"1997-11-11T00:00:00","postcodeFull":"OL3 6DL","propertyType":"Semi-detached","oldOrNew":"New build","duration":"Leasehold","paon":"4","saon":"","street":"PICKMERE MEWS","locality":"UPPERMILL","townOrCity":"OLDHAM","district":"OLDHAM","county":"GREATER MANCHESTER","ppdCategoryType":"Standard","recordStatus":"Addition","latitude":53.550083,"longitude":-2.007221,"postcodeStart":"OL3 6","postcode":["OL3","6DL"]}
{"price":69950,"dateOfTransfer":"1997-05-16T00:00:00","postcodeFull":"OL3 6BE","propertyType":"Flat/Maisonette/Townhouse","oldOrNew":"New build","duration":"Leasehold","paon":"10","saon":"","street":"OUTRAM MEWS","locality":"UPPERMILL","townOrCity":"OLDHAM","district":"OLDHAM","county":"GREATER MANCHESTER","ppdCategoryType":"Standard","recordStatus":"Addition","latitude":53.550955,"longitude":-2.006271,"postcodeStart":"OL3 6","postcode":["OL3","6BE"]}
{"price":140000,"dateOfTransfer":"1997-02-28T00:00:00","postcodeFull":"OL3 6LW","propertyType":"Detached","oldOrNew":"Established","duration":"Freehold","paon":"CLARKS COTTAGE","saon":"","street":"RUNNING HILL GATE","locality":"UPPERMILL","townOrCity":"OLDHAM","district":"OLDHAM","county":"GREATER MANCHESTER","ppdCategoryType":"Standard","recordStatus":"Addition","latitude":53.554128,"longitude":-1.988188,"postcodeStart":"OL3 6","postcode":["OL3","6LW"]}
{"price":82950,"dateOfTransfer":"1997-02-14T00:00:00","postcodeFull":"OL3 6DL","propertyType":"Detached","oldOrNew":"New build","duration":"Leasehold","paon":"8","saon":"","street":"PICKMERE MEWS","locality":"UPPERMILL","townOrCity":"OLDHAM","district":"OLDHAM","county":"GREATER MANCHESTER","ppdCategoryType":"Standard","recordStatus":"Addition","latitude":53.550083,"longitude":-2.007221,"postcodeStart":"OL3 6","postcode":["OL3","6DL"]}
{"price":56950,"dateOfTransfer":"1997-06-26T00:00:00","postcodeFull":"OL3 6JD","propertyType":"Semi-detached","oldOrNew":"Established","duration":"Freehold","paon":"17","saon":"","street":"RUSH HILL ROAD","locality":"UPPERMILL","townOrCity":"OLDHAM","district":"OLDHAM","county":"GREATER MANCHESTER","ppdCategoryType":"Standard","recordStatus":"Addition","latitude":53.544987,"longitude":-2.004534,"postcodeStart":"OL3 6","postcode":["OL3","6JD"]}
{"price":96950,"dateOfTransfer":"1997-09-26T00:00:00","postcodeFull":"OL3 6ET","propertyType":"Detached","oldOrNew":"New build","duration":"Leasehold","paon":"14","saon":"","street":"KENWORTHY GARDENS","locality":"UPPERMILL","townOrCity":"OLDHAM","district":"OLDHAM","county":"GREATER MANCHESTER","ppdCategoryType":"Standard","recordStatus":"Addition","latitude":53.549607,"longitude":-2.007236,"postcodeStart":"OL3 6","postcode":["OL3","6ET"]}
{"price":78000,"dateOfTransfer":"1997-02-20T00:00:00","postcodeFull":"OL3 6JB","propertyType":"Terraced","oldOrNew":"Established","duration":"Freehold","paon":"7","saon":"","street":"RUSH HILL TERRACE","locality":"UPPERMILL","townOrCity":"OLDHAM","district":"OLDHAM","county":"GREATER MANCHESTER","ppdCategoryType":"Standard","recordStatus":"Addition","latitude":53.545158,"longitude":-2.005757,"postcodeStart":"OL3 6","postcode":["OL3","6JB"]}
{"price":139250,"dateOfTransfer":"1997-06-30T00:00:00","postcodeFull":"OL3 6HL","propertyType":"Detached","oldOrNew":"Established","duration":"Freehold","paon":"43","saon":"","street":"SPRINGMEADOW LANE","locality":"UPPERMILL","townOrCity":"OLDHAM","district":"OLDHAM","county":"GREATER MANCHESTER","ppdCategoryType":"Standard","recordStatus":"Addition","latitude":53.547323,"longitude":-1.998754,"postcodeStart":"OL3 6","postcode":["OL3","6HL"]}
{"price":80000,"dateOfTransfer":"1997-04-11T00:00:00","postcodeFull":"OL3 6DL","propertyType":"Detached","oldOrNew":"New build","duration":"Leasehold","paon":"5","saon":"","street":"PICKMERE MEWS","locality":"UPPERMILL","townOrCity":"OLDHAM","district":"OLDHAM","county":"GREATER MANCHESTER","ppdCategoryType":"Standard","recordStatus":"Addition","latitude":53.550083,"longitude":-2.007221,"postcodeStart":"OL3 6","postcode":["OL3","6DL"]}
{"price":60000,"dateOfTransfer":"1997-09-26T00:00:00","postcodeFull":"OL3 6ET","propertyType":"Flat/Maisonette/Townhouse","oldOrNew":"New build","duration":"Leasehold","paon":"18","saon":"","street":"KENWORTHY GARDENS","locality":"UPPERMILL","townOrCity":"OLDHAM","district":"OLDHAM","county":"GREATER MANCHESTER","ppdCategoryType":"Standard","recordStatus":"Addition","latitude":53.549607,"longitude":-2.007236,"postcodeStart":"OL3 6","postcode":["OL3","6ET"]}
{"price":70950,"dateOfTransfer":"1997-08-01T00:00:00","postcodeFull":"OL3 6ET","propertyType":"Semi-detached","oldOrNew":"New build","duration":"Leasehold","paon":"12","saon":"","street":"KENWORTHY GARDENS","locality":"UPPERMILL","townOrCity":"OLDHAM","district":"OLDHAM","county":"GREATER MANCHESTER","ppdCategoryType":"Standard","recordStatus":"Addition","latitude":53.549607,"longitude":-2.007236,"postcodeStart":"OL3 6","postcode":["OL3","6ET"]}
{"price":76000,"dateOfTransfer":"1997-08-01T00:00:00","postcodeFull":"OL3 6EB","propertyType":"Semi-detached","oldOrNew":"Established","duration":"Leasehold","paon":"21","saon":"","street":"GREENBANK AVENUE","locality":"UPPERMILL","townOrCity":"OLDHAM","district":"OLDHAM","county":"GREATER MANCHESTER","ppdCategoryType":"Standard","recordStatus":"Addition","latitude":53.551378,"longitude":-1.998407,"postcodeStart":"OL3 6","postcode":["OL3","6EB"]}
{"price":51500,"dateOfTransfer":"1997-12-09T00:00:00","postcodeFull":"OL3 6BE","propertyType":"Flat/Maisonette/Townhouse","oldOrNew":"Established","duration":"Leasehold","paon":"15","saon":"","street":"OUTRAM MEWS","locality":"UPPERMILL","townOrCity":"OLDHAM","district":"OLDHAM","county":"GREATER MANCHESTER","ppdCategoryType":"Standard","recordStatus":"Addition","latitude":53.550955,"longitude":-2.006271,"postcodeStart":"OL3 6","postcode":["OL3","6BE"]}
{"price":69450,"dateOfTransfer":"1997-07-30T00:00:00","postcodeFull":"OL3 6BE","propertyType":"Flat/Maisonette/Townhouse","oldOrNew":"New build","duration":"Leasehold","paon":"3","saon":"","street":"OUTRAM MEWS","locality":"UPPERMILL","townOrCity":"OLDHAM","district":"OLDHAM","county":"GREATER MANCHESTER","ppdCategoryType":"Standard","recordStatus":"Addition","latitude":53.550955,"longitude":-2.006271,"postcodeStart":"OL3 6","postcode":["OL3","6BE"]}
{"price":152000,"dateOfTransfer":"1997-05-30T00:00:00","postcodeFull":"OL3 6BN","propertyType":"Detached","oldOrNew":"Established","duration":"Freehold","paon":"10","saon":"","street":"PICKHILL","locality":"UPPERMILL","townOrCity":"OLDHAM","district":"OLDHAM","county":"GREATER MANCHESTER","ppdCategoryType":"Standard","recordStatus":"Addition","latitude":53.549859,"longitude":-2.003086,"postcodeStart":"OL3 6","postcode":["OL3","6BN"]}
{"price":61000,"dateOfTransfer":"1997-05-09T00:00:00","postcodeFull":"OL3 6EA","propertyType":"Semi-detached","oldOrNew":"Established","duration":"Leasehold","paon":"19","saon":"","street":"FERNTHORPE AVENUE","locality":"UPPERMILL","townOrCity":"OLDHAM","district":"OLDHAM","county":"GREATER MANCHESTER","ppdCategoryType":"Standard","recordStatus":"Addition","latitude":53.551117,"longitude":-1.998467,"postcodeStart":"OL3 6","postcode":["OL3","6EA"]}
{"price":50000,"dateOfTransfer":"1997-12-19T00:00:00","postcodeFull":"OL3 6AL","propertyType":"Flat/Maisonette/Townhouse","oldOrNew":"Established","duration":"Leasehold","paon":"WILLOW BANK","saon":"FLAT 15","street":"VILLAGE GREEN","locality":"UPPERMILL","townOrCity":"OLDHAM","district":"OLDHAM","county":"GREATER MANCHESTER","ppdCategoryType":"Standard","recordStatus":"Addition","latitude":53.548583,"longitude":-2.004157,"postcodeStart":"OL3 6","postcode":["OL3","6AL"]}
{"price":40600,"dateOfTransfer":"1997-02-18T00:00:00","postcodeFull":"OL3 6DU","propertyType":"Semi-detached","oldOrNew":"Established","duration":"Freehold","paon":"33","saon":"","street":"WELLMEADOW LANE","locality":"UPPERMILL","townOrCity":"OLDHAM","district":"OLDHAM","county":"GREATER MANCHESTER","ppdCategoryType":"Standard","recordStatus":"Addition","latitude":53.550623,"longitude":-1.997924,"postcodeStart":"OL3 6","postcode":["OL3","6DU"]}
{"price":82000,"dateOfTransfer":"1997-04-11T00:00:00","postcodeFull":"OL3 6DL","propertyType":"Detached","oldOrNew":"New build","duration":"Leasehold","paon":"3","saon":"","street":"PICKMERE MEWS","locality":"UPPERMILL","townOrCity":"OLDHAM","district":"OLDHAM","county":"GREATER MANCHESTER","ppdCategoryType":"Standard","recordStatus":"Addition","latitude":53.550083,"longitude":-2.007221,"postcodeStart":"OL3 6","postcode":["OL3","6DL"]}
{"price":146500,"dateOfTransfer":"1998-08-21T00:00:00","postcodeFull":"OL3 6EQ","propertyType":"Semi-detached","oldOrNew":"Established","duration":"Freehold","paon":"7","saon":"","street":"SADDLEWORTH FOLD","locality":"UPPERMILL","townOrCity":"OLDHAM","district":"OLDHAM","county":"GREATER MANCHESTER","ppdCategoryType":"Standard","recordStatus":"Addition","latitude":53.550839,"longitude":-1.996324,"postcodeStart":"OL3 6","postcode":["OL3","6EQ"]}
{"price":56500,"dateOfTransfer":"1998-05-20T00:00:00","postcodeFull":"OL3 6ET","propertyType":"Flat/Maisonette/Townhouse","oldOrNew":"New build","duration":"Leasehold","paon":"1","saon":"","street":"KENWORTHY GARDENS","locality":"UPPERMILL","townOrCity":"OLDHAM","district":"OLDHAM","county":"GREATER MANCHESTER","ppdCategoryType":"Standard","recordStatus":"Addition","latitude":53.549607,"longitude":-2.007236,"postcodeStart":"OL3 6","postcode":["OL3","6ET"]}
{"price":87950,"dateOfTransfer":"1998-04-03T00:00:00","postcodeFull":"OL3 6ET","propertyType":"Detached","oldOrNew":"New build","duration":"Leasehold","paon":"4","saon":"","street":"KENWORTHY GARDENS","locality":"UPPERMILL","townOrCity":"OLDHAM","district":"OLDHAM","county":"GREATER MANCHESTER","ppdCategoryType":"Standard","recordStatus":"Addition","latitude":53.549607,"longitude":-2.007236,"postcodeStart":"OL3 6","postcode":["OL3","6ET"]}
{"price":78450,"dateOfTransfer":"1998-03-06T00:00:00","postcodeFull":"OL3 6JP","propertyType":"Semi-detached","oldOrNew":"Established","duration":"Leasehold","paon":"5","saon":"","street":"WILLOW ROAD","locality":"UPPERMILL","townOrCity":"OLDHAM","district":"OLDHAM","county":"GREATER MANCHESTER","ppdCategoryType":"Standard","recordStatus":"Addition","latitude":53.544475,"longitude":-2.001063,"postcodeStart":"OL3 6","postcode":["OL3","6JP"]}
{"price":73500,"dateOfTransfer":"1998-06-26T00:00:00","postcodeFull":"OL3 6DN","propertyType":"Terraced","oldOrNew":"New build","duration":"Leasehold","paon":"11","saon":"","street":"METCALF MEWS","locality":"UPPERMILL","townOrCity":"OLDHAM","district":"OLDHAM","county":"GREATER MANCHESTER","ppdCategoryType":"Standard","recordStatus":"Addition","latitude":53.549976,"longitude":-2.006497,"postcodeStart":"OL3 6","postcode":["OL3","6DN"]}
{"price":106500,"dateOfTransfer":"1998-11-06T00:00:00","postcodeFull":"OL3 6HY","propertyType":"Detached","oldOrNew":"Established","duration":"Freehold","paon":"32","saon":"","street":"OLDHAM ROAD","locality":"UPPERMILL","townOrCity":"OLDHAM","district":"OLDHAM","county":"GREATER MANCHESTER","ppdCategoryType":"Standard","recordStatus":"Addition","latitude":53.544537,"longitude":-2.009333,"postcodeStart":"OL3 6","postcode":["OL3","6HY"]}
{"price":127000,"dateOfTransfer":"1998-10-09T00:00:00","postcodeFull":"OL3 6DW","propertyType":"Detached","oldOrNew":"Established","duration":"Leasehold","paon":"3","saon":"","street":"BAGNALL CLOSE","locality":"UPPERMILL","townOrCity":"OLDHAM","district":"OLDHAM","county":"GREATER MANCHESTER","ppdCategoryType":"Standard","recordStatus":"Addition","latitude":53.55216,"longitude":-2.000581,"postcodeStart":"OL3 6","postcode":["OL3","6DW"]}
{"price":68500,"dateOfTransfer":"1998-05-20T00:00:00","postcodeFull":"OL3 6ET","propertyType":"Flat/Maisonette/Townhouse","oldOrNew":"New build","duration":"Leasehold","paon":"2","saon":"","street":"KENWORTHY GARDENS","locality":"UPPERMILL","townOrCity":"OLDHAM","district":"OLDHAM","county":"GREATER MANCHESTER","ppdCategoryType":"Standard","recordStatus":"Addition","latitude":53.549607,"longitude":-2.007236,"postcodeStart":"OL3 6","postcode":["OL3","6ET"]}
{"price":55000,"dateOfTransfer":"1998-05-08T00:00:00","postcodeFull":"OL3 6HW","propertyType":"Detached","oldOrNew":"New build","duration":"Leasehold","paon":"35A","saon":"","street":"SPRINGMEADOW LANE","locality":"UPPERMILL","townOrCity":"OLDHAM","district":"OLDHAM","county":"GREATER MANCHESTER","ppdCategoryType":"Standard","recordStatus":"Addition","latitude":53.547837,"longitude":-1.997698,"postcodeStart":"OL3 6","postcode":["OL3","6HW"]}
{"price":60000,"dateOfTransfer":"1998-07-31T00:00:00","postcodeFull":"OL3 6BA","propertyType":"Terraced","oldOrNew":"Established","duration":"Freehold","paon":"3","saon":"","street":"WADE ROW","locality":"UPPERMILL","townOrCity":"OLDHAM","district":"OLDHAM","county":"GREATER MANCHESTER","ppdCategoryType":"Standard","recordStatus":"Addition","latitude":53.54905,"longitude":-2.00701,"postcodeStart":"OL3 6","postcode":["OL3","6BA"]}
{"price":83500,"dateOfTransfer":"1998-04-03T00:00:00","postcodeFull":"OL3 6EA","propertyType":"Semi-detached","oldOrNew":"Established","duration":"Leasehold","paon":"17","saon":"","street":"FERNTHORPE AVENUE","locality":"UPPERMILL","townOrCity":"OLDHAM","district":"OLDHAM","county":"GREATER MANCHESTER","ppdCategoryType":"Standard","recordStatus":"Addition","latitude":53.551117,"longitude":-1.998467,"postcodeStart":"OL3 6","postcode":["OL3","6EA"]}
{"price":63000,"dateOfTransfer":"1998-06-19T00:00:00","postcodeFull":"OL3 6BD","propertyType":"Flat/Maisonette/Townhouse","oldOrNew":"Established","duration":"Leasehold","paon":"SADDLEWORTH HOUSE","saon":"APARTMENT 1","street":"HIGH STREET","locality":"UPPERMILL","townOrCity":"OLDHAM","district":"OLDHAM","county":"GREATER MANCHESTER","ppdCategoryType":"Standard","recordStatus":"Addition","latitude":53.549795,"longitude":-2.005453,"postcodeStart":"OL3 6","postcode":["OL3","6BD"]}
{"price":90000,"dateOfTransfer":"1998-12-11T00:00:00","postcodeFull":"OL3 6BP","propertyType":"Terraced","oldOrNew":"Established","duration":"Freehold","paon":"6","saon":"","street":"BUCKLEY STREET","locality":"UPPERMILL","townOrCity":"OLDHAM","district":"OLDHAM","county":"GREATER MANCHESTER","ppdCategoryType":"Standard","recordStatus":"Addition","latitude":53.549751,"longitude":-2.003916,"postcodeStart":"OL3 6","postcode":["OL3","6BP"]}
{"price":75000,"dateOfTransfer":"1998-04-24T00:00:00","postcodeFull":"OL3 6DY","propertyType":"Terraced","oldOrNew":"Established","duration":"Freehold","paon":"93","saon":"","street":"CHURCH ROAD","locality":"UPPERMILL","townOrCity":"OLDHAM","district":"OLDHAM","county":"GREATER MANCHESTER","ppdCategoryType":"Standard","recordStatus":"Addition","latitude":53.549778,"longitude":-1.999011,"postcodeStart":"OL3 6","postcode":["OL3","6DY"]}
{"price":82500,"dateOfTransfer":"1998-01-16T00:00:00","postcodeFull":"OL3 6BS","propertyType":"Detached","oldOrNew":"Established","duration":"Leasehold","paon":"8","saon":"","street":"TELFORD MEWS","locality":"UPPERMILL","townOrCity":"OLDHAM","district":"OLDHAM","county":"GREATER MANCHESTER","ppdCategoryType":"Standard","recordStatus":"Addition","latitude":53.550434,"longitude":-2.006542,"postcodeStart":"OL3 6","postcode":["OL3","6BS"]}
{"price":70000,"dateOfTransfer":"1998-11-24T00:00:00","postcodeFull":"OL3 6BE","propertyType":"Flat/Maisonette/Townhouse","oldOrNew":"Established","duration":"Leasehold","paon":"7","saon":"","street":"OUTRAM MEWS","locality":"UPPERMILL","townOrCity":"OLDHAM","district":"OLDHAM","county":"GREATER MANCHESTER","ppdCategoryType":"Standard","recordStatus":"Addition","latitude":53.550955,"longitude":-2.006271,"postcodeStart":"OL3 6","postcode":["OL3","6BE"]}
{"price":53100,"dateOfTransfer":"1998-09-04T00:00:00","postcodeFull":"OL3 6DE","propertyType":"Terraced","oldOrNew":"Established","duration":"Freehold","paon":"1","saon":"","street":"MOORGATE STREET","locality":"UPPERMILL","townOrCity":"OLDHAM","district":"OLDHAM","county":"GREATER MANCHESTER","ppdCategoryType":"Standard","recordStatus":"Addition","latitude":53.547476,"longitude":-2.00746,"postcodeStart":"OL3 6","postcode":["OL3","6DE"]}
{"price":71000,"dateOfTransfer":"1998-06-26T00:00:00","postcodeFull":"OL3 6DB","propertyType":"Terraced","oldOrNew":"Established","duration":"Freehold","paon":"6","saon":"","street":"MOUNT VIEW","locality":"UPPERMILL","townOrCity":"OLDHAM","district":"OLDHAM","county":"GREATER MANCHESTER","ppdCategoryType":"Standard","recordStatus":"Addition","latitude":53.548681,"longitude":-2.008504,"postcodeStart":"OL3 6","postcode":["OL3","6DB"]}
{"price":50000,"dateOfTransfer":"1998-04-09T00:00:00","postcodeFull":"OL3 6BE","propertyType":"Flat/Maisonette/Townhouse","oldOrNew":"Established","duration":"Leasehold","paon":"14","saon":"","street":"OUTRAM MEWS","locality":"UPPERMILL","townOrCity":"OLDHAM","district":"OLDHAM","county":"GREATER MANCHESTER","ppdCategoryType":"Standard","recordStatus":"Addition","latitude":53.550955,"longitude":-2.006271,"postcodeStart":"OL3 6","postcode":["OL3","6BE"]}
{"price":95000,"dateOfTransfer":"1998-02-18T00:00:00","postcodeFull":"OL3 6EP","propertyType":"Semi-detached","oldOrNew":"Established","duration":"Freehold","paon":"7","saon":"","street":"SPRINGMEADOW LANE","locality":"UPPERMILL","townOrCity":"OLDHAM","district":"OLDHAM","county":"GREATER MANCHESTER","ppdCategoryType":"Standard","recordStatus":"Addition","latitude":53.549327,"longitude":-1.997348,"postcodeStart":"OL3 6","postcode":["OL3","6EP"]}
{"price":82000,"dateOfTransfer":"1998-01-09T00:00:00","postcodeFull":"OL3 6JP","propertyType":"Detached","oldOrNew":"Established","duration":"Leasehold","paon":"7","saon":"","street":"WILLOW ROAD","locality":"UPPERMILL","townOrCity":"OLDHAM","district":"OLDHAM","county":"GREATER MANCHESTER","ppdCategoryType":"Standard","recordStatus":"Addition","latitude":53.544475,"longitude":-2.001063,"postcodeStart":"OL3 6","postcode":["OL3","6JP"]}
{"price":97000,"dateOfTransfer":"1998-12-11T00:00:00","postcodeFull":"OL3 6ET","propertyType":"Detached","oldOrNew":"Established","duration":"Leasehold","paon":"10","saon":"","street":"KENWORTHY GARDENS","locality":"UPPERMILL","townOrCity":"OLDHAM","district":"OLDHAM","county":"GREATER MANCHESTER","ppdCategoryType":"Standard","recordStatus":"Addition","latitude":53.549607,"longitude":-2.007236,"postcodeStart":"OL3 6","postcode":["OL3","6ET"]}
{"price":69950,"dateOfTransfer":"1998-07-03T00:00:00","postcodeFull":"OL3 6BE","propertyType":"Flat/Maisonette/Townhouse","oldOrNew":"New build","duration":"Leasehold","paon":"5","saon":"","street":"OUTRAM MEWS","locality":"UPPERMILL","townOrCity":"OLDHAM","district":"OLDHAM","county":"GREATER MANCHESTER","ppdCategoryType":"Standard","recordStatus":"Addition","latitude":53.550955,"longitude":-2.006271,"postcodeStart":"OL3 6","postcode":["OL3","6BE"]}
