{"price":82000,"dateOfTransfer":"1995-11-08T00:00:00","postcodeFull":"PL34 0EN","propertyType":"Detached","oldOrNew":"Established","duration":"Freehold","paon":"HILLSIDE","saon":"","street":"","locality":"TREKNOW","townOrCity":"TINTAGEL","district":"NORTH CORNWALL","county":"CORNWALL","ppdCategoryType":"Standard","recordStatus":"Addition","latitude":50.648672,"longitude":-4.750922,"postcodeStart":"PL34 0","postcode":["PL34","0EN"]}
{"price":12000,"dateOfTransfer":"1995-03-03T00:00:00","postcodeFull":"PL34 0DD","propertyType":"Flat/Maisonette/Townhouse","oldOrNew":"Established","duration":"Leasehold","paon":"5","saon":"FLAT 3","street":"KING ARTHURS TERRACE","locality":"TINTAGEL","townOrCity":"TINTAGEL","district":"NORTH CORNWALL","county":"CORNWALL","ppdCategoryType":"Standard","recordStatus":"Addition","latitude":50.664441,"longitude":-4.753282,"postcodeStart":"PL34 0","postcode":["PL34","0DD"]}
{"price":34500,"dateOfTransfer":"1995-01-31T00:00:00","postcodeFull":"PL34 0HP","propertyType":"Detached","oldOrNew":"Established","duration":"Freehold","paon":"JASMINE COTTAGE","saon":"","street":"","locality":"TRENALE","townOrCity":"TINTAGEL","district":"NORTH CORNWALL","county":"CORNWALL","ppdCategoryType":"Standard","recordStatus":"Addition","latitude":50.659496,"longitude":-4.732466,"postcodeStart":"PL34 0","postcode":["PL34","0HP"]}
{"price":120000,"dateOfTransfer":"1995-11-13T00:00:00","postcodeFull":"PL34 0HN","propertyType":"Detached","oldOrNew":"Established","duration":"Freehold","paon":"FENTERLEIGH","saon":"","street":"","locality":"TINTAGEL","townOrCity":"TINTAGEL","district":"NORTH CORNWALL","county":"CORNWALL","ppdCategoryType":"Standard","recordStatus":"Addition","latitude":50.663198,"longitude":-4.731846,"postcodeStart":"PL34 0","postcode":["PL34","0HN"]}
{"price":80000,"dateOfTransfer":"1995-05-22T00:00:00","postcodeFull":"PL34 0EW","propertyType":"Detached","oldOrNew":"Established","duration":"Freehold","paon":"OVERDENE","saon":"","street":"TRELAKE LANE","locality":"TREKNOW","townOrCity":"TINTAGEL","district":"NORTH CORNWALL","county":"CORNWALL","ppdCategoryType":"Standard","recordStatus":"Addition","latitude":50.647401,"longitude":-4.749504,"postcodeStart":"PL34 0","postcode":["PL34","0EW"]}
{"price":44950,"dateOfTransfer":"1995-06-05T00:00:00","postcodeFull":"PL34 0BH","propertyType":"Semi-detached","oldOrNew":"Established","duration":"Freehold","paon":"3","saon":"","street":"WESTGROUND WAY","locality":"TINTAGEL","townOrCity":"TINTAGEL","district":"NORTH CORNWALL","county":"CORNWALL","ppdCategoryType":"Standard","recordStatus":"Addition","latitude":50.666563,"longitude":-4.741764,"postcodeStart":"PL34 0","postcode":["PL34","0BH"]}
{"price":72750,"dateOfTransfer":"1995-10-30T00:00:00","postcodeFull":"PL34 0EP","propertyType":"Detached","oldOrNew":"Established","duration":"Freehold","paon":"TREGOSSE","saon":"","street":"","locality":"TREKNOW","townOrCity":"TINTAGEL","district":"NORTH CORNWALL","county":"CORNWALL","ppdCategoryType":"Standard","recordStatus":"Addition","latitude":50.646823,"longitude":-4.755723,"postcodeStart":"PL34 0","postcode":["PL34","0EP"]}
{"price":45500,"dateOfTransfer":"1995-06-30T00:00:00","postcodeFull":"PL34 0BU","propertyType":"Detached","oldOrNew":"Established","duration":"Freehold","paon":"PENTIRE","saon":"","street":"FOSTERS LANE","locality":"TINTAGEL","townOrCity":"TINTAGEL","district":"NORTH CORNWALL","county":"CORNWALL","ppdCategoryType":"Standard","recordStatus":"Addition","latitude":50.660862,"longitude":-4.748182,"postcodeStart":"PL34 0","postcode":["PL34","0BU"]}
{"price":55800,"dateOfTransfer":"1995-06-30T00:00:00","postcodeFull":"PL34 0BU","propertyType":"Detached","oldOrNew":"Established","duration":"Freehold","paon":"CREEK END","saon":"","street":"FOSTERS LANE","locality":"TINTAGEL","townOrCity":"TINTAGEL","district":"NORTH CORNWALL","county":"CORNWALL","ppdCategoryType":"Standard","recordStatus":"Addition","latitude":50.660862,"longitude":-4.748182,"postcodeStart":"PL34 0","postcode":["PL34","0BU"]}
{"price":51500,"dateOfTransfer":"1995-12-29T00:00:00","postcodeFull":"PL34 0BU","propertyType":"Detached","oldOrNew":"Established","duration":"Freehold","paon":"WINDRUSH","saon":"","street":"FOSTERS LANE","locality":"TINTAGEL","townOrCity":"TINTAGEL","district":"NORTH CORNWALL","county":"CORNWALL","ppdCategoryType":"Standard","recordStatus":"Addition","latitude":50.660862,"longitude":-4.748182,"postcodeStart":"PL34 0","postcode":["PL34","0BU"]}
{"price":60000,"dateOfTransfer":"1995-01-20T00:00:00","postcodeFull":"PL34 0BE","propertyType":"Detached","oldOrNew":"Established","duration":"Freehold","paon":"ST PIRANS FARM","saon":"","street":"","locality":"TRETHEVY","townOrCity":"TINTAGEL","district":"NORTH CORNWALL","county":"CORNWALL","ppdCategoryType":"Standard","recordStatus":"Addition","latitude":50.669912,"longitude":-4.723984,"postcodeStart":"PL34 0","postcode":["PL34","0BE"]}
{"price":32000,"dateOfTransfer":"1995-01-05T00:00:00","postcodeFull":"PL34 0AT","propertyType":"Terraced","oldOrNew":"Established","duration":"Freehold","paon":"5","saon":"","street":"THE BUTTS","locality":"TINTAGEL","townOrCity":"TINTAGEL","district":"NORTH CORNWALL","county":"CORNWALL","ppdCategoryType":"Standard","recordStatus":"Addition","latitude":50.665655,"longitude":-4.742872,"postcodeStart":"PL34 0","postcode":["PL34","0AT"]}
{"price":68000,"dateOfTransfer":"1995-12-18T00:00:00","postcodeFull":"PL34 0EW","propertyType":"Terraced","oldOrNew":"Established","duration":"Freehold","paon":"MIDDLE TRELAKE COTTAGE","saon":"","street":"TRELAKE LANE","locality":"TREKNOW","townOrCity":"TINTAGEL","district":"NORTH CORNWALL","county":"CORNWALL","ppdCategoryType":"Standard","recordStatus":"Addition","latitude":50.647401,"longitude":-4.749504,"postcodeStart":"PL34 0","postcode":["PL34","0EW"]}
{"price":45750,"dateOfTransfer":"1995-04-18T00:00:00","postcodeFull":"PL34 0BG","propertyType":"Detached","oldOrNew":"Established","duration":"Freehold","paon":"MALLORY","saon":"","street":"","locality":"TRETHEVY","townOrCity":"TINTAGEL","district":"NORTH CORNWALL","county":"CORNWALL","ppdCategoryType":"Standard","recordStatus":"Addition","latitude":50.67167,"longitude":-4.721892,"postcodeStart":"PL34 0","postcode":["PL34","0BG"]}
{"price":12000,"dateOfTransfer":"1995-03-31T00:00:00","postcodeFull":"PL34 0DD","propertyType":"Flat/Maisonette/Townhouse","oldOrNew":"Established","duration":"Leasehold","paon":"5","saon":"FLAT 2","street":"KING ARTHURS TERRACE","locality":"TINTAGEL","townOrCity":"TINTAGEL","district":"NORTH CORNWALL","county":"CORNWALL","ppdCategoryType":"Standard","recordStatus":"Addition","latitude":50.664441,"longitude":-4.753282,"postcodeStart":"PL34 0","postcode":["PL34","0DD"]}
{"price":44000,"dateOfTransfer":"1995-05-19T00:00:00","postcodeFull":"PL34 0ET","propertyType":"Terraced","oldOrNew":"Established","duration":"Freehold","paon":"ROSE COTTAGE","saon":"","street":"","locality":"TREWARMETT","townOrCity":"TINTAGEL","district":"NORTH CORNWALL","county":"CORNWALL","ppdCategoryType":"Standard","recordStatus":"Addition","latitude":50.645712,"longitude":-4.736145,"postcodeStart":"PL34 0","postcode":["PL34","0ET"]}
{"price":92000,"dateOfTransfer":"1995-06-23T00:00:00","postcodeFull":"PL34 0EW","propertyType":"Semi-detached","oldOrNew":"Established","duration":"Freehold","paon":"MICHAEL HOUSE","saon":"","street":"TRELAKE LANE","locality":"TREKNOW","townOrCity":"TINTAGEL","district":"NORTH CORNWALL","county":"CORNWALL","ppdCategoryType":"Standard","recordStatus":"Addition","latitude":50.647401,"longitude":-4.749504,"postcodeStart":"PL34 0","postcode":["PL34","0EW"]}
{"price":11000,"dateOfTransfer":"1995-08-25T00:00:00","postcodeFull":"PL34 0DD","propertyType":"Flat/Maisonette/Townhouse","oldOrNew":"Established","duration":"Leasehold","paon":"5","saon":"FLAT 1","street":"KING ARTHURS TERRACE","locality":"TINTAGEL","townOrCity":"TINTAGEL","district":"NORTH CORNWALL","county":"CORNWALL","ppdCategoryType":"Standard","recordStatus":"Addition","latitude":50.664441,"longitude":-4.753282,"postcodeStart":"PL34 0","postcode":["PL34","0DD"]}
{"price":43000,"dateOfTransfer":"1995-10-06T00:00:00","postcodeFull":"PL34 0AG","propertyType":"Terraced","oldOrNew":"Established","duration":"Freehold","paon":"CHANNEL VILLA","saon":"","street":"BOSSINEY ROAD","locality":"TINTAGEL","townOrCity":"TINTAGEL","district":"NORTH CORNWALL","county":"CORNWALL","ppdCategoryType":"Standard","recordStatus":"Addition","latitude":50.663045,"longitude":-4.744474,"postcodeStart":"PL34 0","postcode":["PL34","0AG"]}
{"price":35000,"dateOfTransfer":"1995-09-08T00:00:00","postcodeFull":"PL34 0BH","propertyType":"Semi-detached","oldOrNew":"Established","duration":"Freehold","paon":"24","saon":"","street":"WESTGROUND WAY","locality":"TINTAGEL","townOrCity":"TINTAGEL","district":"NORTH CORNWALL","county":"CORNWALL","ppdCategoryType":"Standard","recordStatus":"Addition","latitude":50.666563,"longitude":-4.741764,"postcodeStart":"PL34 0","postcode":["PL34","0BH"]}
{"price":55000,"dateOfTransfer":"1995-03-17T00:00:00","postcodeFull":"PL34 0EN","propertyType":"Semi-detached","oldOrNew":"Established","duration":"Freehold","paon":"TREBETH COTTAGE","saon":"","street":"","locality":"TREKNOW","townOrCity":"TINTAGEL","district":"NORTH CORNWALL","county":"CORNWALL","ppdCategoryType":"Standard","recordStatus":"Addition","latitude":50.648672,"longitude":-4.750922,"postcodeStart":"PL34 0","postcode":["PL34","0EN"]}
{"price":79950,"dateOfTransfer":"1996-04-16T00:00:00","postcodeFull":"PL34 0AX","propertyType":"Terraced","oldOrNew":"Established","duration":"Freehold","paon":"THE GRANGE","saon":"","street":"","locality":"BOSSINEY","townOrCity":"TINTAGEL","district":"NORTH CORNWALL","county":"CORNWALL","ppdCategoryType":"Standard","recordStatus":"Addition","latitude":50.666417,"longitude":-4.739534,"postcodeStart":"PL34 0","postcode":["PL34","0AX"]}
{"price":45000,"dateOfTransfer":"1996-07-19T00:00:00","postcodeFull":"PL34 0ET","propertyType":"Terraced","oldOrNew":"Established","duration":"Freehold","paon":"ROSE COTTAGE","saon":"","street":"","locality":"TREWARMETT","townOrCity":"TINTAGEL","district":"NORTH CORNWALL","county":"CORNWALL","ppdCategoryType":"Standard","recordStatus":"Addition","latitude":50.645712,"longitude":-4.736145,"postcodeStart":"PL34 0","postcode":["PL34","0ET"]}
{"price":85000,"dateOfTransfer":"1996-01-22T00:00:00","postcodeFull":"PL34 0DN","propertyType":"Detached","oldOrNew":"Established","duration":"Freehold","paon":"MERLINS COTTAGE","saon":"","street":"","locality":"TREVILLICK","townOrCity":"TINTAGEL","district":"NORTH CORNWALL","county":"CORNWALL","ppdCategoryType":"Standard","recordStatus":"Addition","latitude":50.657385,"longitude":-4.756752,"postcodeStart":"PL34 0","postcode":["PL34","0DN"]}
{"price":13333,"dateOfTransfer":"1996-02-08T00:00:00","postcodeFull":"PL34 0AG","propertyType":"Flat/Maisonette/Townhouse","oldOrNew":"Established","duration":"Freehold","paon":"TINTAGEL MOTORS","saon":"","street":"BOSSINEY ROAD","locality":"","townOrCity":"TINTAGEL","district":"CORNWALL","county":"CORNWALL","ppdCategoryType":"Standard","recordStatus":"Addition","latitude":50.663045,"longitude":-4.744474,"postcodeStart":"PL34 0","postcode":["PL34","0AG"]}
{"price":190000,"dateOfTransfer":"1996-12-04T00:00:00","postcodeFull":"PL34 0EJ","propertyType":"Detached","oldOrNew":"Established","duration":"Freehold","paon":"ATLANTIC VIEW HOTEL","saon":"","street":"","locality":"TREKNOW","townOrCity":"TINTAGEL","district":"CORNWALL","county":"CORNWALL","ppdCategoryType":"Standard","recordStatus":"Addition","latitude":50.651783,"longitude":-4.75249,"postcodeStart":"PL34 0","postcode":["PL34","0EJ"]}
{"price":60000,"dateOfTransfer":"1996-09-27T00:00:00","postcodeFull":"PL34 0DD","propertyType":"Terraced","oldOrNew":"Established","duration":"Freehold","paon":"4","saon":"","street":"KING ARTHURS TERRACE","locality":"TINTAGEL","townOrCity":"TINTAGEL","district":"NORTH CORNWALL","county":"CORNWALL","ppdCategoryType":"Standard","recordStatus":"Addition","latitude":50.664441,"longitude":-4.753282,"postcodeStart":"PL34 0","postcode":["PL34","0DD"]}
{"price":52500,"dateOfTransfer":"1996-06-19T00:00:00","postcodeFull":"PL34 0BG","propertyType":"Detached","oldOrNew":"Established","duration":"Freehold","paon":"BRADOC","saon":"","street":"","locality":"TRETHEVY","townOrCity":"TINTAGEL","district":"NORTH CORNWALL","county":"CORNWALL","ppdCategoryType":"Standard","recordStatus":"Addition","latitude":50.67167,"longitude":-4.721892,"postcodeStart":"PL34 0","postcode":["PL34","0BG"]}
{"price":78750,"dateOfTransfer":"1996-04-04T00:00:00","postcodeFull":"PL34 0AL","propertyType":"Detached","oldOrNew":"Established","duration":"Freehold","paon":"DAVANA LODGE","saon":"","street":"BOSSINEY ROAD","locality":"TINTAGEL","townOrCity":"TINTAGEL","district":"NORTH CORNWALL","county":"CORNWALL","ppdCategoryType":"Standard","recordStatus":"Addition","latitude":50.663943,"longitude":-4.742998,"postcodeStart":"PL34 0","postcode":["PL34","0AL"]}
{"price":31333,"dateOfTransfer":"1996-09-24T00:00:00","postcodeFull":"PL34 0DA","propertyType":"Terraced","oldOrNew":"Established","duration":"Freehold","paon":"BATH COTTAGE","saon":"","street":"FORE STREET","locality":"TINTAGEL","townOrCity":"TINTAGEL","district":"NORTH CORNWALL","county":"CORNWALL","ppdCategoryType":"Standard","recordStatus":"Addition","latitude":50.663503,"longitude":-4.751136,"postcodeStart":"PL34 0","postcode":["PL34","0DA"]}
{"price":70000,"dateOfTransfer":"1996-08-01T00:00:00","postcodeFull":"PL34 0DE","propertyType":"Semi-detached","oldOrNew":"Established","duration":"Freehold","paon":"LENARTH","saon":"","street":"ATLANTIC ROAD","locality":"TINTAGEL","townOrCity":"TINTAGEL","district":"NORTH CORNWALL","county":"CORNWALL","ppdCategoryType":"Standard","recordStatus":"Addition","latitude":50.665868,"longitude":-4.752168,"postcodeStart":"PL34 0","postcode":["PL34","0DE"]}
{"price":35000,"dateOfTransfer":"1996-05-30T00:00:00","postcodeFull":"PL34 0ET","propertyType":"Terraced","oldOrNew":"Established","duration":"Freehold","paon":"1 JUBILEE COTTAGE","saon":"","street":"","locality":"TREWARMETT","townOrCity":"TINTAGEL","district":"NORTH CORNWALL","county":"CORNWALL","ppdCategoryType":"Standard","recordStatus":"Addition","latitude":50.645712,"longitude":-4.736145,"postcodeStart":"PL34 0","postcode":["PL34","0ET"]}
{"price":62000,"dateOfTransfer":"1996-09-13T00:00:00","postcodeFull":"PL34 0ET","propertyType":"Semi-detached","oldOrNew":"Established","duration":"Freehold","paon":"CLIFTON HOUSE","saon":"","street":"","locality":"TREWARMETT","townOrCity":"TINTAGEL","district":"NORTH CORNWALL","county":"CORNWALL","ppdCategoryType":"Standard","recordStatus":"Addition","latitude":50.645712,"longitude":-4.736145,"postcodeStart":"PL34 0","postcode":["PL34","0ET"]}
{"price":12000,"dateOfTransfer":"1996-07-01T00:00:00","postcodeFull":"PL34 0DH","propertyType":"Flat/Maisonette/Townhouse","oldOrNew":"Established","duration":"Freehold","paon":"CLIFF COTTAGE","saon":"LOWER FLAT","street":"CASTLE VIEW","locality":"TINTAGEL","townOrCity":"TINTAGEL","district":"NORTH CORNWALL","county":"CORNWALL","ppdCategoryType":"Standard","recordStatus":"Addition","latitude":50.666589,"longitude":-4.754484,"postcodeStart":"PL34 0","postcode":["PL34","0DH"]}
{"price":21750,"dateOfTransfer":"1996-05-03T00:00:00","postcodeFull":"PL34 0BE","propertyType":"Detached","oldOrNew":"Established","duration":"Freehold","paon":"ST. CLEDER","saon":"","street":"","locality":"TRETHEVY","townOrCity":"TINTAGEL","district":"NORTH CORNWALL","county":"CORNWALL","ppdCategoryType":"Standard","recordStatus":"Addition","latitude":50.669912,"longitude":-4.723984,"postcodeStart":"PL34 0","postcode":["PL34","0BE"]}
{"price":43000,"dateOfTransfer":"1996-02-06T00:00:00","postcodeFull":"PL34 0ET","propertyType":"Detached","oldOrNew":"Established","duration":"Freehold","paon":"SUNNYSIDE","saon":"","street":"","locality":"TREWARMETT","townOrCity":"TINTAGEL","district":"NORTH CORNWALL","county":"CORNWALL","ppdCategoryType":"Standard","recordStatus":"Addition","latitude":50.645712,"longitude":-4.736145,"postcodeStart":"PL34 0","postcode":["PL34","0ET"]}
{"price":45000,"dateOfTransfer":"1996-01-31T00:00:00","postcodeFull":"PL34 0AG","propertyType":"Detached","oldOrNew":"Established","duration":"Freehold","paon":"LEYLANDS","saon":"","street":"BOSSINEY ROAD","locality":"TINTAGEL","townOrCity":"TINTAGEL","district":"NORTH CORNWALL","county":"CORNWALL","ppdCategoryType":"Standard","recordStatus":"Addition","latitude":50.663045,"longitude":-4.744474,"postcodeStart":"PL34 0","postcode":["PL34","0AG"]}
{"price":48000,"dateOfTransfer":"1996-11-22T00:00:00","postcodeFull":"PL34 0AQ","propertyType":"Detached","oldOrNew":"Established","duration":"Freehold","paon":"TREWIN BUNGALOW","saon":"","street":"BOSSINEY ROAD","locality":"TINTAGEL","townOrCity":"TINTAGEL","district":"NORTH CORNWALL","county":"CORNWALL","ppdCategoryType":"Standard","recordStatus":"Addition","latitude":50.662782,"longitude":-4.744284,"postcodeStart":"PL34 0","postcode":["PL34","0AQ"]}
{"price":82000,"dateOfTransfer":"1996-03-15T00:00:00","postcodeFull":"PL34 0HL","propertyType":"Detached","oldOrNew":"Established","duration":"Freehold","paon":"TREWINNICK FARM COTTAGE","saon":"","street":"","locality":"TINTAGEL","townOrCity":"TINTAGEL","district":"NORTH CORNWALL","county":"CORNWALL","ppdCategoryType":"Standard","recordStatus":"Addition","latitude":50.661968,"longitude":-4.715325,"postcodeStart":"PL34 0","postcode":["PL34","0HL"]}
{"price":57000,"dateOfTransfer":"1996-09-30T00:00:00","postcodeFull":"PL34 0DN","propertyType":"Detached","oldOrNew":"Established","duration":"Freehold","paon":"LINDISFARNE","saon":"","street":"","locality":"TREVILLICK","townOrCity":"TINTAGEL","district":"CORNWALL","county":"CORNWALL","ppdCategoryType":"Standard","recordStatus":"Addition","latitude":50.657385,"longitude":-4.756752,"postcodeStart":"PL34 0","postcode":["PL34","0DN"]}
{"price":55000,"dateOfTransfer":"1996-09-27T00:00:00","postcodeFull":"PL34 0BH","propertyType":"Semi-detached","oldOrNew":"Established","duration":"Freehold","paon":"43","saon":"","street":"WESTGROUND WAY","locality":"TINTAGEL","townOrCity":"TINTAGEL","district":"NORTH CORNWALL","county":"CORNWALL","ppdCategoryType":"Standard","recordStatus":"Addition","latitude":50.666563,"longitude":-4.741764,"postcodeStart":"PL34 0","postcode":["PL34","0BH"]}
{"price":27500,"dateOfTransfer":"1996-04-26T00:00:00","postcodeFull":"PL34 0BH","propertyType":"Semi-detached","oldOrNew":"Established","duration":"Freehold","paon":"43","saon":"","street":"WESTGROUND WAY","locality":"TINTAGEL","townOrCity":"TINTAGEL","district":"NORTH CORNWALL","county":"CORNWALL","ppdCategoryType":"Standard","recordStatus":"Addition","latitude":50.666563,"longitude":-4.741764,"postcodeStart":"PL34 0","postcode":["PL34","0BH"]}
{"price":45000,"dateOfTransfer":"1996-02-16T00:00:00","postcodeFull":"PL34 0DT","propertyType":"Semi-detached","oldOrNew":"Established","duration":"Freehold","paon":"EXATON","saon":"","street":"","locality":"TREVEN","townOrCity":"TINTAGEL","district":"NORTH CORNWALL","county":"CORNWALL","ppdCategoryType":"Standard","recordStatus":"Addition","latitude":50.65706,"longitude":-4.750444,"postcodeStart":"PL34 0","postcode":["PL34","0DT"]}
{"price":60000,"dateOfTransfer":"1996-05-24T00:00:00","postcodeFull":"PL34 0EN","propertyType":"Semi-detached","oldOrNew":"Established","duration":"Freehold","paon":"ELM COTTAGE","saon":"","street":"","locality":"TREKNOW","townOrCity":"TINTAGEL","district":"NORTH CORNWALL","county":"CORNWALL","ppdCategoryType":"Standard","recordStatus":"Addition","latitude":50.648672,"longitude":-4.750922,"postcodeStart":"PL34 0","postcode":["PL34","0EN"]}
{"price":54000,"dateOfTransfer":"1996-02-29T00:00:00","postcodeFull":"PL34 0BH","propertyType":"Detached","oldOrNew":"Established","duration":"Freehold","paon":"51","saon":"","street":"WESTGROUND WAY","locality":"TINTAGEL","townOrCity":"TINTAGEL","district":"NORTH CORNWALL","county":"CORNWALL","ppdCategoryType":"Standard","recordStatus":"Addition","latitude":50.666563,"longitude":-4.741764,"postcodeStart":"PL34 0","postcode":["PL34","0BH"]}
{"price":46000,"dateOfTransfer":"1996-08-23T00:00:00","postcodeFull":"PL34 0AP","propertyType":"Detached","oldOrNew":"Established","duration":"Freehold","paon":"TIGGERS REST","saon":"","street":"BOSSINEY ROAD","locality":"TINTAGEL","townOrCity":"TINTAGEL","district":"NORTH CORNWALL","county":"CORNWALL","ppdCategoryType":"Standard","recordStatus":"Addition","latitude":50.6661,"longitude":-4.740803,"postcodeStart":"PL34 0","postcode":["PL34","0AP"]}
{"price":69000,"dateOfTransfer":"1996-09-16T00:00:00","postcodeFull":"PL34 0BE","propertyType":"Detached","oldOrNew":"Established","duration":"Freehold","paon":"VALLEY EDGE","saon":"","street":"","locality":"TRETHEVY","townOrCity":"TINTAGEL","district":"NORTH CORNWALL","county":"CORNWALL","ppdCategoryType":"Standard","recordStatus":"Addition","latitude":50.669912,"longitude":-4.723984,"postcodeStart":"PL34 0","postcode":["PL34","0BE"]}
{"price":40000,"dateOfTransfer":"1996-11-04T00:00:00","postcodeFull":"PL34 0EN","propertyType":"Terraced","oldOrNew":"Established","duration":"Freehold","paon":"2","saon":"","street":"ROSE COTTAGES","locality":"TREKNOW","townOrCity":"TINTAGEL","district":"NORTH CORNWALL","county":"CORNWALL","ppdCategoryType":"Standard","recordStatus":"Addition","latitude":50.648672,"longitude":-4.750922,"postcodeStart":"PL34 0","postcode":["PL34","0EN"]}
{"price":67000,"dateOfTransfer":"1996-12-06T00:00:00","postcodeFull":"PL34 0EJ","propertyType":"Detached","oldOrNew":"Established","duration":"Freehold","paon":"TREKNOW HOUSE","saon":"","street":"","locality":"TREKNOW","townOrCity":"TINTAGEL","district":"NORTH CORNWALL","county":"CORNWALL","ppdCategoryType":"Standard","recordStatus":"Addition","latitude":50.651783,"longitude":-4.75249,"postcodeStart":"PL34 0","postcode":["PL34","0EJ"]}
{"price":60000,"dateOfTransfer":"1996-08-21T00:00:00","postcodeFull":"PL34 0BG","propertyType":"Detached","oldOrNew":"Established","duration":"Freehold","paon":"ST CAROLYN","saon":"","street":"","locality":"TRETHEVY","townOrCity":"TINTAGEL","district":"NORTH CORNWALL","county":"CORNWALL","ppdCategoryType":"Standard","recordStatus":"Addition","latitude":50.67167,"longitude":-4.721892,"postcodeStart":"PL34 0","postcode":["PL34","0BG"]}
{"price":79750,"dateOfTransfer":"1996-04-12T00:00:00","postcodeFull":"PL34 0BG","propertyType":"Detached","oldOrNew":"Established","duration":"Freehold","paon":"LYE VIEW","saon":"","street":"","locality":"TRETHEVY","townOrCity":"TINTAGEL","district":"NORTH CORNWALL","county":"CORNWALL","ppdCategoryType":"Standard","recordStatus":"Addition","latitude":50.67167,"longitude":-4.721892,"postcodeStart":"PL34 0","postcode":["PL34","0BG"]}
{"price":72000,"dateOfTransfer":"1996-05-24T00:00:00","postcodeFull":"PL34 0HP","propertyType":"Detached","oldOrNew":"Established","duration":"Freehold","paon":"HENDRA OLD FARMHOUSE","saon":"","street":"","locality":"TRENALE","townOrCity":"TINTAGEL","district":"NORTH CORNWALL","county":"CORNWALL","ppdCategoryType":"Standard","recordStatus":"Addition","latitude":50.659496,"longitude":-4.732466,"postcodeStart":"PL34 0","postcode":["PL34","0HP"]}
{"price":78000,"dateOfTransfer":"1996-12-23T00:00:00","postcodeFull":"PL34 0DT","propertyType":"Semi-detached","oldOrNew":"Established","duration":"Freehold","paon":"TREVEN HOUSE","saon":"","street":"","locality":"TREVEN","townOrCity":"TINTAGEL","district":"NORTH CORNWALL","county":"CORNWALL","ppdCategoryType":"Standard","recordStatus":"Addition","latitude":50.65706,"longitude":-4.750444,"postcodeStart":"PL34 0","postcode":["PL34","0DT"]}
{"price":125000,"dateOfTransfer":"1996-12-12T00:00:00","postcodeFull":"PL34 0BG","propertyType":"Detached","oldOrNew":"Established","duration":"Freehold","paon":"WHISTLEY DOWN","saon":"","street":"","locality":"TRETHEVY","townOrCity":"TINTAGEL","district":"NORTH CORNWALL","county":"CORNWALL","ppdCategoryType":"Standard","recordStatus":"Addition","latitude":50.67167,"longitude":-4.721892,"postcodeStart":"PL34 0","postcode":["PL34","0BG"]}
{"price":45350,"dateOfTransfer":"1996-06-07T00:00:00","postcodeFull":"PL34 0AG","propertyType":"Detached","oldOrNew":"Established","duration":"Freehold","paon":"LINDOS","saon":"","street":"BOSSINEY ROAD","locality":"TINTAGEL","townOrCity":"TINTAGEL","district":"NORTH CORNWALL","county":"CORNWALL","ppdCategoryType":"Standard","recordStatus":"Addition","latitude":50.663045,"longitude":-4.744474,"postcodeStart":"PL34 0","postcode":["PL34","0AG"]}
{"price":74500,"dateOfTransfer":"1996-09-20T00:00:00","postcodeFull":"PL34 0AU","propertyType":"Detached","oldOrNew":"Established","duration":"Freehold","paon":"TRELASSY","saon":"","street":"BACK LANE","locality":"TINTAGEL","townOrCity":"TINTAGEL","district":"NORTH CORNWALL","county":"CORNWALL","ppdCategoryType":"Standard","recordStatus":"Addition","latitude":50.667533,"longitude":-4.741424,"postcodeStart":"PL34 0","postcode":["PL34","0AU"]}
{"price":46500,"dateOfTransfer":"1996-11-26T00:00:00","postcodeFull":"PL34 0BZ","propertyType":"Detached","oldOrNew":"Established","duration":"Freehold","paon":"TREVENA","saon":"","street":"MOLESWORTH STREET","locality":"TINTAGEL","townOrCity":"TINTAGEL","district":"NORTH CORNWALL","county":"CORNWALL","ppdCategoryType":"Standard","recordStatus":"Addition","latitude":50.662072,"longitude":-4.750356,"postcodeStart":"PL34 0","postcode":["PL34","0BZ"]}
{"price":90000,"dateOfTransfer":"1997-10-08T00:00:00","postcodeFull":"PL34 0DX","propertyType":"Detached","oldOrNew":"Established","duration":"Freehold","paon":"TREWETHAN FARMHOUSE","saon":"","street":"","locality":"TREGATTA","townOrCity":"TINTAGEL","district":"CORNWALL","county":"CORNWALL","ppdCategoryType":"Standard","recordStatus":"Addition","latitude":50.654785,"longitude":-4.752689,"postcodeStart":"PL34 0","postcode":["PL34","0DX"]}
{"price":54000,"dateOfTransfer":"1997-07-20T00:00:00","postcodeFull":"PL34 0EB","propertyType":"Semi-detached","oldOrNew":"Established","duration":"Freehold","paon":"1","saon":"","street":"LAURA CLOSE","locality":"TINTAGEL","townOrCity":"TINTAGEL","district":"NORTH CORNWALL","county":"CORNWALL","ppdCategoryType":"Standard","recordStatus":"Addition","latitude":50.667518,"longitude":-4.742182,"postcodeStart":"PL34 0","postcode":["PL34","0EB"]}
{"price":115000,"dateOfTransfer":"1997-01-03T00:00:00","postcodeFull":"PL34 0BG","propertyType":"Detached","oldOrNew":"Established","duration":"Freehold","paon":"BOSKENNA","saon":"","street":"","locality":"TRETHEVY","townOrCity":"TINTAGEL","district":"NORTH CORNWALL","county":"CORNWALL","ppdCategoryType":"Standard","recordStatus":"Addition","latitude":50.67167,"longitude":-4.721892,"postcodeStart":"PL34 0","postcode":["PL34","0BG"]}
{"price":66000,"dateOfTransfer":"1997-10-17T00:00:00","postcodeFull":"PL34 0EL","propertyType":"Detached","oldOrNew":"Established","duration":"Freehold","paon":"18","saon":"","street":"ATLANTIC CLOSE","locality":"TREKNOW","townOrCity":"TINTAGEL","district":"NORTH CORNWALL","county":"CORNWALL","ppdCategoryType":"Standard","recordStatus":"Addition","latitude":50.649737,"longitude":-4.752682,"postcodeStart":"PL34 0","postcode":["PL34","0EL"]}
{"price":32500,"dateOfTransfer":"1997-07-24T00:00:00","postcodeFull":"PL34 0ET","propertyType":"Terraced","oldOrNew":"Established","duration":"Freehold","paon":"PALM COTTAGE","saon":"","street":"","locality":"TREWARMETT","townOrCity":"TINTAGEL","district":"CARADON","county":"CORNWALL","ppdCategoryType":"Standard","recordStatus":"Addition","latitude":50.645712,"longitude":-4.736145,"postcodeStart":"PL34 0","postcode":["PL34","0ET"]}
{"price":37500,"dateOfTransfer":"1997-10-07T00:00:00","postcodeFull":"PL34 0DT","propertyType":"Detached","oldOrNew":"Established","duration":"Freehold","paon":"TREVEN BUNGALOW","saon":"","street":"","locality":"TREVEN","townOrCity":"TINTAGEL","district":"NORTH CORNWALL","county":"CORNWALL","ppdCategoryType":"Standard","recordStatus":"Addition","latitude":50.65706,"longitude":-4.750444,"postcodeStart":"PL34 0","postcode":["PL34","0DT"]}
{"price":130000,"dateOfTransfer":"1997-10-10T00:00:00","postcodeFull":"PL34 0AU","propertyType":"Detached","oldOrNew":"Established","duration":"Freehold","paon":"BACKWAYS","saon":"","street":"BACK LANE","locality":"TINTAGEL","townOrCity":"TINTAGEL","district":"NORTH CORNWALL","county":"CORNWALL","ppdCategoryType":"Standard","recordStatus":"Addition","latitude":50.667533,"longitude":-4.741424,"postcodeStart":"PL34 0","postcode":["PL34","0AU"]}
{"price":35000,"dateOfTransfer":"1997-04-14T00:00:00","postcodeFull":"PL34 0AG","propertyType":"Terraced","oldOrNew":"Established","duration":"Freehold","paon":"LUNDY VILLA","saon":"","street":"BOSSINEY ROAD","locality":"TINTAGEL","townOrCity":"TINTAGEL","district":"NORTH CORNWALL","county":"CORNWALL","ppdCategoryType":"Standard","recordStatus":"Addition","latitude":50.663045,"longitude":-4.744474,"postcodeStart":"PL34 0","postcode":["PL34","0AG"]}
{"price":67500,"dateOfTransfer":"1997-04-09T00:00:00","postcodeFull":"PL34 0DD","propertyType":"Semi-detached","oldOrNew":"Established","duration":"Freehold","paon":"1","saon":"","street":"KING ARTHURS TERRACE","locality":"TINTAGEL","townOrCity":"TINTAGEL","district":"NORTH CORNWALL","county":"CORNWALL","ppdCategoryType":"Standard","recordStatus":"Addition","latitude":50.664441,"longitude":-4.753282,"postcodeStart":"PL34 0","postcode":["PL34","0DD"]}
{"price":117000,"dateOfTransfer":"1997-09-19T00:00:00","postcodeFull":"PL34 0EN","propertyType":"Detached","oldOrNew":"Established","duration":"Freehold","paon":"MEADOWSIDE BUNGALOW","saon":"","street":"","locality":"TREKNOW","townOrCity":"TINTAGEL","district":"CORNWALL","county":"CORNWALL","ppdCategoryType":"Standard","recordStatus":"Addition","latitude":50.648672,"longitude":-4.750922,"postcodeStart":"PL34 0","postcode":["PL34","0EN"]}
{"price":120000,"dateOfTransfer":"1997-05-02T00:00:00","postcodeFull":"PL34 0HN","propertyType":"Detached","oldOrNew":"Established","duration":"Freehold","paon":"FENTERLEIGH","saon":"","street":"","locality":"TINTAGEL","townOrCity":"TINTAGEL","district":"NORTH CORNWALL","county":"CORNWALL","ppdCategoryType":"Standard","recordStatus":"Addition","latitude":50.663198,"longitude":-4.731846,"postcodeStart":"PL34 0","postcode":["PL34","0HN"]}
{"price":150000,"dateOfTransfer":"1997-01-10T00:00:00","postcodeFull":"PL34 0AY","propertyType":"Detached","oldOrNew":"Established","duration":"Freehold","paon":"PUFFINS COTTAGE","saon":"","street":"","locality":"BOSSINEY","townOrCity":"TINTAGEL","district":"NORTH CORNWALL","county":"CORNWALL","ppdCategoryType":"Standard","recordStatus":"Addition","latitude":50.667325,"longitude":-4.737676,"postcodeStart":"PL34 0","postcode":["PL34","0AY"]}
{"price":75000,"dateOfTransfer":"1997-10-06T00:00:00","postcodeFull":"PL34 0BX","propertyType":"Detached","oldOrNew":"Established","duration":"Freehold","paon":"11","saon":"","street":"DANMORE CLOSE","locality":"TINTAGEL","townOrCity":"TINTAGEL","district":"NORTH CORNWALL","county":"CORNWALL","ppdCategoryType":"Standard","recordStatus":"Addition","latitude":50.661333,"longitude":-4.74879,"postcodeStart":"PL34 0","postcode":["PL34","0BX"]}
{"price":57500,"dateOfTransfer":"1997-10-17T00:00:00","postcodeFull":"PL34 0BH","propertyType":"Semi-detached","oldOrNew":"Established","duration":"Freehold","paon":"43","saon":"","street":"WESTGROUND WAY","locality":"TINTAGEL","townOrCity":"TINTAGEL","district":"NORTH CORNWALL","county":"CORNWALL","ppdCategoryType":"Standard","recordStatus":"Addition","latitude":50.666563,"longitude":-4.741764,"postcodeStart":"PL34 0","postcode":["PL34","0BH"]}
{"price":59750,"dateOfTransfer":"1997-07-08T00:00:00","postcodeFull":"PL34 0EL","propertyType":"Detached","oldOrNew":"Established","duration":"Freehold","paon":"1","saon":"","street":"ATLANTIC CLOSE","locality":"TREKNOW","townOrCity":"TINTAGEL","district":"NORTH CORNWALL","county":"CORNWALL","ppdCategoryType":"Standard","recordStatus":"Addition","latitude":50.649737,"longitude":-4.752682,"postcodeStart":"PL34 0","postcode":["PL34","0EL"]}
{"price":58000,"dateOfTransfer":"1997-02-13T00:00:00","postcodeFull":"PL34 0BP","propertyType":"Detached","oldOrNew":"Established","duration":"Freehold","paon":"14","saon":"","street":"MERLINS WAY","locality":"TINTAGEL","townOrCity":"TINTAGEL","district":"NORTH CORNWALL","county":"CORNWALL","ppdCategoryType":"Standard","recordStatus":"Addition","latitude":50.662217,"longitude":-4.742344,"postcodeStart":"PL34 0","postcode":["PL34","0BP"]}
{"price":52000,"dateOfTransfer":"1997-04-22T00:00:00","postcodeFull":"PL34 0BH","propertyType":"Detached","oldOrNew":"Established","duration":"Freehold","paon":"47","saon":"","street":"WESTGROUND WAY","locality":"TINTAGEL","townOrCity":"TINTAGEL","district":"NORTH CORNWALL","county":"CORNWALL","ppdCategoryType":"Standard","recordStatus":"Addition","latitude":50.666563,"longitude":-4.741764,"postcodeStart":"PL34 0","postcode":["PL34","0BH"]}
{"price":27000,"dateOfTransfer":"1997-01-24T00:00:00","postcodeFull":"PL34 0DA","propertyType":"Semi-detached","oldOrNew":"Established","duration":"Freehold","paon":"THE MOORINGS","saon":"","street":"FORE STREET","locality":"TINTAGEL","townOrCity":"TINTAGEL","district":"NORTH CORNWALL","county":"CORNWALL","ppdCategoryType":"Standard","recordStatus":"Addition","latitude":50.663503,"longitude":-4.751136,"postcodeStart":"PL34 0","postcode":["PL34","0DA"]}
{"price":56500,"dateOfTransfer":"1997-09-15T00:00:00","postcodeFull":"PL34 0EL","propertyType":"Detached","oldOrNew":"Established","duration":"Freehold","paon":"CHERRYTREE COTTAGE","saon":"","street":"ATLANTIC CLOSE","locality":"TREKNOW","townOrCity":"TINTAGEL","district":"NORTH CORNWALL","county":"CORNWALL","ppdCategoryType":"Standard","recordStatus":"Addition","latitude":50.649737,"longitude":-4.752682,"postcodeStart":"PL34 0","postcode":["PL34","0EL"]}
{"price":41250,"dateOfTransfer":"1997-11-19T00:00:00","postcodeFull":"PL34 0DX","propertyType":"Detached","oldOrNew":"Established","duration":"Freehold","paon":"TREWETHEN BARN","saon":"","street":"","locality":"TREGATTA","townOrCity":"TINTAGEL","district":"NORTH CORNWALL","county":"CORNWALL","ppdCategoryType":"Standard","recordStatus":"Addition","latitude":50.654785,"longitude":-4.752689,"postcodeStart":"PL34 0","postcode":["PL34","0DX"]}
{"price":50000,"dateOfTransfer":"1997-08-22T00:00:00","postcodeFull":"PL34 0ET","propertyType":"Terraced","oldOrNew":"Established","duration":"Freehold","paon":"DENNIS POINT","saon":"1","street":"","locality":"TREWARMETT","townOrCity":"TINTAGEL","district":"NORTH CORNWALL","county":"CORNWALL","ppdCategoryType":"Standard","recordStatus":"Addition","latitude":50.645712,"longitude":-4.736145,"postcodeStart":"PL34 0","postcode":["PL34","0ET"]}
{"price":66000,"dateOfTransfer":"1997-08-08T00:00:00","postcodeFull":"PL34 0DF","propertyType":"Semi-detached","oldOrNew":"Established","duration":"Freehold","paon":"8","saon":"","street":"ATLANTIC WAY","locality":"TINTAGEL","townOrCity":"TINTAGEL","district":"NORTH CORNWALL","county":"CORNWALL","ppdCategoryType":"Standard","recordStatus":"Addition","latitude":50.665705,"longitude":-4.754083,"postcodeStart":"PL34 0","postcode":["PL34","0DF"]}
{"price":99999,"dateOfTransfer":"1997-10-24T00:00:00","postcodeFull":"PL34 0EJ","propertyType":"Semi-detached","oldOrNew":"Established","duration":"Freehold","paon":"TRENOWAN","saon":"","street":"","locality":"TREKNOW","townOrCity":"TINTAGEL","district":"NORTH CORNWALL","county":"CORNWALL","ppdCategoryType":"Standard","recordStatus":"Addition","latitude":50.651783,"longitude":-4.75249,"postcodeStart":"PL34 0","postcode":["PL34","0EJ"]}
{"price":48000,"dateOfTransfer":"1997-10-17T00:00:00","postcodeFull":"PL34 0ET","propertyType":"Terraced","oldOrNew":"Established","duration":"Freehold","paon":"PENLEE","saon":"","street":"","locality":"TREWARMETT","townOrCity":"TINTAGEL","district":"NORTH CORNWALL","county":"CORNWALL","ppdCategoryType":"Standard","recordStatus":"Addition","latitude":50.645712,"longitude":-4.736145,"postcodeStart":"PL34 0","postcode":["PL34","0ET"]}
{"price":28250,"dateOfTransfer":"1997-05-21T00:00:00","postcodeFull":"PL34 0BE","propertyType":"Terraced","oldOrNew":"Established","duration":"Freehold","paon":"FORTH COTTAGE, 4","saon":"","street":"ST PIRANS COURT","locality":"TRETHEVY","townOrCity":"TINTAGEL","district":"NORTH CORNWALL","county":"CORNWALL","ppdCategoryType":"Standard","recordStatus":"Addition","latitude":50.669912,"longitude":-4.723984,"postcodeStart":"PL34 0","postcode":["PL34","0BE"]}
{"price":54000,"dateOfTransfer":"1997-02-05T00:00:00","postcodeFull":"PL34 0HL","propertyType":"Terraced","oldOrNew":"Established","duration":"Freehold","paon":"WAIN COTTAGE","saon":"","street":"TREVILLETT","locality":"TINTAGEL","townOrCity":"TINTAGEL","district":"NORTH CORNWALL","county":"CORNWALL","ppdCategoryType":"Standard","recordStatus":"Addition","latitude":50.661968,"longitude":-4.715325,"postcodeStart":"PL34 0","postcode":["PL34","0HL"]}
{"price":64000,"dateOfTransfer":"1997-01-10T00:00:00","postcodeFull":"PL34 0EN","propertyType":"Terraced","oldOrNew":"Established","duration":"Freehold","paon":"OVERDALE","saon":"","street":"","locality":"TREKNOW","townOrCity":"TINTAGEL","district":"NORTH CORNWALL","county":"CORNWALL","ppdCategoryType":"Standard","recordStatus":"Addition","latitude":50.648672,"longitude":-4.750922,"postcodeStart":"PL34 0","postcode":["PL34","0EN"]}
{"price":60000,"dateOfTransfer":"1997-06-10T00:00:00","postcodeFull":"PL34 0AG","propertyType":"Semi-detached","oldOrNew":"Established","duration":"Freehold","paon":"CRANLEIGH","saon":"","street":"BOSSINEY ROAD","locality":"TINTAGEL","townOrCity":"TINTAGEL","district":"NORTH CORNWALL","county":"CORNWALL","ppdCategoryType":"Standard","recordStatus":"Addition","latitude":50.663045,"longitude":-4.744474,"postcodeStart":"PL34 0","postcode":["PL34","0AG"]}
{"price":123950,"dateOfTransfer":"1997-09-26T00:00:00","postcodeFull":"PL34 0AG","propertyType":"Detached","oldOrNew":"Established","duration":"Freehold","paon":"SUNNINGDALE","saon":"","street":"BOSSINEY ROAD","locality":"TINTAGEL","townOrCity":"TINTAGEL","district":"NORTH CORNWALL","county":"CORNWALL","ppdCategoryType":"Standard","recordStatus":"Addition","latitude":50.663045,"longitude":-4.744474,"postcodeStart":"PL34 0","postcode":["PL34","0AG"]}
{"price":34000,"dateOfTransfer":"1997-06-19T00:00:00","postcodeFull":"PL34 0BY","propertyType":"Terraced","oldOrNew":"Established","duration":"Freehold","paon":"VERONICA COURT","saon":"4","street":"TRERAMMETT","locality":"TINTAGEL","townOrCity":"TINTAGEL","district":"NORTH CORNWALL","county":"CORNWALL","ppdCategoryType":"Standard","recordStatus":"Addition","latitude":50.660696,"longitude":-4.749856,"postcodeStart":"PL34 0","postcode":["PL34","0BY"]}
{"price":135000,"dateOfTransfer":"1997-07-18T00:00:00","postcodeFull":"PL34 0ET","propertyType":"Detached","oldOrNew":"Established","duration":"Freehold","paon":"TREWARMETT INN","saon":"","street":"","locality":"TREWARMETT","townOrCity":"TINTAGEL","district":"CORNWALL","county":"CORNWALL","ppdCategoryType":"Standard","recordStatus":"Addition","latitude":50.645712,"longitude":-4.736145,"postcodeStart":"PL34 0","postcode":["PL34","0ET"]}
{"price":66000,"dateOfTransfer":"1997-10-01T00:00:00","postcodeFull":"PL34 0HP","propertyType":"Terraced","oldOrNew":"Established","duration":"Freehold","paon":"THE NOOK","saon":"","street":"","locality":"TRENALE","townOrCity":"TINTAGEL","district":"CORNWALL","county":"CORNWALL","ppdCategoryType":"Standard","recordStatus":"Addition","latitude":50.659496,"longitude":-4.732466,"postcodeStart":"PL34 0","postcode":["PL34","0HP"]}
{"price":52500,"dateOfTransfer":"1997-11-03T00:00:00","postcodeFull":"PL34 0AY","propertyType":"Semi-detached","oldOrNew":"Established","duration":"Freehold","paon":"THE SISTERS","saon":"","street":"","locality":"BOSSINEY","townOrCity":"TINTAGEL","district":"NORTH CORNWALL","county":"CORNWALL","ppdCategoryType":"Standard","recordStatus":"Addition","latitude":50.667325,"longitude":-4.737676,"postcodeStart":"PL34 0","postcode":["PL34","0AY"]}
{"price":96500,"dateOfTransfer":"1997-05-01T00:00:00","postcodeFull":"PL34 0DF","propertyType":"Detached","oldOrNew":"Established","duration":"Freehold","paon":"9","saon":"","street":"ATLANTIC WAY","locality":"TINTAGEL","townOrCity":"TINTAGEL","district":"NORTH CORNWALL","county":"CORNWALL","ppdCategoryType":"Standard","recordStatus":"Addition","latitude":50.665705,"longitude":-4.754083,"postcodeStart":"PL34 0","postcode":["PL34","0DF"]}
{"price":52500,"dateOfTransfer":"1997-07-25T00:00:00","postcodeFull":"PL34 0EN","propertyType":"Terraced","oldOrNew":"Established","duration":"Freehold","paon":"ROSE COTTAGES","saon":"1","street":"","locality":"TREKNOW","townOrCity":"TINTAGEL","district":"NORTH CORNWALL","county":"CORNWALL","ppdCategoryType":"Standard","recordStatus":"Addition","latitude":50.648672,"longitude":-4.750922,"postcodeStart":"PL34 0","postcode":["PL34","0EN"]}
{"price":50000,"dateOfTransfer":"1997-11-14T00:00:00","postcodeFull":"PL34 0BP","propertyType":"Detached","oldOrNew":"Established","duration":"Freehold","paon":"5","saon":"","street":"MERLINS WAY","locality":"TINTAGEL","townOrCity":"TINTAGEL","district":"NORTH CORNWALL","county":"CORNWALL","ppdCategoryType":"Standard","recordStatus":"Addition","latitude":50.662217,"longitude":-4.742344,"postcodeStart":"PL34 0","postcode":["PL34","0BP"]}
{"price":65000,"dateOfTransfer":"1997-09-01T00:00:00","postcodeFull":"PL34 0BZ","propertyType":"Semi-detached","oldOrNew":"Established","duration":"Freehold","paon":"TOURNAI","saon":"","street":"MOLESWORTH STREET","locality":"TINTAGEL","townOrCity":"TINTAGEL","district":"NORTH CORNWALL","county":"CORNWALL","ppdCategoryType":"Standard","recordStatus":"Addition","latitude":50.662072,"longitude":-4.750356,"postcodeStart":"PL34 0","postcode":["PL34","0BZ"]}
{"price":46000,"dateOfTransfer":"1997-04-01T00:00:00","postcodeFull":"PL34 0ET","propertyType":"Terraced","oldOrNew":"Established","duration":"Freehold","paon":"DENNIS POINT","saon":"3","street":"","locality":"TREWARMETT","townOrCity":"TINTAGEL","district":"NORTH CORNWALL","county":"CORNWALL","ppdCategoryType":"Standard","recordStatus":"Addition","latitude":50.645712,"longitude":-4.736145,"postcodeStart":"PL34 0","postcode":["PL34","0ET"]}
{"price":77500,"dateOfTransfer":"1997-01-10T00:00:00","postcodeFull":"PL34 0AY","propertyType":"Detached","oldOrNew":"Established","duration":"Freehold","paon":"GWEL CASTLE","saon":"","street":"","locality":"BOSSINEY","townOrCity":"TINTAGEL","district":"NORTH CORNWALL","county":"CORNWALL","ppdCategoryType":"Standard","recordStatus":"Addition","latitude":50.667325,"longitude":-4.737676,"postcodeStart":"PL34 0","postcode":["PL34","0AY"]}
{"price":59000,"dateOfTransfer":"1997-06-27T00:00:00","postcodeFull":"PL34 0EN","propertyType":"Terraced","oldOrNew":"Established","duration":"Freehold","paon":"PENDENNIS","saon":"","street":"","locality":"TREKNOW","townOrCity":"TINTAGEL","district":"NORTH CORNWALL","county":"CORNWALL","ppdCategoryType":"Standard","recordStatus":"Addition","latitude":50.648672,"longitude":-4.750922,"postcodeStart":"PL34 0","postcode":["PL34","0EN"]}
{"price":55000,"dateOfTransfer":"1997-01-22T00:00:00","postcodeFull":"PL34 0EL","propertyType":"Detached","oldOrNew":"Established","duration":"Freehold","paon":"DUNROVIN","saon":"","street":"ATLANTIC CLOSE","locality":"TREKNOW","townOrCity":"TINTAGEL","district":"NORTH CORNWALL","county":"CORNWALL","ppdCategoryType":"Standard","recordStatus":"Addition","latitude":50.649737,"longitude":-4.752682,"postcodeStart":"PL34 0","postcode":["PL34","0EL"]}
{"price":71000,"dateOfTransfer":"1998-12-22T00:00:00","postcodeFull":"PL34 0BX","propertyType":"Detached","oldOrNew":"Established","duration":"Freehold","paon":"11","saon":"","street":"DANMORE CLOSE","locality":"TINTAGEL","townOrCity":"TINTAGEL","district":"NORTH CORNWALL","county":"CORNWALL","ppdCategoryType":"Standard","recordStatus":"Addition","latitude":50.661333,"longitude":-4.74879,"postcodeStart":"PL34 0","postcode":["PL34","0BX"]}
{"price":58000,"dateOfTransfer":"1998-11-23T00:00:00","postcodeFull":"PL34 0BY","propertyType":"Terraced","oldOrNew":"Established","duration":"Freehold","paon":"VERONICA COURT","saon":"3","street":"TRERAMMETT","locality":"TINTAGEL","townOrCity":"TINTAGEL","district":"NORTH CORNWALL","county":"CORNWALL","ppdCategoryType":"Standard","recordStatus":"Addition","latitude":50.660696,"longitude":-4.749856,"postcodeStart":"PL34 0","postcode":["PL34","0BY"]}
{"price":120500,"dateOfTransfer":"1998-04-24T00:00:00","postcodeFull":"PL34 0AN","propertyType":"Semi-detached","oldOrNew":"Established","duration":"Freehold","paon":"HENDRAMOR","saon":"","street":"TRENALE LANE","locality":"TINTAGEL","townOrCity":"TINTAGEL","district":"NORTH CORNWALL","county":"CORNWALL","ppdCategoryType":"Standard","recordStatus":"Addition","latitude":50.662589,"longitude":-4.74091,"postcodeStart":"PL34 0","postcode":["PL34","0AN"]}
{"price":72000,"dateOfTransfer":"1998-04-17T00:00:00","postcodeFull":"PL34 0AW","propertyType":"Detached","oldOrNew":"Established","duration":"Freehold","paon":"TRECOLLES","saon":"","street":"TRENALE LANE","locality":"TINTAGEL","townOrCity":"TINTAGEL","district":"NORTH CORNWALL","county":"CORNWALL","ppdCategoryType":"Standard","recordStatus":"Addition","latitude":50.662353,"longitude":-4.741391,"postcodeStart":"PL34 0","postcode":["PL34","0AW"]}
{"price":55000,"dateOfTransfer":"1998-06-26T00:00:00","postcodeFull":"PL34 0BH","propertyType":"Detached","oldOrNew":"Established","duration":"Freehold","paon":"29","saon":"","street":"WESTGROUND WAY","locality":"TINTAGEL","townOrCity":"TINTAGEL","district":"NORTH CORNWALL","county":"CORNWALL","ppdCategoryType":"Standard","recordStatus":"Addition","latitude":50.666563,"longitude":-4.741764,"postcodeStart":"PL34 0","postcode":["PL34","0BH"]}
{"price":60000,"dateOfTransfer":"1998-04-24T00:00:00","postcodeFull":"PL34 0AG","propertyType":"Detached","oldOrNew":"Established","duration":"Freehold","paon":"LINDOS","saon":"","street":"BOSSINEY ROAD","locality":"TINTAGEL","townOrCity":"TINTAGEL","district":"NORTH CORNWALL","county":"CORNWALL","ppdCategoryType":"Standard","recordStatus":"Addition","latitude":50.663045,"longitude":-4.744474,"postcodeStart":"PL34 0","postcode":["PL34","0AG"]}
{"price":67000,"dateOfTransfer":"1998-02-27T00:00:00","postcodeFull":"PL34 0BP","propertyType":"Detached","oldOrNew":"Established","duration":"Freehold","paon":"14","saon":"","street":"MERLINS WAY","locality":"TINTAGEL","townOrCity":"TINTAGEL","district":"NORTH CORNWALL","county":"CORNWALL","ppdCategoryType":"Standard","recordStatus":"Addition","latitude":50.662217,"longitude":-4.742344,"postcodeStart":"PL34 0","postcode":["PL34","0BP"]}
{"price":67000,"dateOfTransfer":"1998-08-28T00:00:00","postcodeFull":"PL34 0EY","propertyType":"Detached","oldOrNew":"Established","duration":"Freehold","paon":"SUNNY VIEW","saon":"","street":"MILL HILL","locality":"TREKNOW","townOrCity":"TINTAGEL","district":"NORTH CORNWALL","county":"CORNWALL","ppdCategoryType":"Standard","recordStatus":"Addition","latitude":50.64557,"longitude":-4.749736,"postcodeStart":"PL34 0","postcode":["PL34","0EY"]}
{"price":66000,"dateOfTransfer":"1998-12-04T00:00:00","postcodeFull":"PL34 0BH","propertyType":"Detached","oldOrNew":"Established","duration":"Freehold","paon":"33","saon":"","street":"WESTGROUND WAY","locality":"TINTAGEL","townOrCity":"TINTAGEL","district":"NORTH CORNWALL","county":"CORNWALL","ppdCategoryType":"Standard","recordStatus":"Addition","latitude":50.666563,"longitude":-4.741764,"postcodeStart":"PL34 0","postcode":["PL34","0BH"]}
{"price":76500,"dateOfTransfer":"1998-08-21T00:00:00","postcodeFull":"PL34 0BT","propertyType":"Detached","oldOrNew":"Established","duration":"Freehold","paon":"AYSGARTH","saon":"","street":"FOSTERS LANE","locality":"TINTAGEL","townOrCity":"TINTAGEL","district":"NORTH CORNWALL","county":"CORNWALL","ppdCategoryType":"Standard","recordStatus":"Addition","latitude":50.661769,"longitude":-4.746692,"postcodeStart":"PL34 0","postcode":["PL34","0BT"]}
{"price":45000,"dateOfTransfer":"1998-01-23T00:00:00","postcodeFull":"PL34 0BE","propertyType":"Terraced","oldOrNew":"Established","duration":"Freehold","paon":"PENDEE, 2","saon":"","street":"ST PIRANS COURT","locality":"TRETHEVY","townOrCity":"TINTAGEL","district":"NORTH CORNWALL","county":"CORNWALL","ppdCategoryType":"Standard","recordStatus":"Addition","latitude":50.669912,"longitude":-4.723984,"postcodeStart":"PL34 0","postcode":["PL34","0BE"]}
{"price":40000,"dateOfTransfer":"1998-07-15T00:00:00","postcodeFull":"PL34 0DB","propertyType":"Flat/Maisonette/Townhouse","oldOrNew":"Established","duration":"Freehold","paon":"LANCELOT HOUSE","saon":"","street":"FORE STREET","locality":"TINTAGEL","townOrCity":"TINTAGEL","district":"NORTH CORNWALL","county":"CORNWALL","ppdCategoryType":"Standard","recordStatus":"Addition","latitude":50.663149,"longitude":-4.751254,"postcodeStart":"PL34 0","postcode":["PL34","0DB"]}
{"price":130000,"dateOfTransfer":"1998-09-08T00:00:00","postcodeFull":"PL34 0DA","propertyType":"Terraced","oldOrNew":"Established","duration":"Freehold","paon":"TINTAGEL HOUSE","saon":"","street":"FORE STREET","locality":"TINTAGEL","townOrCity":"TINTAGEL","district":"NORTH CORNWALL","county":"CORNWALL","ppdCategoryType":"Standard","recordStatus":"Addition","latitude":50.663503,"longitude":-4.751136,"postcodeStart":"PL34 0","postcode":["PL34","0DA"]}
{"price":75000,"dateOfTransfer":"1998-07-14T00:00:00","postcodeFull":"PL34 0EU","propertyType":"Detached","oldOrNew":"Established","duration":"Freehold","paon":"BRIDGE COTTAGE","saon":"","street":"","locality":"TREWARMETT","townOrCity":"TINTAGEL","district":"NORTH CORNWALL","county":"CORNWALL","ppdCategoryType":"Standard","recordStatus":"Addition","latitude":50.643533,"longitude":-4.731553,"postcodeStart":"PL34 0","postcode":["PL34","0EU"]}
{"price":53000,"dateOfTransfer":"1998-02-12T00:00:00","postcodeFull":"PL34 0ET","propertyType":"Detached","oldOrNew":"Established","duration":"Freehold","paon":"TREVALLEY","saon":"","street":"","locality":"TREWARMETT","townOrCity":"TINTAGEL","district":"NORTH CORNWALL","county":"CORNWALL","ppdCategoryType":"Standard","recordStatus":"Addition","latitude":50.645712,"longitude":-4.736145,"postcodeStart":"PL34 0","postcode":["PL34","0ET"]}
{"price":75000,"dateOfTransfer":"1998-08-14T00:00:00","postcodeFull":"PL34 0EN","propertyType":"Terraced","oldOrNew":"Established","duration":"Freehold","paon":"OLDWIT","saon":"","street":"","locality":"TREKNOW","townOrCity":"TINTAGEL","district":"NORTH CORNWALL","county":"CORNWALL","ppdCategoryType":"Standard","recordStatus":"Addition","latitude":50.648672,"longitude":-4.750922,"postcodeStart":"PL34 0","postcode":["PL34","0EN"]}
{"price":104000,"dateOfTransfer":"1998-03-12T00:00:00","postcodeFull":"PL34 0AL","propertyType":"Detached","oldOrNew":"Established","duration":"Freehold","paon":"ST. FRANCIS","saon":"","street":"BOSSINEY ROAD","locality":"TINTAGEL","townOrCity":"TINTAGEL","district":"NORTH CORNWALL","county":"CORNWALL","ppdCategoryType":"Standard","recordStatus":"Addition","latitude":50.663943,"longitude":-4.742998,"postcodeStart":"PL34 0","postcode":["PL34","0AL"]}
{"price":76500,"dateOfTransfer":"1998-05-20T00:00:00","postcodeFull":"PL34 0DH","propertyType":"Semi-detached","oldOrNew":"Established","duration":"Freehold","paon":"WESTMEAD","saon":"","street":"CASTLE VIEW","locality":"TINTAGEL","townOrCity":"TINTAGEL","district":"NORTH CORNWALL","county":"CORNWALL","ppdCategoryType":"Standard","recordStatus":"Addition","latitude":50.666589,"longitude":-4.754484,"postcodeStart":"PL34 0","postcode":["PL34","0DH"]}
{"price":115250,"dateOfTransfer":"1998-03-12T00:00:00","postcodeFull":"PL34 0AL","propertyType":"Detached","oldOrNew":"Established","duration":"Freehold","paon":"DAVANA LODGE","saon":"","street":"BOSSINEY ROAD","locality":"TINTAGEL","townOrCity":"TINTAGEL","district":"NORTH CORNWALL","county":"CORNWALL","ppdCategoryType":"Standard","recordStatus":"Addition","latitude":50.663943,"longitude":-4.742998,"postcodeStart":"PL34 0","postcode":["PL34","0AL"]}
{"price":42000,"dateOfTransfer":"1998-03-20T00:00:00","postcodeFull":"PL34 0AT","propertyType":"Terraced","oldOrNew":"Established","duration":"Freehold","paon":"5","saon":"","street":"THE BUTTS","locality":"TINTAGEL","townOrCity":"TINTAGEL","district":"NORTH CORNWALL","county":"CORNWALL","ppdCategoryType":"Standard","recordStatus":"Addition","latitude":50.665655,"longitude":-4.742872,"postcodeStart":"PL34 0","postcode":["PL34","0AT"]}
{"price":47000,"dateOfTransfer":"1998-07-03T00:00:00","postcodeFull":"PL34 0EL","propertyType":"Detached","oldOrNew":"Established","duration":"Freehold","paon":"MORDROS, 14A","saon":"","street":"ATLANTIC CLOSE","locality":"TREKNOW","townOrCity":"TINTAGEL","district":"NORTH CORNWALL","county":"CORNWALL","ppdCategoryType":"Standard","recordStatus":"Addition","latitude":50.649737,"longitude":-4.752682,"postcodeStart":"PL34 0","postcode":["PL34","0EL"]}
{"price":44000,"dateOfTransfer":"1998-06-22T00:00:00","postcodeFull":"PL34 0EH","propertyType":"Semi-detached","oldOrNew":"Established","duration":"Freehold","paon":"26","saon":"","street":"PALMERS TERRACE","locality":"TREKNOW","townOrCity":"TINTAGEL","district":"NORTH CORNWALL","county":"CORNWALL","ppdCategoryType":"Standard","recordStatus":"Addition","latitude":50.651011,"longitude":-4.751271,"postcodeStart":"PL34 0","postcode":["PL34","0EH"]}
{"price":56000,"dateOfTransfer":"1998-07-20T00:00:00","postcodeFull":"PL34 0ET","propertyType":"Terraced","oldOrNew":"Established","duration":"Freehold","paon":"ROSE COTTAGE","saon":"","street":"","locality":"TREWARMETT","townOrCity":"TINTAGEL","district":"NORTH CORNWALL","county":"CORNWALL","ppdCategoryType":"Standard","recordStatus":"Addition","latitude":50.645712,"longitude":-4.736145,"postcodeStart":"PL34 0","postcode":["PL34","0ET"]}
{"price":60000,"dateOfTransfer":"1998-12-11T00:00:00","postcodeFull":"PL34 0AG","propertyType":"Semi-detached","oldOrNew":"Established","duration":"Freehold","paon":"FARTHINDALE","saon":"","street":"BOSSINEY ROAD","locality":"TINTAGEL","townOrCity":"TINTAGEL","district":"NORTH CORNWALL","county":"CORNWALL","ppdCategoryType":"Standard","recordStatus":"Addition","latitude":50.663045,"longitude":-4.744474,"postcodeStart":"PL34 0","postcode":["PL34","0AG"]}
{"price":87000,"dateOfTransfer":"1998-08-28T00:00:00","postcodeFull":"PL34 0BE","propertyType":"Detached","oldOrNew":"Established","duration":"Freehold","paon":"ST. MILDREDS","saon":"","street":"","locality":"TRETHEVY","townOrCity":"TINTAGEL","district":"NORTH CORNWALL","county":"CORNWALL","ppdCategoryType":"Standard","recordStatus":"Addition","latitude":50.669912,"longitude":-4.723984,"postcodeStart":"PL34 0","postcode":["PL34","0BE"]}
{"price":84000,"dateOfTransfer":"1998-08-25T00:00:00","postcodeFull":"PL34 0AN","propertyType":"Detached","oldOrNew":"Established","duration":"Freehold","paon":"OAKLEIGH","saon":"","street":"TRENALE LANE","locality":"TINTAGEL","townOrCity":"TINTAGEL","district":"NORTH CORNWALL","county":"CORNWALL","ppdCategoryType":"Standard","recordStatus":"Addition","latitude":50.662589,"longitude":-4.74091,"postcodeStart":"PL34 0","postcode":["PL34","0AN"]}
{"price":58000,"dateOfTransfer":"1998-06-30T00:00:00","postcodeFull":"PL34 0DE","propertyType":"Detached","oldOrNew":"Established","duration":"Freehold","paon":"ST ELMO","saon":"","street":"ATLANTIC ROAD","locality":"TINTAGEL","townOrCity":"TINTAGEL","district":"NORTH CORNWALL","county":"CORNWALL","ppdCategoryType":"Standard","recordStatus":"Addition","latitude":50.665868,"longitude":-4.752168,"postcodeStart":"PL34 0","postcode":["PL34","0DE"]}
{"price":59950,"dateOfTransfer":"1998-11-27T00:00:00","postcodeFull":"PL34 0BH","propertyType":"Semi-detached","oldOrNew":"Established","duration":"Freehold","paon":"37","saon":"","street":"WESTGROUND WAY","locality":"TINTAGEL","townOrCity":"TINTAGEL","district":"NORTH CORNWALL","county":"CORNWALL","ppdCategoryType":"Standard","recordStatus":"Addition","latitude":50.666563,"longitude":-4.741764,"postcodeStart":"PL34 0","postcode":["PL34","0BH"]}
{"price":130000,"dateOfTransfer":"1998-05-15T00:00:00","postcodeFull":"PL34 0AU","propertyType":"Detached","oldOrNew":"Established","duration":"Freehold","paon":"LITTLE EDEN","saon":"","street":"BACK LANE","locality":"TINTAGEL","townOrCity":"TINTAGEL","district":"NORTH CORNWALL","county":"CORNWALL","ppdCategoryType":"Standard","recordStatus":"Addition","latitude":50.667533,"longitude":-4.741424,"postcodeStart":"PL34 0","postcode":["PL34","0AU"]}
{"price":149995,"dateOfTransfer":"1998-08-14T00:00:00","postcodeFull":"PL34 0DS","propertyType":"Detached","oldOrNew":"New build","duration":"Freehold","paon":"4","saon":"","street":"GAVERCOOMBE PARK","locality":"TINTAGEL","townOrCity":"TINTAGEL","district":"NORTH CORNWALL","county":"CORNWALL","ppdCategoryType":"Standard","recordStatus":"Addition","latitude":50.666569,"longitude":-4.752945,"postcodeStart":"PL34 0","postcode":["PL34","0DS"]}
{"price":25000,"dateOfTransfer":"1998-02-27T00:00:00","postcodeFull":"PL34 0DD","propertyType":"Flat/Maisonette/Townhouse","oldOrNew":"Established","duration":"Leasehold","paon":"5","saon":"FLAT 2","street":"KING ARTHURS TERRACE","locality":"TINTAGEL","townOrCity":"TINTAGEL","district":"NORTH CORNWALL","county":"CORNWALL","ppdCategoryType":"Standard","recordStatus":"Addition","latitude":50.664441,"longitude":-4.753282,"postcodeStart":"PL34 0","postcode":["PL34","0DD"]}
{"price":85000,"dateOfTransfer":"1998-05-28T00:00:00","postcodeFull":"PL34 0HB","propertyType":"Detached","oldOrNew":"Established","duration":"Freehold","paon":"CUMBRAE COTTAGE","saon":"","street":"","locality":"TREBARWITH STRAND","townOrCity":"TINTAGEL","district":"NORTH CORNWALL","county":"CORNWALL","ppdCategoryType":"Standard","recordStatus":"Addition","latitude":50.644859,"longitude":-4.757824,"postcodeStart":"PL34 0","postcode":["PL34","0HB"]}
{"price":57000,"dateOfTransfer":"1998-05-11T00:00:00","postcodeFull":"PL34 0BH","propertyType":"Semi-detached","oldOrNew":"Established","duration":"Freehold","paon":"11","saon":"","street":"WESTGROUND WAY","locality":"TINTAGEL","townOrCity":"TINTAGEL","district":"NORTH CORNWALL","county":"CORNWALL","ppdCategoryType":"Standard","recordStatus":"Addition","latitude":50.666563,"longitude":-4.741764,"postcodeStart":"PL34 0","postcode":["PL34","0BH"]}
{"price":65000,"dateOfTransfer":"1998-09-18T00:00:00","postcodeFull":"PL34 0ET","propertyType":"Detached","oldOrNew":"Established","duration":"Freehold","paon":"GLENHAVEN","saon":"","street":"","locality":"TREWARMETT","townOrCity":"TINTAGEL","district":"NORTH CORNWALL","county":"CORNWALL","ppdCategoryType":"Standard","recordStatus":"Addition","latitude":50.645712,"longitude":-4.736145,"postcodeStart":"PL34 0","postcode":["PL34","0ET"]}
{"price":95000,"dateOfTransfer":"1998-07-31T00:00:00","postcodeFull":"PL34 0HB","propertyType":"Flat/Maisonette/Townhouse","oldOrNew":"Established","duration":"Leasehold","paon":"PRAXIS","saon":"","street":"","locality":"TREBARWITH STRAND","townOrCity":"TINTAGEL","district":"NORTH CORNWALL","county":"CORNWALL","ppdCategoryType":"Standard","recordStatus":"Addition","latitude":50.644859,"longitude":-4.757824,"postcodeStart":"PL34 0","postcode":["PL34","0HB"]}
{"price":60000,"dateOfTransfer":"1998-03-31T00:00:00","postcodeFull":"PL34 0DD","propertyType":"Detached","oldOrNew":"Established","duration":"Freehold","paon":"TREVAYLOR","saon":"","street":"ATLANTIC ROAD","locality":"TINTAGEL","townOrCity":"TINTAGEL","district":"NORTH CORNWALL","county":"CORNWALL","ppdCategoryType":"Standard","recordStatus":"Addition","latitude":50.664441,"longitude":-4.753282,"postcodeStart":"PL34 0","postcode":["PL34","0DD"]}
{"price":150000,"dateOfTransfer":"1998-05-28T00:00:00","postcodeFull":"PL34 0DN","propertyType":"Detached","oldOrNew":"Established","duration":"Freehold","paon":"PENDRAGON HOUSE","saon":"","street":"","locality":"TREVILLICK","townOrCity":"TINTAGEL","district":"NORTH CORNWALL","county":"CORNWALL","ppdCategoryType":"Standard","recordStatus":"Addition","latitude":50.657385,"longitude":-4.756752,"postcodeStart":"PL34 0","postcode":["PL34","0DN"]}
{"price":75000,"dateOfTransfer":"1998-08-07T00:00:00","postcodeFull":"PL34 0AG","propertyType":"Detached","oldOrNew":"Established","duration":"Freehold","paon":"WHITLEY","saon":"","street":"BOSSINEY ROAD","locality":"TINTAGEL","townOrCity":"TINTAGEL","district":"NORTH CORNWALL","county":"CORNWALL","ppdCategoryType":"Standard","recordStatus":"Addition","latitude":50.663045,"longitude":-4.744474,"postcodeStart":"PL34 0","postcode":["PL34","0AG"]}
{"price":60000,"dateOfTransfer":"1998-08-26T00:00:00","postcodeFull":"PL34 0BG","propertyType":"Detached","oldOrNew":"Established","duration":"Freehold","paon":"TRAMALY","saon":"","street":"","locality":"TRETHEVY","townOrCity":"TINTAGEL","district":"NORTH CORNWALL","county":"CORNWALL","ppdCategoryType":"Standard","recordStatus":"Addition","latitude":50.67167,"longitude":-4.721892,"postcodeStart":"PL34 0","postcode":["PL34","0BG"]}
{"price":55000,"dateOfTransfer":"1998-05-05T00:00:00","postcodeFull":"PL34 0HB","propertyType":"Detached","oldOrNew":"Established","duration":"Freehold","paon":"SUMMER COTTAGE","saon":"","street":"","locality":"TREBARWITH STRAND","townOrCity":"TINTAGEL","district":"NORTH CORNWALL","county":"CORNWALL","ppdCategoryType":"Standard","recordStatus":"Addition","latitude":50.644859,"longitude":-4.757824,"postcodeStart":"PL34 0","postcode":["PL34","0HB"]}
{"price":49950,"dateOfTransfer":"1998-09-28T00:00:00","postcodeFull":"PL34 0ET","propertyType":"Terraced","oldOrNew":"Established","duration":"Freehold","paon":"1 JUBILEE COTTAGE","saon":"","street":"","locality":"TREWARMETT","townOrCity":"TINTAGEL","district":"NORTH CORNWALL","county":"CORNWALL","ppdCategoryType":"Standard","recordStatus":"Addition","latitude":50.645712,"longitude":-4.736145,"postcodeStart":"PL34 0","postcode":["PL34","0ET"]}
{"price":127000,"dateOfTransfer":"1998-12-18T00:00:00","postcodeFull":"PL34 0BG","propertyType":"Detached","oldOrNew":"Established","duration":"Freehold","paon":"WESTAWAY","saon":"","street":"","locality":"TRETHEVY","townOrCity":"TINTAGEL","district":"NORTH CORNWALL","county":"CORNWALL","ppdCategoryType":"Standard","recordStatus":"Addition","latitude":50.67167,"longitude":-4.721892,"postcodeStart":"PL34 0","postcode":["PL34","0BG"]}
{"price":88000,"dateOfTransfer":"1998-05-28T00:00:00","postcodeFull":"PL34 0BU","propertyType":"Detached","oldOrNew":"Established","duration":"Freehold","paon":"TELSTAR","saon":"","street":"FOSTERS LANE","locality":"TINTAGEL","townOrCity":"TINTAGEL","district":"NORTH CORNWALL","county":"CORNWALL","ppdCategoryType":"Standard","recordStatus":"Addition","latitude":50.660862,"longitude":-4.748182,"postcodeStart":"PL34 0","postcode":["PL34","0BU"]}
{"price":99500,"dateOfTransfer":"1998-08-21T00:00:00","postcodeFull":"PL34 0AU","propertyType":"Detached","oldOrNew":"Established","duration":"Freehold","paon":"FOURWINDS","saon":"","street":"BACK LANE","locality":"TINTAGEL","townOrCity":"TINTAGEL","district":"NORTH CORNWALL","county":"CORNWALL","ppdCategoryType":"Standard","recordStatus":"Addition","latitude":50.667533,"longitude":-4.741424,"postcodeStart":"PL34 0","postcode":["PL34","0AU"]}
{"price":95000,"dateOfTransfer":"1998-07-20T00:00:00","postcodeFull":"PL34 0ES","propertyType":"Detached","oldOrNew":"Established","duration":"Freehold","paon":"THE HEIGHTS","saon":"","street":"","locality":"TREWARMETT","townOrCity":"TINTAGEL","district":"NORTH CORNWALL","county":"CORNWALL","ppdCategoryType":"Standard","recordStatus":"Addition","latitude":50.647255,"longitude":-4.737782,"postcodeStart":"PL34 0","postcode":["PL34","0ES"]}
{"price":19000,"dateOfTransfer":"1998-03-23T00:00:00","postcodeFull":"PL34 0EN","propertyType":"Terraced","oldOrNew":"Established","duration":"Freehold","paon":"PUFFINS","saon":"","street":"","locality":"TREKNOW","townOrCity":"TINTAGEL","district":"NORTH CORNWALL","county":"CORNWALL","ppdCategoryType":"Standard","recordStatus":"Addition","latitude":50.648672,"longitude":-4.750922,"postcodeStart":"PL34 0","postcode":["PL34","0EN"]}
{"price":56000,"dateOfTransfer":"1998-07-20T00:00:00","postcodeFull":"PL34 0BE","propertyType":"Terraced","oldOrNew":"Established","duration":"Freehold","paon":"CURZYWAY COTTAGE, 1","saon":"","street":"ST PIRANS COURT","locality":"TRETHEVY","townOrCity":"TINTAGEL","district":"NORTH CORNWALL","county":"CORNWALL","ppdCategoryType":"Standard","recordStatus":"Addition","latitude":50.669912,"longitude":-4.723984,"postcodeStart":"PL34 0","postcode":["PL34","0BE"]}
{"price":85000,"dateOfTransfer":"1998-07-23T00:00:00","postcodeFull":"PL34 0HB","propertyType":"Semi-detached","oldOrNew":"Established","duration":"Freehold","paon":"CLIFFSIDE","saon":"","street":"","locality":"TREBARWITH STRAND","townOrCity":"TINTAGEL","district":"NORTH CORNWALL","county":"CORNWALL","ppdCategoryType":"Standard","recordStatus":"Addition","latitude":50.644859,"longitude":-4.757824,"postcodeStart":"PL34 0","postcode":["PL34","0HB"]}
{"price":57000,"dateOfTransfer":"1998-09-29T00:00:00","postcodeFull":"PL34 0BP","propertyType":"Detached","oldOrNew":"Established","duration":"Freehold","paon":"17","saon":"","street":"MERLINS WAY","locality":"TINTAGEL","townOrCity":"TINTAGEL","district":"NORTH CORNWALL","county":"CORNWALL","ppdCategoryType":"Standard","recordStatus":"Addition","latitude":50.662217,"longitude":-4.742344,"postcodeStart":"PL34 0","postcode":["PL34","0BP"]}
{"price":52000,"dateOfTransfer":"1998-08-07T00:00:00","postcodeFull":"PL34 0BP","propertyType":"Detached","oldOrNew":"Established","duration":"Freehold","paon":"2","saon":"","street":"MERLINS WAY","locality":"TINTAGEL","townOrCity":"TINTAGEL","district":"NORTH CORNWALL","county":"CORNWALL","ppdCategoryType":"Standard","recordStatus":"Addition","latitude":50.662217,"longitude":-4.742344,"postcodeStart":"PL34 0","postcode":["PL34","0BP"]}
{"price":25000,"dateOfTransfer":"1998-05-11T00:00:00","postcodeFull":"PL34 0BX","propertyType":"Terraced","oldOrNew":"Established","duration":"Freehold","paon":"13","saon":"","street":"DANMORE CLOSE","locality":"TINTAGEL","townOrCity":"TINTAGEL","district":"NORTH CORNWALL","county":"CORNWALL","ppdCategoryType":"Standard","recordStatus":"Addition","latitude":50.661333,"longitude":-4.74879,"postcodeStart":"PL34 0","postcode":["PL34","0BX"]}
{"price":92000,"dateOfTransfer":"1998-05-11T00:00:00","postcodeFull":"PL34 0AE","propertyType":"Detached","oldOrNew":"Established","duration":"Freehold","paon":"TREMORRAB","saon":"","street":"BOSSINEY ROAD","locality":"TINTAGEL","townOrCity":"TINTAGEL","district":"NORTH CORNWALL","county":"CORNWALL","ppdCategoryType":"Standard","recordStatus":"Addition","latitude":50.662766,"longitude":-4.746873,"postcodeStart":"PL34 0","postcode":["PL34","0AE"]}
{"price":160000,"dateOfTransfer":"1999-09-08T00:00:00","postcodeFull":"PL34 0DY","propertyType":"Detached","oldOrNew":"Established","duration":"Freehold","paon":"BEAVER COTTAGE","saon":"","street":"","locality":"TREGATTA","townOrCity":"TINTAGEL","district":"NORTH CORNWALL","county":"CORNWALL","ppdCategoryType":"Standard","recordStatus":"Addition","latitude":50.653885,"longitude":-4.751575,"postcodeStart":"PL34 0","postcode":["PL34","0DY"]}
{"price":54000,"dateOfTransfer":"1999-09-03T00:00:00","postcodeFull":"PL34 0HH","propertyType":"Detached","oldOrNew":"New build","duration":"Freehold","paon":"PIXIE BUNGALOW","saon":"","street":"","locality":"","townOrCity":"TINTAGEL","district":"NORTH CORNWALL","county":"CORNWALL","ppdCategoryType":"Standard","recordStatus":"Addition","latitude":50.644062,"longitude":-4.712849,"postcodeStart":"PL34 0","postcode":["PL34","0HH"]}
{"price":120000,"dateOfTransfer":"1999-05-13T00:00:00","postcodeFull":"PL34 0EW","propertyType":"Detached","oldOrNew":"Established","duration":"Freehold","paon":"ETUDE","saon":"","street":"TRELAKE LANE","locality":"TREKNOW","townOrCity":"TINTAGEL","district":"NORTH CORNWALL","county":"CORNWALL","ppdCategoryType":"Standard","recordStatus":"Addition","latitude":50.647401,"longitude":-4.749504,"postcodeStart":"PL34 0","postcode":["PL34","0EW"]}
{"price":135000,"dateOfTransfer":"1999-10-19T00:00:00","postcodeFull":"PL34 0AP","propertyType":"Detached","oldOrNew":"Established","duration":"Freehold","paon":"FLEXFORD HOUSE","saon":"","street":"BOSSINEY ROAD","locality":"","townOrCity":"TINTAGEL","district":"NORTH CORNWALL","county":"CORNWALL","ppdCategoryType":"Standard","recordStatus":"Addition","latitude":50.6661,"longitude":-4.740803,"postcodeStart":"PL34 0","postcode":["PL34","0AP"]}
{"price":160000,"dateOfTransfer":"1999-11-18T00:00:00","postcodeFull":"PL34 0DN","propertyType":"Detached","oldOrNew":"Established","duration":"Freehold","paon":"PENDASHALL","saon":"","street":"","locality":"TREVILLICK","townOrCity":"TINTAGEL","district":"NORTH CORNWALL","county":"CORNWALL","ppdCategoryType":"Standard","recordStatus":"Addition","latitude":50.657385,"longitude":-4.756752,"postcodeStart":"PL34 0","postcode":["PL34","0DN"]}
{"price":42500,"dateOfTransfer":"1999-05-13T00:00:00","postcodeFull":"PL34 0AT","propertyType":"Terraced","oldOrNew":"Established","duration":"Freehold","paon":"24","saon":"","street":"THE BUTTS","locality":"","townOrCity":"TINTAGEL","district":"NORTH CORNWALL","county":"CORNWALL","ppdCategoryType":"Standard","recordStatus":"Addition","latitude":50.665655,"longitude":-4.742872,"postcodeStart":"PL34 0","postcode":["PL34","0AT"]}
{"price":87500,"dateOfTransfer":"1999-04-19T00:00:00","postcodeFull":"PL34 0BE","propertyType":"Detached","oldOrNew":"Established","duration":"Freehold","paon":"ST. CLEDER","saon":"","street":"","locality":"TRETHEVY","townOrCity":"TINTAGEL","district":"NORTH CORNWALL","county":"CORNWALL","ppdCategoryType":"Standard","recordStatus":"Addition","latitude":50.669912,"longitude":-4.723984,"postcodeStart":"PL34 0","postcode":["PL34","0BE"]}
{"price":88000,"dateOfTransfer":"1999-06-07T00:00:00","postcodeFull":"PL34 0AY","propertyType":"Semi-detached","oldOrNew":"Established","duration":"Freehold","paon":"APPLETREE COTTAGE","saon":"","street":"","locality":"BOSSINEY","townOrCity":"TINTAGEL","district":"NORTH CORNWALL","county":"CORNWALL","ppdCategoryType":"Standard","recordStatus":"Addition","latitude":50.667325,"longitude":-4.737676,"postcodeStart":"PL34 0","postcode":["PL34","0AY"]}
{"price":79500,"dateOfTransfer":"1999-12-10T00:00:00","postcodeFull":"PL34 0BH","propertyType":"Detached","oldOrNew":"Established","duration":"Freehold","paon":"10","saon":"","street":"WESTGROUND WAY","locality":"","townOrCity":"TINTAGEL","district":"NORTH CORNWALL","county":"CORNWALL","ppdCategoryType":"Standard","recordStatus":"Addition","latitude":50.666563,"longitude":-4.741764,"postcodeStart":"PL34 0","postcode":["PL34","0BH"]}
{"price":145000,"dateOfTransfer":"1999-03-05T00:00:00","postcodeFull":"PL34 0AG","propertyType":"Detached","oldOrNew":"Established","duration":"Freehold","paon":"SUNNINGDALE","saon":"","street":"BOSSINEY ROAD","locality":"","townOrCity":"TINTAGEL","district":"NORTH CORNWALL","county":"CORNWALL","ppdCategoryType":"Standard","recordStatus":"Addition","latitude":50.663045,"longitude":-4.744474,"postcodeStart":"PL34 0","postcode":["PL34","0AG"]}
{"price":84500,"dateOfTransfer":"1999-05-21T00:00:00","postcodeFull":"PL34 0HH","propertyType":"Detached","oldOrNew":"Established","duration":"Freehold","paon":"CONDOLDEN COTTAGE","saon":"","street":"","locality":"","townOrCity":"TINTAGEL","district":"NORTH CORNWALL","county":"CORNWALL","ppdCategoryType":"Standard","recordStatus":"Addition","latitude":50.644062,"longitude":-4.712849,"postcodeStart":"PL34 0","postcode":["PL34","0HH"]}
{"price":117000,"dateOfTransfer":"1999-11-01T00:00:00","postcodeFull":"PL34 0ET","propertyType":"Detached","oldOrNew":"Established","duration":"Freehold","paon":"GLENHAVEN","saon":"","street":"","locality":"TREWARMETT","townOrCity":"TINTAGEL","district":"NORTH CORNWALL","county":"CORNWALL","ppdCategoryType":"Standard","recordStatus":"Addition","latitude":50.645712,"longitude":-4.736145,"postcodeStart":"PL34 0","postcode":["PL34","0ET"]}
{"price":143500,"dateOfTransfer":"1999-10-11T00:00:00","postcodeFull":"PL34 0DE","propertyType":"Semi-detached","oldOrNew":"Established","duration":"Freehold","paon":"PENGALLERON","saon":"","street":"ATLANTIC ROAD","locality":"","townOrCity":"TINTAGEL","district":"NORTH CORNWALL","county":"CORNWALL","ppdCategoryType":"Standard","recordStatus":"Addition","latitude":50.665868,"longitude":-4.752168,"postcodeStart":"PL34 0","postcode":["PL34","0DE"]}
{"price":199500,"dateOfTransfer":"1999-10-04T00:00:00","postcodeFull":"PL34 0BG","propertyType":"Detached","oldOrNew":"Established","duration":"Freehold","paon":"TRETHEVY MANOR","saon":"","street":"","locality":"TRETHEVY","townOrCity":"TINTAGEL","district":"NORTH CORNWALL","county":"CORNWALL","ppdCategoryType":"Standard","recordStatus":"Addition","latitude":50.67167,"longitude":-4.721892,"postcodeStart":"PL34 0","postcode":["PL34","0BG"]}
{"price":138500,"dateOfTransfer":"1999-02-01T00:00:00","postcodeFull":"PL34 0DA","propertyType":"Detached","oldOrNew":"Established","duration":"Freehold","paon":"MERLIN GIFTS","saon":"THE FLAT","street":"FORE STREET","locality":"","townOrCity":"TINTAGEL","district":"NORTH CORNWALL","county":"CORNWALL","ppdCategoryType":"Standard","recordStatus":"Addition","latitude":50.663503,"longitude":-4.751136,"postcodeStart":"PL34 0","postcode":["PL34","0DA"]}
{"price":137000,"dateOfTransfer":"1999-12-16T00:00:00","postcodeFull":"PL34 0AU","propertyType":"Semi-detached","oldOrNew":"Established","duration":"Freehold","paon":"CHANTILLY","saon":"","street":"BACK LANE","locality":"","townOrCity":"TINTAGEL","district":"NORTH CORNWALL","county":"CORNWALL","ppdCategoryType":"Standard","recordStatus":"Addition","latitude":50.667533,"longitude":-4.741424,"postcodeStart":"PL34 0","postcode":["PL34","0AU"]}
{"price":37500,"dateOfTransfer":"1999-06-24T00:00:00","postcodeFull":"PL34 0AY","propertyType":"Semi-detached","oldOrNew":"Established","duration":"Freehold","paon":"HAUN COTTAGE","saon":"","street":"","locality":"BOSSINEY","townOrCity":"TINTAGEL","district":"NORTH CORNWALL","county":"CORNWALL","ppdCategoryType":"Standard","recordStatus":"Addition","latitude":50.667325,"longitude":-4.737676,"postcodeStart":"PL34 0","postcode":["PL34","0AY"]}
{"price":90000,"dateOfTransfer":"1999-04-09T00:00:00","postcodeFull":"PL34 0DS","propertyType":"Detached","oldOrNew":"New build","duration":"Freehold","paon":"3","saon":"","street":"GAVERCOOMBE PARK","locality":"","townOrCity":"TINTAGEL","district":"NORTH CORNWALL","county":"CORNWALL","ppdCategoryType":"Standard","recordStatus":"Addition","latitude":50.666569,"longitude":-4.752945,"postcodeStart":"PL34 0","postcode":["PL34","0DS"]}
{"price":98500,"dateOfTransfer":"1999-10-15T00:00:00","postcodeFull":"PL34 0DN","propertyType":"Detached","oldOrNew":"Established","duration":"Freehold","paon":"MERLINS ROOST","saon":"","street":"","locality":"TREVILLICK","townOrCity":"TINTAGEL","district":"NORTH CORNWALL","county":"CORNWALL","ppdCategoryType":"Standard","recordStatus":"Addition","latitude":50.657385,"longitude":-4.756752,"postcodeStart":"PL34 0","postcode":["PL34","0DN"]}
{"price":72000,"dateOfTransfer":"1999-07-30T00:00:00","postcodeFull":"PL34 0EN","propertyType":"Detached","oldOrNew":"Established","duration":"Freehold","paon":"ANNETH","saon":"","street":"","locality":"TREKNOW","townOrCity":"TINTAGEL","district":"NORTH CORNWALL","county":"CORNWALL","ppdCategoryType":"Standard","recordStatus":"Addition","latitude":50.648672,"longitude":-4.750922,"postcodeStart":"PL34 0","postcode":["PL34","0EN"]}
{"price":120000,"dateOfTransfer":"1999-10-01T00:00:00","postcodeFull":"PL34 0DS","propertyType":"Detached","oldOrNew":"New build","duration":"Freehold","paon":"5","saon":"","street":"GAVERCOOMBE PARK","locality":"","townOrCity":"TINTAGEL","district":"NORTH CORNWALL","county":"CORNWALL","ppdCategoryType":"Standard","recordStatus":"Addition","latitude":50.666569,"longitude":-4.752945,"postcodeStart":"PL34 0","postcode":["PL34","0DS"]}
{"price":57000,"dateOfTransfer":"1999-10-01T00:00:00","postcodeFull":"PL34 0BP","propertyType":"Detached","oldOrNew":"Established","duration":"Freehold","paon":"9","saon":"","street":"MERLINS WAY","locality":"","townOrCity":"TINTAGEL","district":"NORTH CORNWALL","county":"CORNWALL","ppdCategoryType":"Standard","recordStatus":"Addition","latitude":50.662217,"longitude":-4.742344,"postcodeStart":"PL34 0","postcode":["PL34","0BP"]}
{"price":35000,"dateOfTransfer":"1999-04-06T00:00:00","postcodeFull":"PL34 0DD","propertyType":"Flat/Maisonette/Townhouse","oldOrNew":"Established","duration":"Leasehold","paon":"5","saon":"FLAT 1","street":"KING ARTHURS TERRACE","locality":"","townOrCity":"TINTAGEL","district":"NORTH CORNWALL","county":"CORNWALL","ppdCategoryType":"Standard","recordStatus":"Addition","latitude":50.664441,"longitude":-4.753282,"postcodeStart":"PL34 0","postcode":["PL34","0DD"]}
{"price":48500,"dateOfTransfer":"1999-02-26T00:00:00","postcodeFull":"PL34 0ET","propertyType":"Semi-detached","oldOrNew":"Established","duration":"Freehold","paon":"FAIRMEAD","saon":"","street":"","locality":"TREWARMETT","townOrCity":"TINTAGEL","district":"NORTH CORNWALL","county":"CORNWALL","ppdCategoryType":"Standard","recordStatus":"Addition","latitude":50.645712,"longitude":-4.736145,"postcodeStart":"PL34 0","postcode":["PL34","0ET"]}
{"price":74000,"dateOfTransfer":"1999-07-19T00:00:00","postcodeFull":"PL34 0AW","propertyType":"Detached","oldOrNew":"Established","duration":"Freehold","paon":"MORWENNA","saon":"","street":"TRENALE LANE","locality":"","townOrCity":"TINTAGEL","district":"NORTH CORNWALL","county":"CORNWALL","ppdCategoryType":"Standard","recordStatus":"Addition","latitude":50.662353,"longitude":-4.741391,"postcodeStart":"PL34 0","postcode":["PL34","0AW"]}
{"price":110000,"dateOfTransfer":"1999-04-28T00:00:00","postcodeFull":"PL34 0AG","propertyType":"Detached","oldOrNew":"Established","duration":"Freehold","paon":"KILMORIE","saon":"","street":"BOSSINEY ROAD","locality":"","townOrCity":"TINTAGEL","district":"NORTH CORNWALL","county":"CORNWALL","ppdCategoryType":"Standard","recordStatus":"Addition","latitude":50.663045,"longitude":-4.744474,"postcodeStart":"PL34 0","postcode":["PL34","0AG"]}
{"price":68000,"dateOfTransfer":"1999-05-21T00:00:00","postcodeFull":"PL34 0BH","propertyType":"Semi-detached","oldOrNew":"Established","duration":"Freehold","paon":"15","saon":"","street":"WESTGROUND WAY","locality":"","townOrCity":"TINTAGEL","district":"NORTH CORNWALL","county":"CORNWALL","ppdCategoryType":"Standard","recordStatus":"Addition","latitude":50.666563,"longitude":-4.741764,"postcodeStart":"PL34 0","postcode":["PL34","0BH"]}
{"price":59950,"dateOfTransfer":"1999-09-30T00:00:00","postcodeFull":"PL34 0HL","propertyType":"Terraced","oldOrNew":"Established","duration":"Freehold","paon":"MILL COTTAGE","saon":"","street":"","locality":"","townOrCity":"TINTAGEL","district":"NORTH CORNWALL","county":"CORNWALL","ppdCategoryType":"Standard","recordStatus":"Addition","latitude":50.661968,"longitude":-4.715325,"postcodeStart":"PL34 0","postcode":["PL34","0HL"]}
{"price":50000,"dateOfTransfer":"1999-10-22T00:00:00","postcodeFull":"PL34 0EH","propertyType":"Terraced","oldOrNew":"Established","duration":"Freehold","paon":"8","saon":"","street":"PALMERS TERRACE","locality":"TREKNOW","townOrCity":"TINTAGEL","district":"NORTH CORNWALL","county":"CORNWALL","ppdCategoryType":"Standard","recordStatus":"Addition","latitude":50.651011,"longitude":-4.751271,"postcodeStart":"PL34 0","postcode":["PL34","0EH"]}
{"price":56000,"dateOfTransfer":"1999-03-15T00:00:00","postcodeFull":"PL34 0DD","propertyType":"Terraced","oldOrNew":"Established","duration":"Freehold","paon":"3","saon":"","street":"KING ARTHURS TERRACE","locality":"","townOrCity":"TINTAGEL","district":"NORTH CORNWALL","county":"CORNWALL","ppdCategoryType":"Standard","recordStatus":"Addition","latitude":50.664441,"longitude":-4.753282,"postcodeStart":"PL34 0","postcode":["PL34","0DD"]}
{"price":198000,"dateOfTransfer":"1999-02-12T00:00:00","postcodeFull":"PL34 0AY","propertyType":"Detached","oldOrNew":"Established","duration":"Freehold","paon":"OLD BOROUGH HOUSE","saon":"","street":"","locality":"BOSSINEY","townOrCity":"TINTAGEL","district":"NORTH CORNWALL","county":"CORNWALL","ppdCategoryType":"Standard","recordStatus":"Addition","latitude":50.667325,"longitude":-4.737676,"postcodeStart":"PL34 0","postcode":["PL34","0AY"]}
{"price":149500,"dateOfTransfer":"1999-12-10T00:00:00","postcodeFull":"PL34 0DH","propertyType":"Detached","oldOrNew":"Established","duration":"Freehold","paon":"SELDNAR HOUSE","saon":"","street":"CASTLE VIEW","locality":"","townOrCity":"TINTAGEL","district":"NORTH CORNWALL","county":"CORNWALL","ppdCategoryType":"Standard","recordStatus":"Addition","latitude":50.666589,"longitude":-4.754484,"postcodeStart":"PL34 0","postcode":["PL34","0DH"]}
{"price":129000,"dateOfTransfer":"1999-12-10T00:00:00","postcodeFull":"PL34 0EW","propertyType":"Detached","oldOrNew":"Established","duration":"Freehold","paon":"TRUCKLE","saon":"","street":"TRELAKE LANE","locality":"TREKNOW","townOrCity":"TINTAGEL","district":"NORTH CORNWALL","county":"CORNWALL","ppdCategoryType":"Standard","recordStatus":"Addition","latitude":50.647401,"longitude":-4.749504,"postcodeStart":"PL34 0","postcode":["PL34","0EW"]}
{"price":100000,"dateOfTransfer":"1999-10-29T00:00:00","postcodeFull":"PL34 0HB","propertyType":"Flat/Maisonette/Townhouse","oldOrNew":"Established","duration":"Leasehold","paon":"TREBARWITH STRAND HOTEL","saon":"FLAT 2","street":"","locality":"TREBARWITH STRAND","townOrCity":"TINTAGEL","district":"CORNWALL","county":"CORNWALL","ppdCategoryType":"Standard","recordStatus":"Addition","latitude":50.644859,"longitude":-4.757824,"postcodeStart":"PL34 0","postcode":["PL34","0HB"]}
{"price":57250,"dateOfTransfer":"1999-11-01T00:00:00","postcodeFull":"PL34 0BE","propertyType":"Terraced","oldOrNew":"Established","duration":"Freehold","paon":"PENDEE, 2","saon":"","street":"ST PIRANS COURT","locality":"TRETHEVY","townOrCity":"TINTAGEL","district":"NORTH CORNWALL","county":"CORNWALL","ppdCategoryType":"Standard","recordStatus":"Addition","latitude":50.669912,"longitude":-4.723984,"postcodeStart":"PL34 0","postcode":["PL34","0BE"]}
{"price":68000,"dateOfTransfer":"1999-12-09T00:00:00","postcodeFull":"PL34 0BZ","propertyType":"Semi-detached","oldOrNew":"Established","duration":"Freehold","paon":"TREOLDEN","saon":"","street":"MOLESWORTH STREET","locality":"","townOrCity":"TINTAGEL","district":"NORTH CORNWALL","county":"CORNWALL","ppdCategoryType":"Standard","recordStatus":"Addition","latitude":50.662072,"longitude":-4.750356,"postcodeStart":"PL34 0","postcode":["PL34","0BZ"]}
{"price":98000,"dateOfTransfer":"1999-03-03T00:00:00","postcodeFull":"PL34 0BG","propertyType":"Detached","oldOrNew":"Established","duration":"Freehold","paon":"PENDRAGON","saon":"","street":"","locality":"TRETHEVY","townOrCity":"TINTAGEL","district":"NORTH CORNWALL","county":"CORNWALL","ppdCategoryType":"Standard","recordStatus":"Addition","latitude":50.67167,"longitude":-4.721892,"postcodeStart":"PL34 0","postcode":["PL34","0BG"]}
{"price":78000,"dateOfTransfer":"1999-01-22T00:00:00","postcodeFull":"PL34 0BU","propertyType":"Detached","oldOrNew":"Established","duration":"Freehold","paon":"YEOMANS","saon":"","street":"FOSTERS LANE","locality":"","townOrCity":"TINTAGEL","district":"NORTH CORNWALL","county":"CORNWALL","ppdCategoryType":"Standard","recordStatus":"Addition","latitude":50.660862,"longitude":-4.748182,"postcodeStart":"PL34 0","postcode":["PL34","0BU"]}
{"price":80000,"dateOfTransfer":"1999-01-29T00:00:00","postcodeFull":"PL34 0DD","propertyType":"Semi-detached","oldOrNew":"Established","duration":"Freehold","paon":"1","saon":"","street":"KING ARTHURS TERRACE","locality":"","townOrCity":"TINTAGEL","district":"NORTH CORNWALL","county":"CORNWALL","ppdCategoryType":"Standard","recordStatus":"Addition","latitude":50.664441,"longitude":-4.753282,"postcodeStart":"PL34 0","postcode":["PL34","0DD"]}
{"price":38000,"dateOfTransfer":"1999-09-10T00:00:00","postcodeFull":"PL34 0AT","propertyType":"Terraced","oldOrNew":"Established","duration":"Freehold","paon":"25","saon":"","street":"THE BUTTS","locality":"","townOrCity":"TINTAGEL","district":"NORTH CORNWALL","county":"CORNWALL","ppdCategoryType":"Standard","recordStatus":"Addition","latitude":50.665655,"longitude":-4.742872,"postcodeStart":"PL34 0","postcode":["PL34","0AT"]}
{"price":140000,"dateOfTransfer":"1999-07-05T00:00:00","postcodeFull":"PL34 0EN","propertyType":"Detached","oldOrNew":"Established","duration":"Freehold","paon":"CROSS PARK","saon":"","street":"","locality":"TREKNOW","townOrCity":"TINTAGEL","district":"NORTH CORNWALL","county":"CORNWALL","ppdCategoryType":"Standard","recordStatus":"Addition","latitude":50.648672,"longitude":-4.750922,"postcodeStart":"PL34 0","postcode":["PL34","0EN"]}
{"price":167000,"dateOfTransfer":"1999-07-19T00:00:00","postcodeFull":"PL34 0DE","propertyType":"Semi-detached","oldOrNew":"Established","duration":"Freehold","paon":"BOSAYNE","saon":"","street":"ATLANTIC ROAD","locality":"","townOrCity":"TINTAGEL","district":"NORTH CORNWALL","county":"CORNWALL","ppdCategoryType":"Standard","recordStatus":"Addition","latitude":50.665868,"longitude":-4.752168,"postcodeStart":"PL34 0","postcode":["PL34","0DE"]}
{"price":90000,"dateOfTransfer":"2000-03-13T00:00:00","postcodeFull":"PL34 0AG","propertyType":"Detached","oldOrNew":"Established","duration":"Freehold","paon":"BRAMLEY COTTAGE","saon":"","street":"BOSSINEY ROAD","locality":"","townOrCity":"TINTAGEL","district":"NORTH CORNWALL","county":"CORNWALL","ppdCategoryType":"Standard","recordStatus":"Addition","latitude":50.663045,"longitude":-4.744474,"postcodeStart":"PL34 0","postcode":["PL34","0AG"]}
{"price":95000,"dateOfTransfer":"2000-03-24T00:00:00","postcodeFull":"PL34 0AN","propertyType":"Detached","oldOrNew":"Established","duration":"Freehold","paon":"KILLYMUIR","saon":"","street":"TRENALE LANE","locality":"","townOrCity":"TINTAGEL","district":"NORTH CORNWALL","county":"CORNWALL","ppdCategoryType":"Standard","recordStatus":"Addition","latitude":50.662589,"longitude":-4.74091,"postcodeStart":"PL34 0","postcode":["PL34","0AN"]}
{"price":80000,"dateOfTransfer":"2000-03-20T00:00:00","postcodeFull":"PL34 0BE","propertyType":"Semi-detached","oldOrNew":"Established","duration":"Freehold","paon":"STABLE COTTAGE","saon":"","street":"","locality":"TRETHEVY","townOrCity":"TINTAGEL","district":"NORTH CORNWALL","county":"CORNWALL","ppdCategoryType":"Standard","recordStatus":"Addition","latitude":50.669912,"longitude":-4.723984,"postcodeStart":"PL34 0","postcode":["PL34","0BE"]}
{"price":86000,"dateOfTransfer":"2000-12-19T00:00:00","postcodeFull":"PL34 0EL","propertyType":"Detached","oldOrNew":"Established","duration":"Freehold","paon":"MOONWIND","saon":"","street":"ATLANTIC CLOSE","locality":"TREKNOW","townOrCity":"TINTAGEL","district":"NORTH CORNWALL","county":"CORNWALL","ppdCategoryType":"Standard","recordStatus":"Addition","latitude":50.649737,"longitude":-4.752682,"postcodeStart":"PL34 0","postcode":["PL34","0EL"]}
{"price":85500,"dateOfTransfer":"2000-11-23T00:00:00","postcodeFull":"PL34 0BH","propertyType":"Detached","oldOrNew":"Established","duration":"Freehold","paon":"19","saon":"","street":"WESTGROUND WAY","locality":"","townOrCity":"TINTAGEL","district":"NORTH CORNWALL","county":"CORNWALL","ppdCategoryType":"Standard","recordStatus":"Addition","latitude":50.666563,"longitude":-4.741764,"postcodeStart":"PL34 0","postcode":["PL34","0BH"]}
{"price":194950,"dateOfTransfer":"2000-11-06T00:00:00","postcodeFull":"PL34 0DF","propertyType":"Detached","oldOrNew":"Established","duration":"Freehold","paon":"9","saon":"","street":"ATLANTIC WAY","locality":"","townOrCity":"TINTAGEL","district":"NORTH CORNWALL","county":"CORNWALL","ppdCategoryType":"Standard","recordStatus":"Addition","latitude":50.665705,"longitude":-4.754083,"postcodeStart":"PL34 0","postcode":["PL34","0DF"]}
{"price":235000,"dateOfTransfer":"2000-09-29T00:00:00","postcodeFull":"PL34 0AY","propertyType":"Detached","oldOrNew":"Established","duration":"Freehold","paon":"PUFFINS COTTAGE","saon":"","street":"","locality":"BOSSINEY","townOrCity":"TINTAGEL","district":"NORTH CORNWALL","county":"CORNWALL","ppdCategoryType":"Standard","recordStatus":"Addition","latitude":50.667325,"longitude":-4.737676,"postcodeStart":"PL34 0","postcode":["PL34","0AY"]}
{"price":175000,"dateOfTransfer":"2000-07-13T00:00:00","postcodeFull":"PL34 0ET","propertyType":"Detached","oldOrNew":"Established","duration":"Freehold","paon":"PLOUGHMANS COTTAGE","saon":"","street":"","locality":"TREWARMETT","townOrCity":"TINTAGEL","district":"NORTH CORNWALL","county":"CORNWALL","ppdCategoryType":"Standard","recordStatus":"Addition","latitude":50.645712,"longitude":-4.736145,"postcodeStart":"PL34 0","postcode":["PL34","0ET"]}
{"price":115000,"dateOfTransfer":"2000-11-29T00:00:00","postcodeFull":"PL34 0BT","propertyType":"Detached","oldOrNew":"Established","duration":"Freehold","paon":"BROOKSIDE","saon":"","street":"FOSTERS LANE","locality":"","townOrCity":"TINTAGEL","district":"NORTH CORNWALL","county":"CORNWALL","ppdCategoryType":"Standard","recordStatus":"Addition","latitude":50.661769,"longitude":-4.746692,"postcodeStart":"PL34 0","postcode":["PL34","0BT"]}
{"price":90000,"dateOfTransfer":"2000-12-08T00:00:00","postcodeFull":"PL34 0AG","propertyType":"Terraced","oldOrNew":"Established","duration":"Freehold","paon":"LUNDY VILLA","saon":"","street":"BOSSINEY ROAD","locality":"","townOrCity":"TINTAGEL","district":"NORTH CORNWALL","county":"CORNWALL","ppdCategoryType":"Standard","recordStatus":"Addition","latitude":50.663045,"longitude":-4.744474,"postcodeStart":"PL34 0","postcode":["PL34","0AG"]}
{"price":122000,"dateOfTransfer":"2000-06-20T00:00:00","postcodeFull":"PL34 0EN","propertyType":"Detached","oldOrNew":"Established","duration":"Freehold","paon":"HILLSCROFT","saon":"","street":"","locality":"TREKNOW","townOrCity":"TINTAGEL","district":"NORTH CORNWALL","county":"CORNWALL","ppdCategoryType":"Standard","recordStatus":"Addition","latitude":50.648672,"longitude":-4.750922,"postcodeStart":"PL34 0","postcode":["PL34","0EN"]}
{"price":145000,"dateOfTransfer":"2000-10-17T00:00:00","postcodeFull":"PL34 0AU","propertyType":"Detached","oldOrNew":"Established","duration":"Freehold","paon":"FOURWINDS","saon":"","street":"BACK LANE","locality":"","townOrCity":"TINTAGEL","district":"NORTH CORNWALL","county":"CORNWALL","ppdCategoryType":"Standard","recordStatus":"Addition","latitude":50.667533,"longitude":-4.741424,"postcodeStart":"PL34 0","postcode":["PL34","0AU"]}
{"price":184500,"dateOfTransfer":"2000-04-18T00:00:00","postcodeFull":"PL34 0DS","propertyType":"Detached","oldOrNew":"New build","duration":"Freehold","paon":"6","saon":"","street":"GAVERCOOMBE PARK","locality":"","townOrCity":"TINTAGEL","district":"NORTH CORNWALL","county":"CORNWALL","ppdCategoryType":"Standard","recordStatus":"Addition","latitude":50.666569,"longitude":-4.752945,"postcodeStart":"PL34 0","postcode":["PL34","0DS"]}
{"price":230000,"dateOfTransfer":"2000-09-04T00:00:00","postcodeFull":"PL34 0HB","propertyType":"Detached","oldOrNew":"Established","duration":"Freehold","paon":"SUNNYCLIFFE","saon":"","street":"","locality":"TREBARWITH STRAND","townOrCity":"TINTAGEL","district":"NORTH CORNWALL","county":"CORNWALL","ppdCategoryType":"Standard","recordStatus":"Addition","latitude":50.644859,"longitude":-4.757824,"postcodeStart":"PL34 0","postcode":["PL34","0HB"]}
{"price":85000,"dateOfTransfer":"2000-05-10T00:00:00","postcodeFull":"PL34 0BH","propertyType":"Semi-detached","oldOrNew":"Established","duration":"Freehold","paon":"4","saon":"","street":"WESTGROUND WAY","locality":"","townOrCity":"TINTAGEL","district":"NORTH CORNWALL","county":"CORNWALL","ppdCategoryType":"Standard","recordStatus":"Addition","latitude":50.666563,"longitude":-4.741764,"postcodeStart":"PL34 0","postcode":["PL34","0BH"]}
{"price":87950,"dateOfTransfer":"2000-01-17T00:00:00","postcodeFull":"PL34 0ET","propertyType":"Terraced","oldOrNew":"Established","duration":"Freehold","paon":"PALM COTTAGE","saon":"","street":"","locality":"TREWARMETT","townOrCity":"TINTAGEL","district":"CARADON","county":"CORNWALL","ppdCategoryType":"Standard","recordStatus":"Addition","latitude":50.645712,"longitude":-4.736145,"postcodeStart":"PL34 0","postcode":["PL34","0ET"]}
{"price":59950,"dateOfTransfer":"2000-03-28T00:00:00","postcodeFull":"PL34 0EH","propertyType":"Semi-detached","oldOrNew":"Established","duration":"Freehold","paon":"5","saon":"","street":"PALMERS TERRACE","locality":"TREKNOW","townOrCity":"TINTAGEL","district":"NORTH CORNWALL","county":"CORNWALL","ppdCategoryType":"Standard","recordStatus":"Addition","latitude":50.651011,"longitude":-4.751271,"postcodeStart":"PL34 0","postcode":["PL34","0EH"]}
{"price":100000,"dateOfTransfer":"2000-12-12T00:00:00","postcodeFull":"PL34 0EL","propertyType":"Detached","oldOrNew":"Established","duration":"Freehold","paon":"12","saon":"","street":"ATLANTIC CLOSE","locality":"TREKNOW","townOrCity":"TINTAGEL","district":"NORTH CORNWALL","county":"CORNWALL","ppdCategoryType":"Standard","recordStatus":"Addition","latitude":50.649737,"longitude":-4.752682,"postcodeStart":"PL34 0","postcode":["PL34","0EL"]}
{"price":55500,"dateOfTransfer":"2000-09-29T00:00:00","postcodeFull":"PL34 0BH","propertyType":"Semi-detached","oldOrNew":"Established","duration":"Freehold","paon":"18","saon":"","street":"WESTGROUND WAY","locality":"","townOrCity":"TINTAGEL","district":"NORTH CORNWALL","county":"CORNWALL","ppdCategoryType":"Standard","recordStatus":"Addition","latitude":50.666563,"longitude":-4.741764,"postcodeStart":"PL34 0","postcode":["PL34","0BH"]}
{"price":87000,"dateOfTransfer":"2000-06-28T00:00:00","postcodeFull":"PL34 0AG","propertyType":"Terraced","oldOrNew":"Established","duration":"Freehold","paon":"HARTLAND VILLA","saon":"","street":"BOSSINEY ROAD","locality":"","townOrCity":"TINTAGEL","district":"NORTH CORNWALL","county":"CORNWALL","ppdCategoryType":"Standard","recordStatus":"Addition","latitude":50.663045,"longitude":-4.744474,"postcodeStart":"PL34 0","postcode":["PL34","0AG"]}
{"price":132500,"dateOfTransfer":"2000-01-28T00:00:00","postcodeFull":"PL34 0ES","propertyType":"Detached","oldOrNew":"Established","duration":"Freehold","paon":"CROSSROADS COTTAGE","saon":"","street":"","locality":"TREWARMETT","townOrCity":"TINTAGEL","district":"NORTH CORNWALL","county":"CORNWALL","ppdCategoryType":"Standard","recordStatus":"Addition","latitude":50.647255,"longitude":-4.737782,"postcodeStart":"PL34 0","postcode":["PL34","0ES"]}
{"price":304000,"dateOfTransfer":"2000-10-20T00:00:00","postcodeFull":"PL34 0HD","propertyType":"Detached","oldOrNew":"Established","duration":"Freehold","paon":"MILL HOUSE INN","saon":"","street":"","locality":"TREBARWITH STRAND","townOrCity":"TINTAGEL","district":"CORNWALL","county":"CORNWALL","ppdCategoryType":"Standard","recordStatus":"Addition","latitude":50.645215,"longitude":-4.748782,"postcodeStart":"PL34 0","postcode":["PL34","0HD"]}
{"price":169000,"dateOfTransfer":"2000-11-22T00:00:00","postcodeFull":"PL34 0ES","propertyType":"Detached","oldOrNew":"Established","duration":"Freehold","paon":"HAYFORD","saon":"","street":"","locality":"TREWARMETT","townOrCity":"TINTAGEL","district":"NORTH CORNWALL","county":"CORNWALL","ppdCategoryType":"Standard","recordStatus":"Addition","latitude":50.647255,"longitude":-4.737782,"postcodeStart":"PL34 0","postcode":["PL34","0ES"]}
{"price":90000,"dateOfTransfer":"2000-10-20T00:00:00","postcodeFull":"PL34 0DT","propertyType":"Detached","oldOrNew":"Established","duration":"Freehold","paon":"LINCOLN HOUSE","saon":"","street":"","locality":"TREVEN","townOrCity":"TINTAGEL","district":"NORTH CORNWALL","county":"CORNWALL","ppdCategoryType":"Standard","recordStatus":"Addition","latitude":50.65706,"longitude":-4.750444,"postcodeStart":"PL34 0","postcode":["PL34","0DT"]}
{"price":165000,"dateOfTransfer":"2000-08-25T00:00:00","postcodeFull":"PL34 0DX","propertyType":"Detached","oldOrNew":"Established","duration":"Freehold","paon":"TREWETHAN FARMHOUSE","saon":"","street":"","locality":"TREGATTA","townOrCity":"TINTAGEL","district":"CORNWALL","county":"CORNWALL","ppdCategoryType":"Standard","recordStatus":"Addition","latitude":50.654785,"longitude":-4.752689,"postcodeStart":"PL34 0","postcode":["PL34","0DX"]}
{"price":76950,"dateOfTransfer":"2000-09-29T00:00:00","postcodeFull":"PL34 0AB","propertyType":"Detached","oldOrNew":"Established","duration":"Freehold","paon":"IRISDENE","saon":"","street":"BOSSINEY ROAD","locality":"","townOrCity":"TINTAGEL","district":"NORTH CORNWALL","county":"CORNWALL","ppdCategoryType":"Standard","recordStatus":"Addition","latitude":50.662429,"longitude":-4.746683,"postcodeStart":"PL34 0","postcode":["PL34","0AB"]}
{"price":78000,"dateOfTransfer":"2000-02-21T00:00:00","postcodeFull":"PL34 0ET","propertyType":"Detached","oldOrNew":"Established","duration":"Freehold","paon":"BOSCABREA","saon":"","street":"","locality":"TREWARMETT","townOrCity":"TINTAGEL","district":"NORTH CORNWALL","county":"CORNWALL","ppdCategoryType":"Standard","recordStatus":"Addition","latitude":50.645712,"longitude":-4.736145,"postcodeStart":"PL34 0","postcode":["PL34","0ET"]}
{"price":175000,"dateOfTransfer":"2000-08-15T00:00:00","postcodeFull":"PL34 0DS","propertyType":"Detached","oldOrNew":"New build","duration":"Freehold","paon":"2","saon":"","street":"GAVERCOOMBE PARK","locality":"","townOrCity":"TINTAGEL","district":"NORTH CORNWALL","county":"CORNWALL","ppdCategoryType":"Standard","recordStatus":"Addition","latitude":50.666569,"longitude":-4.752945,"postcodeStart":"PL34 0","postcode":["PL34","0DS"]}
{"price":75000,"dateOfTransfer":"2000-01-28T00:00:00","postcodeFull":"PL34 0AN","propertyType":"Detached","oldOrNew":"Established","duration":"Freehold","paon":"ARWYN","saon":"","street":"TRENALE LANE","locality":"","townOrCity":"TINTAGEL","district":"NORTH CORNWALL","county":"CORNWALL","ppdCategoryType":"Standard","recordStatus":"Addition","latitude":50.662589,"longitude":-4.74091,"postcodeStart":"PL34 0","postcode":["PL34","0AN"]}
{"price":175000,"dateOfTransfer":"2000-09-22T00:00:00","postcodeFull":"PL34 0EJ","propertyType":"Semi-detached","oldOrNew":"Established","duration":"Freehold","paon":"TRENOWAN","saon":"","street":"","locality":"TREKNOW","townOrCity":"TINTAGEL","district":"NORTH CORNWALL","county":"CORNWALL","ppdCategoryType":"Standard","recordStatus":"Addition","latitude":50.651783,"longitude":-4.75249,"postcodeStart":"PL34 0","postcode":["PL34","0EJ"]}
{"price":52500,"dateOfTransfer":"2000-08-21T00:00:00","postcodeFull":"PL34 0BH","propertyType":"Terraced","oldOrNew":"Established","duration":"Freehold","paon":"14","saon":"","street":"WESTGROUND WAY","locality":"","townOrCity":"TINTAGEL","district":"NORTH CORNWALL","county":"CORNWALL","ppdCategoryType":"Standard","recordStatus":"Addition","latitude":50.666563,"longitude":-4.741764,"postcodeStart":"PL34 0","postcode":["PL34","0BH"]}
{"price":82000,"dateOfTransfer":"2000-08-18T00:00:00","postcodeFull":"PL34 0DT","propertyType":"Semi-detached","oldOrNew":"Established","duration":"Freehold","paon":"OXLEY","saon":"","street":"","locality":"TREVEN","townOrCity":"TINTAGEL","district":"NORTH CORNWALL","county":"CORNWALL","ppdCategoryType":"Standard","recordStatus":"Addition","latitude":50.65706,"longitude":-4.750444,"postcodeStart":"PL34 0","postcode":["PL34","0DT"]}
