{"price":48000,"dateOfTransfer":"1995-12-08T00:00:00","postcodeFull":"PO9 5AZ","propertyType":"Semi-detached","oldOrNew":"Established","duration":"Freehold","paon":"9","saon":"","street":"BLACKDOWN CRESCENT","locality":"HAVANT","townOrCity":"HAVANT","district":"HAVANT","county":"HAMPSHIRE","ppdCategoryType":"Standard","recordStatus":"Addition","latitude":50.866168,"longitude":-0.987622,"postcodeStart":"PO9 5","postcode":["PO9","5AZ"]}
{"price":60000,"dateOfTransfer":"1995-05-11T00:00:00","postcodeFull":"PO9 5BZ","propertyType":"Semi-detached","oldOrNew":"Established","duration":"Freehold","paon":"65","saon":"","street":"GREAT COPSE DRIVE","locality":"HAVANT","townOrCity":"HAVANT","district":"HAVANT","county":"HAMPSHIRE","ppdCategoryType":"Standard","recordStatus":"Addition","latitude":50.872412,"longitude":-0.98797,"postcodeStart":"PO9 5","postcode":["PO9","5BZ"]}
{"price":45000,"dateOfTransfer":"1995-03-10T00:00:00","postcodeFull":"PO9 5EP","propertyType":"Semi-detached","oldOrNew":"Established","duration":"Freehold","paon":"44","saon":"","street":"BONDFIELDS CRESCENT","locality":"HAVANT","townOrCity":"HAVANT","district":"HAVANT","county":"HAMPSHIRE","ppdCategoryType":"Standard","recordStatus":"Addition","latitude":50.872417,"longitude":-0.985412,"postcodeStart":"PO9 5","postcode":["PO9","5EP"]}
{"price":37000,"dateOfTransfer":"1995-10-20T00:00:00","postcodeFull":"PO9 5BQ","propertyType":"Terraced","oldOrNew":"Established","duration":"Freehold","paon":"210","saon":"","street":"DUNSBURY WAY","locality":"HAVANT","townOrCity":"HAVANT","district":"HAVANT","county":"HAMPSHIRE","ppdCategoryType":"Standard","recordStatus":"Addition","latitude":50.868625,"longitude":-0.987803,"postcodeStart":"PO9 5","postcode":["PO9","5BQ"]}
{"price":72950,"dateOfTransfer":"1995-09-01T00:00:00","postcodeFull":"PO9 5TG","propertyType":"Detached","oldOrNew":"New build","duration":"Freehold","paon":"1","saon":"","street":"DOUGLAS GARDENS","locality":"HAVANT","townOrCity":"HAVANT","district":"HAVANT","county":"HAMPSHIRE","ppdCategoryType":"Standard","recordStatus":"Addition","latitude":50.86563,"longitude":-0.973324,"postcodeStart":"PO9 5","postcode":["PO9","5TG"]}
{"price":46000,"dateOfTransfer":"1995-07-28T00:00:00","postcodeFull":"PO9 5SG","propertyType":"Semi-detached","oldOrNew":"Established","duration":"Freehold","paon":"17","saon":"","street":"CURDRIDGE CLOSE","locality":"HAVANT","townOrCity":"HAVANT","district":"HAVANT","county":"HAMPSHIRE","ppdCategoryType":"Standard","recordStatus":"Addition","latitude":50.868821,"longitude":-0.973197,"postcodeStart":"PO9 5","postcode":["PO9","5SG"]}
{"price":28000,"dateOfTransfer":"1995-12-29T00:00:00","postcodeFull":"PO9 5DW","propertyType":"Terraced","oldOrNew":"Established","duration":"Freehold","paon":"393","saon":"","street":"MIDDLE PARK WAY","locality":"HAVANT","townOrCity":"HAVANT","district":"HAVANT","county":"HAMPSHIRE","ppdCategoryType":"Standard","recordStatus":"Addition","latitude":50.873465,"longitude":-0.988004,"postcodeStart":"PO9 5","postcode":["PO9","5DW"]}
{"price":49500,"dateOfTransfer":"1995-05-11T00:00:00","postcodeFull":"PO9 5LS","propertyType":"Terraced","oldOrNew":"Established","duration":"Freehold","paon":"5","saon":"","street":"HEDGE END WALK","locality":"HAVANT","townOrCity":"HAVANT","district":"HAVANT","county":"HAMPSHIRE","ppdCategoryType":"Standard","recordStatus":"Addition","latitude":50.872292,"longitude":-0.964025,"postcodeStart":"PO9 5","postcode":["PO9","5LS"]}
{"price":44000,"dateOfTransfer":"1995-06-30T00:00:00","postcodeFull":"PO9 5JR","propertyType":"Terraced","oldOrNew":"Established","duration":"Freehold","paon":"84","saon":"","street":"WAKEFORDS WAY","locality":"HAVANT","townOrCity":"HAVANT","district":"HAVANT","county":"HAMPSHIRE","ppdCategoryType":"Standard","recordStatus":"Addition","latitude":50.873688,"longitude":-0.969397,"postcodeStart":"PO9 5","postcode":["PO9","5JR"]}
{"price":39000,"dateOfTransfer":"1995-10-20T00:00:00","postcodeFull":"PO9 5RJ","propertyType":"Semi-detached","oldOrNew":"Established","duration":"Freehold","paon":"9","saon":"","street":"BURGHCLERE ROAD","locality":"HAVANT","townOrCity":"HAVANT","district":"HAVANT","county":"HAMPSHIRE","ppdCategoryType":"Standard","recordStatus":"Addition","latitude":50.872518,"longitude":-0.968256,"postcodeStart":"PO9 5","postcode":["PO9","5RJ"]}
{"price":56000,"dateOfTransfer":"1995-06-22T00:00:00","postcodeFull":"PO9 5LR","propertyType":"Semi-detached","oldOrNew":"Established","duration":"Freehold","paon":"1","saon":"","street":"ITCHEN ROAD","locality":"HAVANT","townOrCity":"HAVANT","district":"HAVANT","county":"HAMPSHIRE","ppdCategoryType":"Standard","recordStatus":"Addition","latitude":50.872386,"longitude":-0.964507,"postcodeStart":"PO9 5","postcode":["PO9","5LR"]}
{"price":46000,"dateOfTransfer":"1995-02-20T00:00:00","postcodeFull":"PO9 5SD","propertyType":"Terraced","oldOrNew":"Established","duration":"Freehold","paon":"20","saon":"","street":"FURZEDOWN CRESCENT","locality":"HAVANT","townOrCity":"HAVANT","district":"HAVANT","county":"HAMPSHIRE","ppdCategoryType":"Standard","recordStatus":"Addition","latitude":50.870208,"longitude":-0.973423,"postcodeStart":"PO9 5","postcode":["PO9","5SD"]}
{"price":46000,"dateOfTransfer":"1995-03-31T00:00:00","postcodeFull":"PO9 5HJ","propertyType":"Terraced","oldOrNew":"Established","duration":"Freehold","paon":"56","saon":"","street":"BILLY LAWN AVENUE","locality":"HAVANT","townOrCity":"HAVANT","district":"HAVANT","county":"HAMPSHIRE","ppdCategoryType":"Standard","recordStatus":"Addition","latitude":50.868781,"longitude":-0.977888,"postcodeStart":"PO9 5","postcode":["PO9","5HJ"]}
{"price":20500,"dateOfTransfer":"1995-10-31T00:00:00","postcodeFull":"PO9 5EH","propertyType":"Terraced","oldOrNew":"Established","duration":"Freehold","paon":"26","saon":"","street":"CRONDALL AVENUE","locality":"HAVANT","townOrCity":"HAVANT","district":"HAVANT","county":"HAMPSHIRE","ppdCategoryType":"Standard","recordStatus":"Addition","latitude":50.874149,"longitude":-0.986057,"postcodeStart":"PO9 5","postcode":["PO9","5EH"]}
{"price":55950,"dateOfTransfer":"1995-11-24T00:00:00","postcodeFull":"PO9 5TN","propertyType":"Semi-detached","oldOrNew":"New build","duration":"Freehold","paon":"9","saon":"","street":"REDWOOD GROVE","locality":"HAVANT","townOrCity":"HAVANT","district":"HAVANT","county":"HAMPSHIRE","ppdCategoryType":"Standard","recordStatus":"Addition","latitude":50.865704,"longitude":-0.974659,"postcodeStart":"PO9 5","postcode":["PO9","5TN"]}
{"price":44750,"dateOfTransfer":"1995-01-06T00:00:00","postcodeFull":"PO9 5DX","propertyType":"Semi-detached","oldOrNew":"Established","duration":"Freehold","paon":"35","saon":"","street":"WINTERSLOW DRIVE","locality":"HAVANT","townOrCity":"HAVANT","district":"HAVANT","county":"HAMPSHIRE","ppdCategoryType":"Standard","recordStatus":"Addition","latitude":50.874406,"longitude":-0.989121,"postcodeStart":"PO9 5","postcode":["PO9","5DX"]}
{"price":42000,"dateOfTransfer":"1995-09-15T00:00:00","postcodeFull":"PO9 5QZ","propertyType":"Terraced","oldOrNew":"Established","duration":"Freehold","paon":"17","saon":"","street":"WILDMOOR WALK","locality":"HAVANT","townOrCity":"HAVANT","district":"HAVANT","county":"HAMPSHIRE","ppdCategoryType":"Standard","recordStatus":"Addition","latitude":50.871912,"longitude":-0.965753,"postcodeStart":"PO9 5","postcode":["PO9","5QZ"]}
{"price":53950,"dateOfTransfer":"1995-12-15T00:00:00","postcodeFull":"PO9 5TN","propertyType":"Terraced","oldOrNew":"New build","duration":"Freehold","paon":"27","saon":"","street":"REDWOOD GROVE","locality":"HAVANT","townOrCity":"HAVANT","district":"HAVANT","county":"HAMPSHIRE","ppdCategoryType":"Standard","recordStatus":"Addition","latitude":50.865704,"longitude":-0.974659,"postcodeStart":"PO9 5","postcode":["PO9","5TN"]}
{"price":45950,"dateOfTransfer":"1995-05-05T00:00:00","postcodeFull":"PO9 5EP","propertyType":"Terraced","oldOrNew":"Established","duration":"Freehold","paon":"34","saon":"","street":"BONDFIELDS CRESCENT","locality":"HAVANT","townOrCity":"HAVANT","district":"HAVANT","county":"HAMPSHIRE","ppdCategoryType":"Standard","recordStatus":"Addition","latitude":50.872417,"longitude":-0.985412,"postcodeStart":"PO9 5","postcode":["PO9","5EP"]}
{"price":55950,"dateOfTransfer":"1995-11-30T00:00:00","postcodeFull":"PO9 5TN","propertyType":"Semi-detached","oldOrNew":"New build","duration":"Freehold","paon":"20","saon":"","street":"REDWOOD GROVE","locality":"HAVANT","townOrCity":"HAVANT","district":"HAVANT","county":"HAMPSHIRE","ppdCategoryType":"Standard","recordStatus":"Addition","latitude":50.865704,"longitude":-0.974659,"postcodeStart":"PO9 5","postcode":["PO9","5TN"]}
{"price":46000,"dateOfTransfer":"1995-04-28T00:00:00","postcodeFull":"PO9 5EP","propertyType":"Semi-detached","oldOrNew":"Established","duration":"Freehold","paon":"42","saon":"","street":"BONDFIELDS CRESCENT","locality":"HAVANT","townOrCity":"HAVANT","district":"HAVANT","county":"HAMPSHIRE","ppdCategoryType":"Standard","recordStatus":"Addition","latitude":50.872417,"longitude":-0.985412,"postcodeStart":"PO9 5","postcode":["PO9","5EP"]}
{"price":180000,"dateOfTransfer":"1995-12-08T00:00:00","postcodeFull":"PO9 5NA","propertyType":"Detached","oldOrNew":"Established","duration":"Freehold","paon":"LONG MEADOW","saon":"","street":"BARTONS ROAD","locality":"HAVANT","townOrCity":"HAVANT","district":"HAVANT","county":"HAMPSHIRE","ppdCategoryType":"Standard","recordStatus":"Addition","latitude":50.866537,"longitude":-0.96097,"postcodeStart":"PO9 5","postcode":["PO9","5NA"]}
{"price":52950,"dateOfTransfer":"1995-11-24T00:00:00","postcodeFull":"PO9 5BX","propertyType":"Terraced","oldOrNew":"Established","duration":"Freehold","paon":"14","saon":"","street":"FOXCOTT GROVE","locality":"HAVANT","townOrCity":"HAVANT","district":"HAVANT","county":"HAMPSHIRE","ppdCategoryType":"Standard","recordStatus":"Addition","latitude":50.868603,"longitude":-0.984244,"postcodeStart":"PO9 5","postcode":["PO9","5BX"]}
{"price":44000,"dateOfTransfer":"1995-06-05T00:00:00","postcodeFull":"PO9 5JX","propertyType":"Semi-detached","oldOrNew":"Established","duration":"Freehold","paon":"70","saon":"","street":"MILLBROOK DRIVE","locality":"HAVANT","townOrCity":"HAVANT","district":"HAVANT","county":"HAMPSHIRE","ppdCategoryType":"Standard","recordStatus":"Addition","latitude":50.8738,"longitude":-0.970842,"postcodeStart":"PO9 5","postcode":["PO9","5JX"]}
{"price":46500,"dateOfTransfer":"1995-07-28T00:00:00","postcodeFull":"PO9 5EP","propertyType":"Semi-detached","oldOrNew":"Established","duration":"Freehold","paon":"16","saon":"","street":"BONDFIELDS CRESCENT","locality":"HAVANT","townOrCity":"HAVANT","district":"HAVANT","county":"HAMPSHIRE","ppdCategoryType":"Standard","recordStatus":"Addition","latitude":50.872417,"longitude":-0.985412,"postcodeStart":"PO9 5","postcode":["PO9","5EP"]}
{"price":43000,"dateOfTransfer":"1995-03-06T00:00:00","postcodeFull":"PO9 5DP","propertyType":"Semi-detached","oldOrNew":"Established","duration":"Freehold","paon":"411","saon":"","street":"MIDDLE PARK WAY","locality":"","townOrCity":"HAVANT","district":"HAVANT","county":"HAMPSHIRE","ppdCategoryType":"Standard","recordStatus":"Addition","latitude":50.873332,"longitude":-0.986217,"postcodeStart":"PO9 5","postcode":["PO9","5DP"]}
{"price":60000,"dateOfTransfer":"1995-12-06T00:00:00","postcodeFull":"PO9 5TN","propertyType":"Semi-detached","oldOrNew":"New build","duration":"Freehold","paon":"21","saon":"","street":"REDWOOD GROVE","locality":"HAVANT","townOrCity":"HAVANT","district":"HAVANT","county":"HAMPSHIRE","ppdCategoryType":"Standard","recordStatus":"Addition","latitude":50.865704,"longitude":-0.974659,"postcodeStart":"PO9 5","postcode":["PO9","5TN"]}
{"price":59950,"dateOfTransfer":"1995-09-19T00:00:00","postcodeFull":"PO9 5TG","propertyType":"Semi-detached","oldOrNew":"New build","duration":"Freehold","paon":"19","saon":"","street":"DOUGLAS GARDENS","locality":"HAVANT","townOrCity":"HAVANT","district":"HAVANT","county":"HAMPSHIRE","ppdCategoryType":"Standard","recordStatus":"Addition","latitude":50.86563,"longitude":-0.973324,"postcodeStart":"PO9 5","postcode":["PO9","5TG"]}
{"price":63950,"dateOfTransfer":"1995-12-22T00:00:00","postcodeFull":"PO9 5TN","propertyType":"Semi-detached","oldOrNew":"New build","duration":"Freehold","paon":"22","saon":"","street":"REDWOOD GROVE","locality":"HAVANT","townOrCity":"HAVANT","district":"HAVANT","county":"HAMPSHIRE","ppdCategoryType":"Standard","recordStatus":"Addition","latitude":50.865704,"longitude":-0.974659,"postcodeStart":"PO9 5","postcode":["PO9","5TN"]}
{"price":71950,"dateOfTransfer":"1995-10-13T00:00:00","postcodeFull":"PO9 5TG","propertyType":"Detached","oldOrNew":"New build","duration":"Freehold","paon":"7","saon":"","street":"DOUGLAS GARDENS","locality":"HAVANT","townOrCity":"HAVANT","district":"HAVANT","county":"HAMPSHIRE","ppdCategoryType":"Standard","recordStatus":"Addition","latitude":50.86563,"longitude":-0.973324,"postcodeStart":"PO9 5","postcode":["PO9","5TG"]}
{"price":16400,"dateOfTransfer":"1995-02-27T00:00:00","postcodeFull":"PO9 5BT","propertyType":"Terraced","oldOrNew":"New build","duration":"Freehold","paon":"84","saon":"","street":"HIGH LAWN WAY","locality":"HAVANT","townOrCity":"HAVANT","district":"HAVANT","county":"HAMPSHIRE","ppdCategoryType":"Standard","recordStatus":"Addition","latitude":50.870036,"longitude":-0.981513,"postcodeStart":"PO9 5","postcode":["PO9","5BT"]}
{"price":70000,"dateOfTransfer":"1995-12-21T00:00:00","postcodeFull":"PO9 5TN","propertyType":"Detached","oldOrNew":"New build","duration":"Freehold","paon":"3","saon":"","street":"REDWOOD GROVE","locality":"HAVANT","townOrCity":"HAVANT","district":"HAVANT","county":"HAMPSHIRE","ppdCategoryType":"Standard","recordStatus":"Addition","latitude":50.865704,"longitude":-0.974659,"postcodeStart":"PO9 5","postcode":["PO9","5TN"]}
{"price":43500,"dateOfTransfer":"1995-07-28T00:00:00","postcodeFull":"PO9 5JN","propertyType":"Semi-detached","oldOrNew":"Established","duration":"Freehold","paon":"59","saon":"","street":"WAKEFORDS WAY","locality":"HAVANT","townOrCity":"HAVANT","district":"HAVANT","county":"HAMPSHIRE","ppdCategoryType":"Standard","recordStatus":"Addition","latitude":50.874201,"longitude":-0.969341,"postcodeStart":"PO9 5","postcode":["PO9","5JN"]}
{"price":42000,"dateOfTransfer":"1995-05-26T00:00:00","postcodeFull":"PO9 5EJ","propertyType":"Terraced","oldOrNew":"Established","duration":"Freehold","paon":"1","saon":"","street":"SILKSTEAD AVENUE","locality":"HAVANT","townOrCity":"HAVANT","district":"HAVANT","county":"HAMPSHIRE","ppdCategoryType":"Standard","recordStatus":"Addition","latitude":50.873893,"longitude":-0.984527,"postcodeStart":"PO9 5","postcode":["PO9","5EJ"]}
{"price":42500,"dateOfTransfer":"1995-06-16T00:00:00","postcodeFull":"PO9 5EJ","propertyType":"Terraced","oldOrNew":"Established","duration":"Freehold","paon":"10","saon":"","street":"SILKSTEAD AVENUE","locality":"HAVANT","townOrCity":"HAVANT","district":"HAVANT","county":"HAMPSHIRE","ppdCategoryType":"Standard","recordStatus":"Addition","latitude":50.873893,"longitude":-0.984527,"postcodeStart":"PO9 5","postcode":["PO9","5EJ"]}
{"price":59950,"dateOfTransfer":"1995-12-29T00:00:00","postcodeFull":"PO9 5TN","propertyType":"Semi-detached","oldOrNew":"New build","duration":"Freehold","paon":"29","saon":"","street":"REDWOOD GROVE","locality":"HAVANT","townOrCity":"HAVANT","district":"HAVANT","county":"HAMPSHIRE","ppdCategoryType":"Standard","recordStatus":"Addition","latitude":50.865704,"longitude":-0.974659,"postcodeStart":"PO9 5","postcode":["PO9","5TN"]}
{"price":41000,"dateOfTransfer":"1995-02-15T00:00:00","postcodeFull":"PO9 5EE","propertyType":"Semi-detached","oldOrNew":"Established","duration":"Freehold","paon":"12","saon":"","street":"MARCHWOOD ROAD","locality":"HAVANT","townOrCity":"HAVANT","district":"HAVANT","county":"HAMPSHIRE","ppdCategoryType":"Standard","recordStatus":"Addition","latitude":50.874321,"longitude":-0.987247,"postcodeStart":"PO9 5","postcode":["PO9","5EE"]}
{"price":41000,"dateOfTransfer":"1995-02-09T00:00:00","postcodeFull":"PO9 5EH","propertyType":"Semi-detached","oldOrNew":"Established","duration":"Freehold","paon":"40","saon":"","street":"CRONDALL AVENUE","locality":"HAVANT","townOrCity":"HAVANT","district":"HAVANT","county":"HAMPSHIRE","ppdCategoryType":"Standard","recordStatus":"Addition","latitude":50.874149,"longitude":-0.986057,"postcodeStart":"PO9 5","postcode":["PO9","5EH"]}
{"price":53950,"dateOfTransfer":"1995-11-24T00:00:00","postcodeFull":"PO9 5TN","propertyType":"Terraced","oldOrNew":"New build","duration":"Freehold","paon":"4","saon":"","street":"REDWOOD GROVE","locality":"HAVANT","townOrCity":"HAVANT","district":"HAVANT","county":"HAMPSHIRE","ppdCategoryType":"Standard","recordStatus":"Addition","latitude":50.865704,"longitude":-0.974659,"postcodeStart":"PO9 5","postcode":["PO9","5TN"]}
{"price":37000,"dateOfTransfer":"1995-11-30T00:00:00","postcodeFull":"PO9 5EH","propertyType":"Semi-detached","oldOrNew":"Established","duration":"Freehold","paon":"32","saon":"","street":"CRONDALL AVENUE","locality":"HAVANT","townOrCity":"HAVANT","district":"HAVANT","county":"HAMPSHIRE","ppdCategoryType":"Standard","recordStatus":"Addition","latitude":50.874149,"longitude":-0.986057,"postcodeStart":"PO9 5","postcode":["PO9","5EH"]}
{"price":59500,"dateOfTransfer":"1995-03-24T00:00:00","postcodeFull":"PO9 5PW","propertyType":"Semi-detached","oldOrNew":"Established","duration":"Freehold","paon":"89","saon":"","street":"FROXFIELD ROAD","locality":"HAVANT","townOrCity":"HAVANT","district":"HAVANT","county":"HAMPSHIRE","ppdCategoryType":"Standard","recordStatus":"Addition","latitude":50.870927,"longitude":-0.965235,"postcodeStart":"PO9 5","postcode":["PO9","5PW"]}
{"price":59950,"dateOfTransfer":"1995-12-08T00:00:00","postcodeFull":"PO9 5TN","propertyType":"Semi-detached","oldOrNew":"New build","duration":"Freehold","paon":"15","saon":"","street":"REDWOOD GROVE","locality":"HAVANT","townOrCity":"HAVANT","district":"HAVANT","county":"HAMPSHIRE","ppdCategoryType":"Standard","recordStatus":"Addition","latitude":50.865704,"longitude":-0.974659,"postcodeStart":"PO9 5","postcode":["PO9","5TN"]}
{"price":46000,"dateOfTransfer":"1995-08-31T00:00:00","postcodeFull":"PO9 5HJ","propertyType":"Terraced","oldOrNew":"Established","duration":"Freehold","paon":"12","saon":"","street":"BILLY LAWN AVENUE","locality":"HAVANT","townOrCity":"HAVANT","district":"HAVANT","county":"HAMPSHIRE","ppdCategoryType":"Standard","recordStatus":"Addition","latitude":50.868781,"longitude":-0.977888,"postcodeStart":"PO9 5","postcode":["PO9","5HJ"]}
{"price":45000,"dateOfTransfer":"1995-08-29T00:00:00","postcodeFull":"PO9 5BA","propertyType":"Semi-detached","oldOrNew":"Established","duration":"Freehold","paon":"13","saon":"","street":"DUNSBURY WAY","locality":"HAVANT","townOrCity":"HAVANT","district":"HAVANT","county":"HAMPSHIRE","ppdCategoryType":"Standard","recordStatus":"Addition","latitude":50.866855,"longitude":-0.987011,"postcodeStart":"PO9 5","postcode":["PO9","5BA"]}
{"price":47000,"dateOfTransfer":"1995-05-19T00:00:00","postcodeFull":"PO9 5QA","propertyType":"Semi-detached","oldOrNew":"Established","duration":"Freehold","paon":"114","saon":"","street":"WAKEFORDS WAY","locality":"HAVANT","townOrCity":"HAVANT","district":"HAVANT","county":"HAMPSHIRE","ppdCategoryType":"Standard","recordStatus":"Addition","latitude":50.870127,"longitude":-0.964301,"postcodeStart":"PO9 5","postcode":["PO9","5QA"]}
{"price":72950,"dateOfTransfer":"1995-11-10T00:00:00","postcodeFull":"PO9 5TG","propertyType":"Detached","oldOrNew":"New build","duration":"Freehold","paon":"9","saon":"","street":"DOUGLAS GARDENS","locality":"HAVANT","townOrCity":"HAVANT","district":"HAVANT","county":"HAMPSHIRE","ppdCategoryType":"Standard","recordStatus":"Addition","latitude":50.86563,"longitude":-0.973324,"postcodeStart":"PO9 5","postcode":["PO9","5TG"]}
{"price":72950,"dateOfTransfer":"1995-10-27T00:00:00","postcodeFull":"PO9 5TQ","propertyType":"Detached","oldOrNew":"New build","duration":"Freehold","paon":"4","saon":"","street":"MONTEREY DRIVE","locality":"HAVANT","townOrCity":"HAVANT","district":"HAVANT","county":"HAMPSHIRE","ppdCategoryType":"Standard","recordStatus":"Addition","latitude":50.865793,"longitude":-0.972511,"postcodeStart":"PO9 5","postcode":["PO9","5TQ"]}
{"price":46000,"dateOfTransfer":"1995-05-01T00:00:00","postcodeFull":"PO9 5LL","propertyType":"Semi-detached","oldOrNew":"Established","duration":"Freehold","paon":"9","saon":"","street":"WORLDHAM ROAD","locality":"HAVANT","townOrCity":"HAVANT","district":"HAVANT","county":"HAMPSHIRE","ppdCategoryType":"Standard","recordStatus":"Addition","latitude":50.873137,"longitude":-0.966011,"postcodeStart":"PO9 5","postcode":["PO9","5LL"]}
{"price":45800,"dateOfTransfer":"1995-08-21T00:00:00","postcodeFull":"PO9 5PR","propertyType":"Terraced","oldOrNew":"Established","duration":"Freehold","paon":"7","saon":"","street":"BLACKMOOR WALK","locality":"HAVANT","townOrCity":"HAVANT","district":"HAVANT","county":"HAMPSHIRE","ppdCategoryType":"Standard","recordStatus":"Addition","latitude":50.871008,"longitude":-0.966228,"postcodeStart":"PO9 5","postcode":["PO9","5PR"]}
{"price":44750,"dateOfTransfer":"1995-07-28T00:00:00","postcodeFull":"PO9 5EG","propertyType":"Semi-detached","oldOrNew":"Established","duration":"Freehold","paon":"20","saon":"","street":"DANEBURY CLOSE","locality":"HAVANT","townOrCity":"HAVANT","district":"HAVANT","county":"HAMPSHIRE","ppdCategoryType":"Standard","recordStatus":"Addition","latitude":50.874627,"longitude":-0.98724,"postcodeStart":"PO9 5","postcode":["PO9","5EG"]}
{"price":65500,"dateOfTransfer":"1995-05-05T00:00:00","postcodeFull":"PO9 5BY","propertyType":"Semi-detached","oldOrNew":"Established","duration":"Freehold","paon":"24","saon":"","street":"COTSWOLD CLOSE","locality":"HAVANT","townOrCity":"HAVANT","district":"HAVANT","county":"HAMPSHIRE","ppdCategoryType":"Standard","recordStatus":"Addition","latitude":50.872379,"longitude":-0.989321,"postcodeStart":"PO9 5","postcode":["PO9","5BY"]}
{"price":44995,"dateOfTransfer":"1995-08-18T00:00:00","postcodeFull":"PO9 5DZ","propertyType":"Terraced","oldOrNew":"Established","duration":"Freehold","paon":"88","saon":"","street":"WINTERSLOW DRIVE","locality":"HAVANT","townOrCity":"HAVANT","district":"HAVANT","county":"HAMPSHIRE","ppdCategoryType":"Standard","recordStatus":"Addition","latitude":50.875335,"longitude":-0.985889,"postcodeStart":"PO9 5","postcode":["PO9","5DZ"]}
{"price":59950,"dateOfTransfer":"1995-12-15T00:00:00","postcodeFull":"PO9 5TN","propertyType":"Semi-detached","oldOrNew":"New build","duration":"Freehold","paon":"23","saon":"","street":"REDWOOD GROVE","locality":"HAVANT","townOrCity":"HAVANT","district":"HAVANT","county":"HAMPSHIRE","ppdCategoryType":"Standard","recordStatus":"Addition","latitude":50.865704,"longitude":-0.974659,"postcodeStart":"PO9 5","postcode":["PO9","5TN"]}
{"price":45000,"dateOfTransfer":"1995-03-10T00:00:00","postcodeFull":"PO9 5RJ","propertyType":"Terraced","oldOrNew":"Established","duration":"Freehold","paon":"1","saon":"","street":"BURGHCLERE ROAD","locality":"HAVANT","townOrCity":"HAVANT","district":"HAVANT","county":"HAMPSHIRE","ppdCategoryType":"Standard","recordStatus":"Addition","latitude":50.872518,"longitude":-0.968256,"postcodeStart":"PO9 5","postcode":["PO9","5RJ"]}
{"price":55000,"dateOfTransfer":"1995-09-29T00:00:00","postcodeFull":"PO9 5DA","propertyType":"Semi-detached","oldOrNew":"Established","duration":"Freehold","paon":"32","saon":"","street":"GREAT COPSE DRIVE","locality":"HAVANT","townOrCity":"HAVANT","district":"HAVANT","county":"HAMPSHIRE","ppdCategoryType":"Standard","recordStatus":"Addition","latitude":50.871612,"longitude":-0.985927,"postcodeStart":"PO9 5","postcode":["PO9","5DA"]}
{"price":43500,"dateOfTransfer":"1995-08-31T00:00:00","postcodeFull":"PO9 5RB","propertyType":"Terraced","oldOrNew":"Established","duration":"Freehold","paon":"3","saon":"","street":"WOODHAY WALK","locality":"HAVANT","townOrCity":"HAVANT","district":"HAVANT","county":"HAMPSHIRE","ppdCategoryType":"Standard","recordStatus":"Addition","latitude":50.872121,"longitude":-0.968023,"postcodeStart":"PO9 5","postcode":["PO9","5RB"]}
{"price":42000,"dateOfTransfer":"1995-02-28T00:00:00","postcodeFull":"PO9 5EG","propertyType":"Semi-detached","oldOrNew":"Established","duration":"Freehold","paon":"18","saon":"","street":"DANEBURY CLOSE","locality":"HAVANT","townOrCity":"HAVANT","district":"HAVANT","county":"HAMPSHIRE","ppdCategoryType":"Standard","recordStatus":"Addition","latitude":50.874627,"longitude":-0.98724,"postcodeStart":"PO9 5","postcode":["PO9","5EG"]}
{"price":53950,"dateOfTransfer":"1995-12-08T00:00:00","postcodeFull":"PO9 5TN","propertyType":"Terraced","oldOrNew":"New build","duration":"Freehold","paon":"17","saon":"","street":"REDWOOD GROVE","locality":"HAVANT","townOrCity":"HAVANT","district":"HAVANT","county":"HAMPSHIRE","ppdCategoryType":"Standard","recordStatus":"Addition","latitude":50.865704,"longitude":-0.974659,"postcodeStart":"PO9 5","postcode":["PO9","5TN"]}
{"price":48500,"dateOfTransfer":"1995-02-17T00:00:00","postcodeFull":"PO9 5JH","propertyType":"Semi-detached","oldOrNew":"Established","duration":"Freehold","paon":"52","saon":"","street":"CRAWLEY AVENUE","locality":"HAVANT","townOrCity":"HAVANT","district":"HAVANT","county":"HAMPSHIRE","ppdCategoryType":"Standard","recordStatus":"Addition","latitude":50.872267,"longitude":-0.973363,"postcodeStart":"PO9 5","postcode":["PO9","5JH"]}
{"price":55950,"dateOfTransfer":"1995-10-30T00:00:00","postcodeFull":"PO9 5TN","propertyType":"Semi-detached","oldOrNew":"New build","duration":"Freehold","paon":"11","saon":"","street":"REDWOOD GROVE","locality":"HAVANT","townOrCity":"HAVANT","district":"HAVANT","county":"HAMPSHIRE","ppdCategoryType":"Standard","recordStatus":"Addition","latitude":50.865704,"longitude":-0.974659,"postcodeStart":"PO9 5","postcode":["PO9","5TN"]}
{"price":30000,"dateOfTransfer":"1995-05-04T00:00:00","postcodeFull":"PO9 5JW","propertyType":"Flat/Maisonette/Townhouse","oldOrNew":"Established","duration":"Leasehold","paon":"205","saon":"","street":"WAKEFORDS WAY","locality":"HAVANT","townOrCity":"HAVANT","district":"HAVANT","county":"HAMPSHIRE","ppdCategoryType":"Standard","recordStatus":"Addition","latitude":50.872952,"longitude":-0.966413,"postcodeStart":"PO9 5","postcode":["PO9","5JW"]}
{"price":46000,"dateOfTransfer":"1995-02-08T00:00:00","postcodeFull":"PO9 5LE","propertyType":"Semi-detached","oldOrNew":"Established","duration":"Freehold","paon":"50","saon":"","street":"WOODCOT CRESCENT","locality":"HAVANT","townOrCity":"HAVANT","district":"HAVANT","county":"HAMPSHIRE","ppdCategoryType":"Standard","recordStatus":"Addition","latitude":50.871161,"longitude":-0.970389,"postcodeStart":"PO9 5","postcode":["PO9","5LE"]}
{"price":34500,"dateOfTransfer":"1995-09-29T00:00:00","postcodeFull":"PO9 5QD","propertyType":"Flat/Maisonette/Townhouse","oldOrNew":"Established","duration":"Leasehold","paon":"210","saon":"","street":"WAKEFORDS WAY","locality":"HAVANT","townOrCity":"HAVANT","district":"HAVANT","county":"HAMPSHIRE","ppdCategoryType":"Standard","recordStatus":"Addition","latitude":50.86769,"longitude":-0.96633,"postcodeStart":"PO9 5","postcode":["PO9","5QD"]}
{"price":60000,"dateOfTransfer":"1995-11-10T00:00:00","postcodeFull":"PO9 5TN","propertyType":"Terraced","oldOrNew":"New build","duration":"Freehold","paon":"6","saon":"","street":"REDWOOD GROVE","locality":"HAVANT","townOrCity":"HAVANT","district":"HAVANT","county":"HAMPSHIRE","ppdCategoryType":"Standard","recordStatus":"Addition","latitude":50.865704,"longitude":-0.974659,"postcodeStart":"PO9 5","postcode":["PO9","5TN"]}
{"price":53950,"dateOfTransfer":"1995-12-18T00:00:00","postcodeFull":"PO9 5TN","propertyType":"Terraced","oldOrNew":"New build","duration":"Freehold","paon":"14","saon":"","street":"REDWOOD GROVE","locality":"HAVANT","townOrCity":"HAVANT","district":"HAVANT","county":"HAMPSHIRE","ppdCategoryType":"Standard","recordStatus":"Addition","latitude":50.865704,"longitude":-0.974659,"postcodeStart":"PO9 5","postcode":["PO9","5TN"]}
{"price":46000,"dateOfTransfer":"1995-05-05T00:00:00","postcodeFull":"PO9 5SA","propertyType":"Semi-detached","oldOrNew":"Established","duration":"Freehold","paon":"48","saon":"","street":"KNIGHTWOOD AVENUE","locality":"HAVANT","townOrCity":"HAVANT","district":"HAVANT","county":"HAMPSHIRE","ppdCategoryType":"Standard","recordStatus":"Addition","latitude":50.868809,"longitude":-0.974932,"postcodeStart":"PO9 5","postcode":["PO9","5SA"]}
{"price":50500,"dateOfTransfer":"1995-10-20T00:00:00","postcodeFull":"PO9 5HJ","propertyType":"Terraced","oldOrNew":"Established","duration":"Freehold","paon":"2","saon":"","street":"BILLY LAWN AVENUE","locality":"HAVANT","townOrCity":"HAVANT","district":"HAVANT","county":"HAMPSHIRE","ppdCategoryType":"Standard","recordStatus":"Addition","latitude":50.868781,"longitude":-0.977888,"postcodeStart":"PO9 5","postcode":["PO9","5HJ"]}
{"price":54450,"dateOfTransfer":"1995-12-15T00:00:00","postcodeFull":"PO9 5TN","propertyType":"Terraced","oldOrNew":"New build","duration":"Freehold","paon":"25","saon":"","street":"REDWOOD GROVE","locality":"HAVANT","townOrCity":"HAVANT","district":"HAVANT","county":"HAMPSHIRE","ppdCategoryType":"Standard","recordStatus":"Addition","latitude":50.865704,"longitude":-0.974659,"postcodeStart":"PO9 5","postcode":["PO9","5TN"]}
{"price":71950,"dateOfTransfer":"1995-12-21T00:00:00","postcodeFull":"PO9 5TQ","propertyType":"Detached","oldOrNew":"New build","duration":"Freehold","paon":"2","saon":"","street":"MONTEREY DRIVE","locality":"HAVANT","townOrCity":"HAVANT","district":"HAVANT","county":"HAMPSHIRE","ppdCategoryType":"Standard","recordStatus":"Addition","latitude":50.865793,"longitude":-0.972511,"postcodeStart":"PO9 5","postcode":["PO9","5TQ"]}
{"price":48000,"dateOfTransfer":"1995-03-03T00:00:00","postcodeFull":"PO9 5QZ","propertyType":"Semi-detached","oldOrNew":"Established","duration":"Freehold","paon":"20","saon":"","street":"WILDMOOR WALK","locality":"HAVANT","townOrCity":"HAVANT","district":"HAVANT","county":"HAMPSHIRE","ppdCategoryType":"Standard","recordStatus":"Addition","latitude":50.871912,"longitude":-0.965753,"postcodeStart":"PO9 5","postcode":["PO9","5QZ"]}
{"price":47000,"dateOfTransfer":"1995-04-13T00:00:00","postcodeFull":"PO9 5JP","propertyType":"Semi-detached","oldOrNew":"Established","duration":"Freehold","paon":"30","saon":"","street":"WAKEFORDS WAY","locality":"HAVANT","townOrCity":"HAVANT","district":"HAVANT","county":"HAMPSHIRE","ppdCategoryType":"Standard","recordStatus":"Addition","latitude":50.874557,"longitude":-0.971025,"postcodeStart":"PO9 5","postcode":["PO9","5JP"]}
{"price":72950,"dateOfTransfer":"1995-12-21T00:00:00","postcodeFull":"PO9 5TN","propertyType":"Detached","oldOrNew":"Established","duration":"Freehold","paon":"1","saon":"","street":"REDWOOD GROVE","locality":"HAVANT","townOrCity":"HAVANT","district":"HAVANT","county":"HAMPSHIRE","ppdCategoryType":"Standard","recordStatus":"Addition","latitude":50.865704,"longitude":-0.974659,"postcodeStart":"PO9 5","postcode":["PO9","5TN"]}
{"price":32000,"dateOfTransfer":"1995-04-28T00:00:00","postcodeFull":"PO9 5LD","propertyType":"Flat/Maisonette/Townhouse","oldOrNew":"Established","duration":"Leasehold","paon":"17","saon":"","street":"WOODCOT CRESCENT","locality":"HAVANT","townOrCity":"HAVANT","district":"HAVANT","county":"HAMPSHIRE","ppdCategoryType":"Standard","recordStatus":"Addition","latitude":50.871621,"longitude":-0.971573,"postcodeStart":"PO9 5","postcode":["PO9","5LD"]}
{"price":55950,"dateOfTransfer":"1995-09-14T00:00:00","postcodeFull":"PO9 5TG","propertyType":"Terraced","oldOrNew":"New build","duration":"Freehold","paon":"15","saon":"","street":"DOUGLAS GARDENS","locality":"HAVANT","townOrCity":"HAVANT","district":"HAVANT","county":"HAMPSHIRE","ppdCategoryType":"Standard","recordStatus":"Addition","latitude":50.86563,"longitude":-0.973324,"postcodeStart":"PO9 5","postcode":["PO9","5TG"]}
{"price":59950,"dateOfTransfer":"1995-12-08T00:00:00","postcodeFull":"PO9 5TN","propertyType":"Terraced","oldOrNew":"New build","duration":"Freehold","paon":"8","saon":"","street":"REDWOOD GROVE","locality":"HAVANT","townOrCity":"HAVANT","district":"HAVANT","county":"HAMPSHIRE","ppdCategoryType":"Standard","recordStatus":"Addition","latitude":50.865704,"longitude":-0.974659,"postcodeStart":"PO9 5","postcode":["PO9","5TN"]}
{"price":47950,"dateOfTransfer":"1995-08-21T00:00:00","postcodeFull":"PO9 5BS","propertyType":"Terraced","oldOrNew":"Established","duration":"Freehold","paon":"42","saon":"","street":"HIGH LAWN WAY","locality":"HAVANT","townOrCity":"HAVANT","district":"HAVANT","county":"HAMPSHIRE","ppdCategoryType":"Standard","recordStatus":"Addition","latitude":50.869254,"longitude":-0.984713,"postcodeStart":"PO9 5","postcode":["PO9","5BS"]}
{"price":43500,"dateOfTransfer":"1995-12-15T00:00:00","postcodeFull":"PO9 5LS","propertyType":"Terraced","oldOrNew":"Established","duration":"Freehold","paon":"1","saon":"","street":"HEDGE END WALK","locality":"HAVANT","townOrCity":"HAVANT","district":"HAVANT","county":"HAMPSHIRE","ppdCategoryType":"Standard","recordStatus":"Addition","latitude":50.872292,"longitude":-0.964025,"postcodeStart":"PO9 5","postcode":["PO9","5LS"]}
{"price":38000,"dateOfTransfer":"1995-11-08T00:00:00","postcodeFull":"PO9 5SB","propertyType":"Terraced","oldOrNew":"Established","duration":"Freehold","paon":"62","saon":"","street":"KNIGHTWOOD AVENUE","locality":"HAVANT","townOrCity":"HAVANT","district":"HAVANT","county":"HAMPSHIRE","ppdCategoryType":"Standard","recordStatus":"Addition","latitude":50.870422,"longitude":-0.974285,"postcodeStart":"PO9 5","postcode":["PO9","5SB"]}
{"price":59950,"dateOfTransfer":"1995-11-24T00:00:00","postcodeFull":"PO9 5TN","propertyType":"Terraced","oldOrNew":"New build","duration":"Freehold","paon":"16","saon":"","street":"REDWOOD GROVE","locality":"HAVANT","townOrCity":"HAVANT","district":"HAVANT","county":"HAMPSHIRE","ppdCategoryType":"Standard","recordStatus":"Addition","latitude":50.865704,"longitude":-0.974659,"postcodeStart":"PO9 5","postcode":["PO9","5TN"]}
{"price":41000,"dateOfTransfer":"1995-01-23T00:00:00","postcodeFull":"PO9 5DY","propertyType":"Semi-detached","oldOrNew":"Established","duration":"Freehold","paon":"75","saon":"","street":"WINTERSLOW DRIVE","locality":"HAVANT","townOrCity":"HAVANT","district":"HAVANT","county":"HAMPSHIRE","ppdCategoryType":"Standard","recordStatus":"Addition","latitude":50.875393,"longitude":-0.987465,"postcodeStart":"PO9 5","postcode":["PO9","5DY"]}
{"price":43000,"dateOfTransfer":"1995-05-18T00:00:00","postcodeFull":"PO9 5BT","propertyType":"Terraced","oldOrNew":"Established","duration":"Freehold","paon":"145","saon":"","street":"HIGH LAWN WAY","locality":"HAVANT","townOrCity":"HAVANT","district":"HAVANT","county":"HAMPSHIRE","ppdCategoryType":"Standard","recordStatus":"Addition","latitude":50.870036,"longitude":-0.981513,"postcodeStart":"PO9 5","postcode":["PO9","5BT"]}
{"price":59950,"dateOfTransfer":"1995-11-22T00:00:00","postcodeFull":"PO9 5TN","propertyType":"Semi-detached","oldOrNew":"New build","duration":"Freehold","paon":"10","saon":"","street":"REDWOOD GROVE","locality":"HAVANT","townOrCity":"HAVANT","district":"HAVANT","county":"HAMPSHIRE","ppdCategoryType":"Standard","recordStatus":"Addition","latitude":50.865704,"longitude":-0.974659,"postcodeStart":"PO9 5","postcode":["PO9","5TN"]}
{"price":43600,"dateOfTransfer":"1995-03-02T00:00:00","postcodeFull":"PO9 5SN","propertyType":"Terraced","oldOrNew":"Established","duration":"Freehold","paon":"24","saon":"","street":"OAKSHOTT DRIVE","locality":"HAVANT","townOrCity":"HAVANT","district":"HAVANT","county":"HAMPSHIRE","ppdCategoryType":"Standard","recordStatus":"Addition","latitude":50.870668,"longitude":-0.971594,"postcodeStart":"PO9 5","postcode":["PO9","5SN"]}
{"price":48995,"dateOfTransfer":"1995-10-09T00:00:00","postcodeFull":"PO9 5PH","propertyType":"Semi-detached","oldOrNew":"Established","duration":"Freehold","paon":"7","saon":"","street":"FULLERTON CLOSE","locality":"HAVANT","townOrCity":"HAVANT","district":"HAVANT","county":"HAMPSHIRE","ppdCategoryType":"Standard","recordStatus":"Addition","latitude":50.871255,"longitude":-0.967729,"postcodeStart":"PO9 5","postcode":["PO9","5PH"]}
{"price":41000,"dateOfTransfer":"1995-10-06T00:00:00","postcodeFull":"PO9 5LH","propertyType":"Terraced","oldOrNew":"Established","duration":"Freehold","paon":"15","saon":"","street":"LECKFORD ROAD","locality":"HAVANT","townOrCity":"HAVANT","district":"HAVANT","county":"HAMPSHIRE","ppdCategoryType":"Standard","recordStatus":"Addition","latitude":50.872515,"longitude":-0.97097,"postcodeStart":"PO9 5","postcode":["PO9","5LH"]}
{"price":55950,"dateOfTransfer":"1995-11-30T00:00:00","postcodeFull":"PO9 5TN","propertyType":"Semi-detached","oldOrNew":"New build","duration":"Freehold","paon":"18","saon":"","street":"REDWOOD GROVE","locality":"HAVANT","townOrCity":"HAVANT","district":"HAVANT","county":"HAMPSHIRE","ppdCategoryType":"Standard","recordStatus":"Addition","latitude":50.865704,"longitude":-0.974659,"postcodeStart":"PO9 5","postcode":["PO9","5TN"]}
{"price":53950,"dateOfTransfer":"1995-12-08T00:00:00","postcodeFull":"PO9 5TN","propertyType":"Terraced","oldOrNew":"Established","duration":"Freehold","paon":"19","saon":"","street":"REDWOOD GROVE","locality":"HAVANT","townOrCity":"HAVANT","district":"HAVANT","county":"HAMPSHIRE","ppdCategoryType":"Standard","recordStatus":"Addition","latitude":50.865704,"longitude":-0.974659,"postcodeStart":"PO9 5","postcode":["PO9","5TN"]}
{"price":44000,"dateOfTransfer":"1995-08-11T00:00:00","postcodeFull":"PO9 5EB","propertyType":"Terraced","oldOrNew":"Established","duration":"Freehold","paon":"177","saon":"","street":"WINTERSLOW DRIVE","locality":"HAVANT","townOrCity":"HAVANT","district":"HAVANT","county":"HAMPSHIRE","ppdCategoryType":"Standard","recordStatus":"Addition","latitude":50.874104,"longitude":-0.983954,"postcodeStart":"PO9 5","postcode":["PO9","5EB"]}
{"price":63950,"dateOfTransfer":"1995-01-11T00:00:00","postcodeFull":"PO9 5BY","propertyType":"Semi-detached","oldOrNew":"Established","duration":"Freehold","paon":"18","saon":"","street":"COTSWOLD CLOSE","locality":"HAVANT","townOrCity":"HAVANT","district":"HAVANT","county":"HAMPSHIRE","ppdCategoryType":"Standard","recordStatus":"Addition","latitude":50.872379,"longitude":-0.989321,"postcodeStart":"PO9 5","postcode":["PO9","5BY"]}
{"price":63950,"dateOfTransfer":"1995-12-19T00:00:00","postcodeFull":"PO9 5TN","propertyType":"Semi-detached","oldOrNew":"New build","duration":"Freehold","paon":"5","saon":"","street":"REDWOOD GROVE","locality":"HAVANT","townOrCity":"HAVANT","district":"HAVANT","county":"HAMPSHIRE","ppdCategoryType":"Standard","recordStatus":"Addition","latitude":50.865704,"longitude":-0.974659,"postcodeStart":"PO9 5","postcode":["PO9","5TN"]}
{"price":45000,"dateOfTransfer":"1995-08-31T00:00:00","postcodeFull":"PO9 5JY","propertyType":"Terraced","oldOrNew":"Established","duration":"Freehold","paon":"14","saon":"","street":"MALWOOD CLOSE","locality":"HAVANT","townOrCity":"HAVANT","district":"HAVANT","county":"HAMPSHIRE","ppdCategoryType":"Standard","recordStatus":"Addition","latitude":50.873938,"longitude":-0.971138,"postcodeStart":"PO9 5","postcode":["PO9","5JY"]}
{"price":37500,"dateOfTransfer":"1995-08-30T00:00:00","postcodeFull":"PO9 5HQ","propertyType":"Semi-detached","oldOrNew":"Established","duration":"Freehold","paon":"10","saon":"","street":"STOCKHEATH ROAD","locality":"HAVANT","townOrCity":"HAVANT","district":"HAVANT","county":"HAMPSHIRE","ppdCategoryType":"Standard","recordStatus":"Addition","latitude":50.866683,"longitude":-0.980648,"postcodeStart":"PO9 5","postcode":["PO9","5HQ"]}
{"price":44500,"dateOfTransfer":"1995-04-28T00:00:00","postcodeFull":"PO9 5ER","propertyType":"Terraced","oldOrNew":"Established","duration":"Freehold","paon":"72","saon":"","street":"BONDFIELDS CRESCENT","locality":"HAVANT","townOrCity":"HAVANT","district":"HAVANT","county":"HAMPSHIRE","ppdCategoryType":"Standard","recordStatus":"Addition","latitude":50.872362,"longitude":-0.983223,"postcodeStart":"PO9 5","postcode":["PO9","5ER"]}
{"price":53950,"dateOfTransfer":"1995-11-01T00:00:00","postcodeFull":"PO9 5TG","propertyType":"Terraced","oldOrNew":"New build","duration":"Freehold","paon":"17","saon":"","street":"DOUGLAS GARDENS","locality":"HAVANT","townOrCity":"HAVANT","district":"HAVANT","county":"HAMPSHIRE","ppdCategoryType":"Standard","recordStatus":"Addition","latitude":50.86563,"longitude":-0.973324,"postcodeStart":"PO9 5","postcode":["PO9","5TG"]}
{"price":71000,"dateOfTransfer":"1995-09-29T00:00:00","postcodeFull":"PO9 5TG","propertyType":"Detached","oldOrNew":"New build","duration":"Freehold","paon":"3","saon":"","street":"DOUGLAS GARDENS","locality":"HAVANT","townOrCity":"HAVANT","district":"HAVANT","county":"HAMPSHIRE","ppdCategoryType":"Standard","recordStatus":"Addition","latitude":50.86563,"longitude":-0.973324,"postcodeStart":"PO9 5","postcode":["PO9","5TG"]}
{"price":53950,"dateOfTransfer":"1995-11-24T00:00:00","postcodeFull":"PO9 5TN","propertyType":"Terraced","oldOrNew":"New build","duration":"Freehold","paon":"12","saon":"","street":"REDWOOD GROVE","locality":"HAVANT","townOrCity":"HAVANT","district":"HAVANT","county":"HAMPSHIRE","ppdCategoryType":"Standard","recordStatus":"Addition","latitude":50.865704,"longitude":-0.974659,"postcodeStart":"PO9 5","postcode":["PO9","5TN"]}
{"price":60000,"dateOfTransfer":"1995-09-05T00:00:00","postcodeFull":"PO9 5TG","propertyType":"Semi-detached","oldOrNew":"New build","duration":"Freehold","paon":"11","saon":"","street":"DOUGLAS GARDENS","locality":"HAVANT","townOrCity":"HAVANT","district":"HAVANT","county":"HAMPSHIRE","ppdCategoryType":"Standard","recordStatus":"Addition","latitude":50.86563,"longitude":-0.973324,"postcodeStart":"PO9 5","postcode":["PO9","5TG"]}
{"price":51000,"dateOfTransfer":"1995-11-13T00:00:00","postcodeFull":"PO9 5HT","propertyType":"Terraced","oldOrNew":"Established","duration":"Freehold","paon":"18","saon":"","street":"SHERFIELD AVENUE","locality":"HAVANT","townOrCity":"HAVANT","district":"HAVANT","county":"HAMPSHIRE","ppdCategoryType":"Standard","recordStatus":"Addition","latitude":50.870493,"longitude":-0.97623,"postcodeStart":"PO9 5","postcode":["PO9","5HT"]}
{"price":63950,"dateOfTransfer":"1995-10-20T00:00:00","postcodeFull":"PO9 5TN","propertyType":"Semi-detached","oldOrNew":"New build","duration":"Freehold","paon":"7","saon":"","street":"REDWOOD GROVE","locality":"HAVANT","townOrCity":"HAVANT","district":"HAVANT","county":"HAMPSHIRE","ppdCategoryType":"Standard","recordStatus":"Addition","latitude":50.865704,"longitude":-0.974659,"postcodeStart":"PO9 5","postcode":["PO9","5TN"]}
{"price":43995,"dateOfTransfer":"1995-09-29T00:00:00","postcodeFull":"PO9 5EE","propertyType":"Terraced","oldOrNew":"Established","duration":"Freehold","paon":"10","saon":"","street":"MARCHWOOD ROAD","locality":"HAVANT","townOrCity":"HAVANT","district":"HAVANT","county":"HAMPSHIRE","ppdCategoryType":"Standard","recordStatus":"Addition","latitude":50.874321,"longitude":-0.987247,"postcodeStart":"PO9 5","postcode":["PO9","5EE"]}
{"price":65800,"dateOfTransfer":"1996-03-25T00:00:00","postcodeFull":"PO9 5NH","propertyType":"Semi-detached","oldOrNew":"Established","duration":"Freehold","paon":"53","saon":"","street":"PROSPECT LANE","locality":"HAVANT","townOrCity":"HAVANT","district":"HAVANT","county":"HAMPSHIRE","ppdCategoryType":"Standard","recordStatus":"Addition","latitude":50.874177,"longitude":-0.967736,"postcodeStart":"PO9 5","postcode":["PO9","5NH"]}
{"price":47500,"dateOfTransfer":"1996-05-31T00:00:00","postcodeFull":"PO9 5QB","propertyType":"Semi-detached","oldOrNew":"Established","duration":"Freehold","paon":"174","saon":"","street":"WAKEFORDS WAY","locality":"HAVANT","townOrCity":"HAVANT","district":"HAVANT","county":"HAMPSHIRE","ppdCategoryType":"Standard","recordStatus":"Addition","latitude":50.86883,"longitude":-0.965068,"postcodeStart":"PO9 5","postcode":["PO9","5QB"]}
{"price":53152,"dateOfTransfer":"1996-06-14T00:00:00","postcodeFull":"PO9 5TW","propertyType":"Terraced","oldOrNew":"New build","duration":"Freehold","paon":"16","saon":"","street":"FABER CLOSE","locality":"HAVANT","townOrCity":"HAVANT","district":"HAVANT","county":"HAMPSHIRE","ppdCategoryType":"Standard","recordStatus":"Addition","latitude":50.865197,"longitude":-0.974229,"postcodeStart":"PO9 5","postcode":["PO9","5TW"]}
{"price":70950,"dateOfTransfer":"1996-12-16T00:00:00","postcodeFull":"PO9 5TQ","propertyType":"Semi-detached","oldOrNew":"New build","duration":"Freehold","paon":"51","saon":"","street":"MONTEREY DRIVE","locality":"HAVANT","townOrCity":"HAVANT","district":"HAVANT","county":"HAMPSHIRE","ppdCategoryType":"Standard","recordStatus":"Addition","latitude":50.865793,"longitude":-0.972511,"postcodeStart":"PO9 5","postcode":["PO9","5TQ"]}
{"price":21000,"dateOfTransfer":"1996-06-24T00:00:00","postcodeFull":"PO9 5EP","propertyType":"Terraced","oldOrNew":"Established","duration":"Freehold","paon":"4","saon":"","street":"BONDFIELDS CRESCENT","locality":"HAVANT","townOrCity":"HAVANT","district":"HAVANT","county":"HAMPSHIRE","ppdCategoryType":"Standard","recordStatus":"Addition","latitude":50.872417,"longitude":-0.985412,"postcodeStart":"PO9 5","postcode":["PO9","5EP"]}
{"price":59502,"dateOfTransfer":"1996-03-28T00:00:00","postcodeFull":"PO9 5TG","propertyType":"Terraced","oldOrNew":"New build","duration":"Freehold","paon":"10","saon":"","street":"DOUGLAS GARDENS","locality":"HAVANT","townOrCity":"HAVANT","district":"HAVANT","county":"HAMPSHIRE","ppdCategoryType":"Standard","recordStatus":"Addition","latitude":50.86563,"longitude":-0.973324,"postcodeStart":"PO9 5","postcode":["PO9","5TG"]}
{"price":36000,"dateOfTransfer":"1996-02-29T00:00:00","postcodeFull":"PO9 5QD","propertyType":"Flat/Maisonette/Townhouse","oldOrNew":"Established","duration":"Leasehold","paon":"206","saon":"","street":"WAKEFORDS WAY","locality":"HAVANT","townOrCity":"HAVANT","district":"HAVANT","county":"HAMPSHIRE","ppdCategoryType":"Standard","recordStatus":"Addition","latitude":50.86769,"longitude":-0.96633,"postcodeStart":"PO9 5","postcode":["PO9","5QD"]}
{"price":47995,"dateOfTransfer":"1996-05-24T00:00:00","postcodeFull":"PO9 5BT","propertyType":"Terraced","oldOrNew":"Established","duration":"Freehold","paon":"147","saon":"","street":"HIGH LAWN WAY","locality":"HAVANT","townOrCity":"HAVANT","district":"HAVANT","county":"HAMPSHIRE","ppdCategoryType":"Standard","recordStatus":"Addition","latitude":50.870036,"longitude":-0.981513,"postcodeStart":"PO9 5","postcode":["PO9","5BT"]}
{"price":41000,"dateOfTransfer":"1996-09-27T00:00:00","postcodeFull":"PO9 5HJ","propertyType":"Semi-detached","oldOrNew":"Established","duration":"Freehold","paon":"36","saon":"","street":"BILLY LAWN AVENUE","locality":"HAVANT","townOrCity":"HAVANT","district":"HAVANT","county":"HAMPSHIRE","ppdCategoryType":"Standard","recordStatus":"Addition","latitude":50.868781,"longitude":-0.977888,"postcodeStart":"PO9 5","postcode":["PO9","5HJ"]}
{"price":25000,"dateOfTransfer":"1996-06-21T00:00:00","postcodeFull":"PO9 5BJ","propertyType":"Terraced","oldOrNew":"Established","duration":"Freehold","paon":"452","saon":"","street":"DUNSBURY WAY","locality":"HAVANT","townOrCity":"HAVANT","district":"HAVANT","county":"HAMPSHIRE","ppdCategoryType":"Standard","recordStatus":"Addition","latitude":50.870816,"longitude":-0.989554,"postcodeStart":"PO9 5","postcode":["PO9","5BJ"]}
{"price":46500,"dateOfTransfer":"1996-11-12T00:00:00","postcodeFull":"PO9 5SJ","propertyType":"Terraced","oldOrNew":"Established","duration":"Freehold","paon":"51","saon":"","street":"FORESTSIDE AVENUE","locality":"HAVANT","townOrCity":"HAVANT","district":"HAVANT","county":"HAMPSHIRE","ppdCategoryType":"Standard","recordStatus":"Addition","latitude":50.870402,"longitude":-0.973021,"postcodeStart":"PO9 5","postcode":["PO9","5SJ"]}
{"price":62950,"dateOfTransfer":"1996-06-28T00:00:00","postcodeFull":"PO9 5TW","propertyType":"Terraced","oldOrNew":"New build","duration":"Freehold","paon":"8","saon":"","street":"FABER CLOSE","locality":"HAVANT","townOrCity":"HAVANT","district":"HAVANT","county":"HAMPSHIRE","ppdCategoryType":"Standard","recordStatus":"Addition","latitude":50.865197,"longitude":-0.974229,"postcodeStart":"PO9 5","postcode":["PO9","5TW"]}
{"price":60000,"dateOfTransfer":"1996-02-29T00:00:00","postcodeFull":"PO9 5TG","propertyType":"Terraced","oldOrNew":"New build","duration":"Freehold","paon":"20","saon":"","street":"DOUGLAS GARDENS","locality":"HAVANT","townOrCity":"HAVANT","district":"HAVANT","county":"HAMPSHIRE","ppdCategoryType":"Standard","recordStatus":"Addition","latitude":50.86563,"longitude":-0.973324,"postcodeStart":"PO9 5","postcode":["PO9","5TG"]}
{"price":48800,"dateOfTransfer":"1996-05-31T00:00:00","postcodeFull":"PO9 5EJ","propertyType":"Terraced","oldOrNew":"Established","duration":"Freehold","paon":"18","saon":"","street":"SILKSTEAD AVENUE","locality":"HAVANT","townOrCity":"HAVANT","district":"HAVANT","county":"HAMPSHIRE","ppdCategoryType":"Standard","recordStatus":"Addition","latitude":50.873893,"longitude":-0.984527,"postcodeStart":"PO9 5","postcode":["PO9","5EJ"]}
{"price":55950,"dateOfTransfer":"1996-11-28T00:00:00","postcodeFull":"PO9 5TQ","propertyType":"Terraced","oldOrNew":"New build","duration":"Freehold","paon":"23","saon":"","street":"MONTEREY DRIVE","locality":"HAVANT","townOrCity":"HAVANT","district":"HAVANT","county":"HAMPSHIRE","ppdCategoryType":"Standard","recordStatus":"Addition","latitude":50.865793,"longitude":-0.972511,"postcodeStart":"PO9 5","postcode":["PO9","5TQ"]}
{"price":59802,"dateOfTransfer":"1996-10-18T00:00:00","postcodeFull":"PO9 5TN","propertyType":"Semi-detached","oldOrNew":"New build","duration":"Freehold","paon":"32","saon":"","street":"REDWOOD GROVE","locality":"HAVANT","townOrCity":"HAVANT","district":"HAVANT","county":"HAMPSHIRE","ppdCategoryType":"Standard","recordStatus":"Addition","latitude":50.865704,"longitude":-0.974659,"postcodeStart":"PO9 5","postcode":["PO9","5TN"]}
{"price":41000,"dateOfTransfer":"1996-01-22T00:00:00","postcodeFull":"PO9 5EP","propertyType":"Terraced","oldOrNew":"Established","duration":"Freehold","paon":"40","saon":"","street":"BONDFIELDS CRESCENT","locality":"HAVANT","townOrCity":"HAVANT","district":"HAVANT","county":"HAMPSHIRE","ppdCategoryType":"Standard","recordStatus":"Addition","latitude":50.872417,"longitude":-0.985412,"postcodeStart":"PO9 5","postcode":["PO9","5EP"]}
{"price":36000,"dateOfTransfer":"1996-06-21T00:00:00","postcodeFull":"PO9 5DX","propertyType":"Semi-detached","oldOrNew":"Established","duration":"Freehold","paon":"41","saon":"","street":"WINTERSLOW DRIVE","locality":"HAVANT","townOrCity":"HAVANT","district":"HAVANT","county":"HAMPSHIRE","ppdCategoryType":"Standard","recordStatus":"Addition","latitude":50.874406,"longitude":-0.989121,"postcodeStart":"PO9 5","postcode":["PO9","5DX"]}
{"price":44500,"dateOfTransfer":"1996-01-18T00:00:00","postcodeFull":"PO9 5RH","propertyType":"Terraced","oldOrNew":"Established","duration":"Freehold","paon":"9","saon":"","street":"TIPTOE GREEN","locality":"HAVANT","townOrCity":"HAVANT","district":"HAVANT","county":"HAMPSHIRE","ppdCategoryType":"Standard","recordStatus":"Addition","latitude":50.872545,"longitude":-0.967232,"postcodeStart":"PO9 5","postcode":["PO9","5RH"]}
{"price":70950,"dateOfTransfer":"1996-12-13T00:00:00","postcodeFull":"PO9 5TQ","propertyType":"Semi-detached","oldOrNew":"New build","duration":"Freehold","paon":"49","saon":"","street":"MONTEREY DRIVE","locality":"HAVANT","townOrCity":"HAVANT","district":"HAVANT","county":"HAMPSHIRE","ppdCategoryType":"Standard","recordStatus":"Addition","latitude":50.865793,"longitude":-0.972511,"postcodeStart":"PO9 5","postcode":["PO9","5TQ"]}
{"price":62950,"dateOfTransfer":"1996-10-04T00:00:00","postcodeFull":"PO9 5TN","propertyType":"Semi-detached","oldOrNew":"New build","duration":"Freehold","paon":"34","saon":"","street":"REDWOOD GROVE","locality":"HAVANT","townOrCity":"HAVANT","district":"HAVANT","county":"HAMPSHIRE","ppdCategoryType":"Standard","recordStatus":"Addition","latitude":50.865704,"longitude":-0.974659,"postcodeStart":"PO9 5","postcode":["PO9","5TN"]}
{"price":65950,"dateOfTransfer":"1996-10-25T00:00:00","postcodeFull":"PO9 5TQ","propertyType":"Semi-detached","oldOrNew":"New build","duration":"Freehold","paon":"11A","saon":"","street":"MONTEREY DRIVE","locality":"HAVANT","townOrCity":"HAVANT","district":"HAVANT","county":"HAMPSHIRE","ppdCategoryType":"Standard","recordStatus":"Addition","latitude":50.865793,"longitude":-0.972511,"postcodeStart":"PO9 5","postcode":["PO9","5TQ"]}
{"price":40000,"dateOfTransfer":"1996-05-10T00:00:00","postcodeFull":"PO9 5DX","propertyType":"Terraced","oldOrNew":"Established","duration":"Freehold","paon":"11","saon":"","street":"WINTERSLOW DRIVE","locality":"HAVANT","townOrCity":"HAVANT","district":"HAVANT","county":"HAMPSHIRE","ppdCategoryType":"Standard","recordStatus":"Addition","latitude":50.874406,"longitude":-0.989121,"postcodeStart":"PO9 5","postcode":["PO9","5DX"]}
{"price":48500,"dateOfTransfer":"1996-12-19T00:00:00","postcodeFull":"PO9 5LR","propertyType":"Terraced","oldOrNew":"Established","duration":"Freehold","paon":"6","saon":"","street":"ITCHEN ROAD","locality":"HAVANT","townOrCity":"HAVANT","district":"HAVANT","county":"HAMPSHIRE","ppdCategoryType":"Standard","recordStatus":"Addition","latitude":50.872386,"longitude":-0.964507,"postcodeStart":"PO9 5","postcode":["PO9","5LR"]}
{"price":59802,"dateOfTransfer":"1996-06-28T00:00:00","postcodeFull":"PO9 5TW","propertyType":"Semi-detached","oldOrNew":"New build","duration":"Freehold","paon":"12","saon":"","street":"FABER CLOSE","locality":"HAVANT","townOrCity":"HAVANT","district":"HAVANT","county":"HAMPSHIRE","ppdCategoryType":"Standard","recordStatus":"Addition","latitude":50.865197,"longitude":-0.974229,"postcodeStart":"PO9 5","postcode":["PO9","5TW"]}
{"price":55950,"dateOfTransfer":"1996-06-21T00:00:00","postcodeFull":"PO9 5TN","propertyType":"Terraced","oldOrNew":"New build","duration":"Freehold","paon":"33","saon":"","street":"REDWOOD GROVE","locality":"HAVANT","townOrCity":"HAVANT","district":"HAVANT","county":"HAMPSHIRE","ppdCategoryType":"Standard","recordStatus":"Addition","latitude":50.865704,"longitude":-0.974659,"postcodeStart":"PO9 5","postcode":["PO9","5TN"]}
{"price":50000,"dateOfTransfer":"1996-09-27T00:00:00","postcodeFull":"PO9 5QH","propertyType":"Semi-detached","oldOrNew":"Established","duration":"Freehold","paon":"20","saon":"","street":"SHARPS ROAD","locality":"HAVANT","townOrCity":"HAVANT","district":"HAVANT","county":"HAMPSHIRE","ppdCategoryType":"Standard","recordStatus":"Addition","latitude":50.868583,"longitude":-0.968698,"postcodeStart":"PO9 5","postcode":["PO9","5QH"]}
{"price":55950,"dateOfTransfer":"1996-08-23T00:00:00","postcodeFull":"PO9 5TN","propertyType":"Terraced","oldOrNew":"New build","duration":"Freehold","paon":"46","saon":"","street":"REDWOOD GROVE","locality":"HAVANT","townOrCity":"HAVANT","district":"HAVANT","county":"HAMPSHIRE","ppdCategoryType":"Standard","recordStatus":"Addition","latitude":50.865704,"longitude":-0.974659,"postcodeStart":"PO9 5","postcode":["PO9","5TN"]}
{"price":45500,"dateOfTransfer":"1996-09-20T00:00:00","postcodeFull":"PO9 5BT","propertyType":"Semi-detached","oldOrNew":"Established","duration":"Freehold","paon":"123","saon":"","street":"HIGH LAWN WAY","locality":"HAVANT","townOrCity":"HAVANT","district":"HAVANT","county":"HAMPSHIRE","ppdCategoryType":"Standard","recordStatus":"Addition","latitude":50.870036,"longitude":-0.981513,"postcodeStart":"PO9 5","postcode":["PO9","5BT"]}
{"price":46000,"dateOfTransfer":"1996-12-04T00:00:00","postcodeFull":"PO9 5QY","propertyType":"Semi-detached","oldOrNew":"Established","duration":"Freehold","paon":"11","saon":"","street":"WILDMOOR WALK","locality":"HAVANT","townOrCity":"HAVANT","district":"HAVANT","county":"HAMPSHIRE","ppdCategoryType":"Standard","recordStatus":"Addition","latitude":50.871089,"longitude":-0.967292,"postcodeStart":"PO9 5","postcode":["PO9","5QY"]}
{"price":41000,"dateOfTransfer":"1996-11-08T00:00:00","postcodeFull":"PO9 5AY","propertyType":"Semi-detached","oldOrNew":"Established","duration":"Freehold","paon":"40","saon":"","street":"ELLISFIELD ROAD","locality":"HAVANT","townOrCity":"HAVANT","district":"HAVANT","county":"HAMPSHIRE","ppdCategoryType":"Standard","recordStatus":"Addition","latitude":50.8666,"longitude":-0.988722,"postcodeStart":"PO9 5","postcode":["PO9","5AY"]}
{"price":43700,"dateOfTransfer":"1996-10-28T00:00:00","postcodeFull":"PO9 5ER","propertyType":"Semi-detached","oldOrNew":"Established","duration":"Freehold","paon":"82","saon":"","street":"BONDFIELDS CRESCENT","locality":"HAVANT","townOrCity":"HAVANT","district":"HAVANT","county":"HAMPSHIRE","ppdCategoryType":"Standard","recordStatus":"Addition","latitude":50.872362,"longitude":-0.983223,"postcodeStart":"PO9 5","postcode":["PO9","5ER"]}
{"price":61950,"dateOfTransfer":"1996-10-04T00:00:00","postcodeFull":"PO9 5TN","propertyType":"Semi-detached","oldOrNew":"New build","duration":"Freehold","paon":"37","saon":"","street":"REDWOOD GROVE","locality":"HAVANT","townOrCity":"HAVANT","district":"HAVANT","county":"HAMPSHIRE","ppdCategoryType":"Standard","recordStatus":"Addition","latitude":50.865704,"longitude":-0.974659,"postcodeStart":"PO9 5","postcode":["PO9","5TN"]}
{"price":64950,"dateOfTransfer":"1996-04-24T00:00:00","postcodeFull":"PO9 5BY","propertyType":"Semi-detached","oldOrNew":"Established","duration":"Freehold","paon":"11","saon":"","street":"COTSWOLD CLOSE","locality":"HAVANT","townOrCity":"HAVANT","district":"HAVANT","county":"HAMPSHIRE","ppdCategoryType":"Standard","recordStatus":"Addition","latitude":50.872379,"longitude":-0.989321,"postcodeStart":"PO9 5","postcode":["PO9","5BY"]}
{"price":56000,"dateOfTransfer":"1996-12-06T00:00:00","postcodeFull":"PO9 5TN","propertyType":"Semi-detached","oldOrNew":"Established","duration":"Freehold","paon":"18","saon":"","street":"REDWOOD GROVE","locality":"HAVANT","townOrCity":"HAVANT","district":"HAVANT","county":"HAMPSHIRE","ppdCategoryType":"Standard","recordStatus":"Addition","latitude":50.865704,"longitude":-0.974659,"postcodeStart":"PO9 5","postcode":["PO9","5TN"]}
{"price":62950,"dateOfTransfer":"1996-06-21T00:00:00","postcodeFull":"PO9 5TN","propertyType":"Terraced","oldOrNew":"New build","duration":"Freehold","paon":"31","saon":"","street":"REDWOOD GROVE","locality":"HAVANT","townOrCity":"HAVANT","district":"HAVANT","county":"HAMPSHIRE","ppdCategoryType":"Standard","recordStatus":"Addition","latitude":50.865704,"longitude":-0.974659,"postcodeStart":"PO9 5","postcode":["PO9","5TN"]}
{"price":62950,"dateOfTransfer":"1996-03-06T00:00:00","postcodeFull":"PO9 5TN","propertyType":"Terraced","oldOrNew":"New build","duration":"Freehold","paon":"2","saon":"","street":"REDWOOD GROVE","locality":"HAVANT","townOrCity":"HAVANT","district":"HAVANT","county":"HAMPSHIRE","ppdCategoryType":"Standard","recordStatus":"Addition","latitude":50.865704,"longitude":-0.974659,"postcodeStart":"PO9 5","postcode":["PO9","5TN"]}
{"price":29000,"dateOfTransfer":"1996-12-18T00:00:00","postcodeFull":"PO9 5JU","propertyType":"Semi-detached","oldOrNew":"Established","duration":"Freehold","paon":"51","saon":"","street":"MILLBROOK DRIVE","locality":"HAVANT","townOrCity":"HAVANT","district":"HAVANT","county":"HAMPSHIRE","ppdCategoryType":"Standard","recordStatus":"Addition","latitude":50.872805,"longitude":-0.971191,"postcodeStart":"PO9 5","postcode":["PO9","5JU"]}
{"price":46500,"dateOfTransfer":"1996-07-18T00:00:00","postcodeFull":"PO9 5BP","propertyType":"Terraced","oldOrNew":"Established","duration":"Freehold","paon":"28","saon":"","street":"HIGH LAWN WAY","locality":"HAVANT","townOrCity":"HAVANT","district":"HAVANT","county":"HAMPSHIRE","ppdCategoryType":"Standard","recordStatus":"Addition","latitude":50.868424,"longitude":-0.986422,"postcodeStart":"PO9 5","postcode":["PO9","5BP"]}
{"price":63950,"dateOfTransfer":"1996-06-12T00:00:00","postcodeFull":"PO9 5TW","propertyType":"Semi-detached","oldOrNew":"New build","duration":"Freehold","paon":"17","saon":"","street":"FABER CLOSE","locality":"HAVANT","townOrCity":"HAVANT","district":"HAVANT","county":"HAMPSHIRE","ppdCategoryType":"Standard","recordStatus":"Addition","latitude":50.865197,"longitude":-0.974229,"postcodeStart":"PO9 5","postcode":["PO9","5TW"]}
{"price":56950,"dateOfTransfer":"1996-09-27T00:00:00","postcodeFull":"PO9 5TN","propertyType":"Terraced","oldOrNew":"New build","duration":"Freehold","paon":"28","saon":"","street":"REDWOOD GROVE","locality":"HAVANT","townOrCity":"HAVANT","district":"HAVANT","county":"HAMPSHIRE","ppdCategoryType":"Standard","recordStatus":"Addition","latitude":50.865704,"longitude":-0.974659,"postcodeStart":"PO9 5","postcode":["PO9","5TN"]}
{"price":55950,"dateOfTransfer":"1996-06-28T00:00:00","postcodeFull":"PO9 5TN","propertyType":"Terraced","oldOrNew":"New build","duration":"Freehold","paon":"35","saon":"","street":"REDWOOD GROVE","locality":"HAVANT","townOrCity":"HAVANT","district":"HAVANT","county":"HAMPSHIRE","ppdCategoryType":"Standard","recordStatus":"Addition","latitude":50.865704,"longitude":-0.974659,"postcodeStart":"PO9 5","postcode":["PO9","5TN"]}
{"price":42500,"dateOfTransfer":"1996-02-23T00:00:00","postcodeFull":"PO9 5EE","propertyType":"Terraced","oldOrNew":"Established","duration":"Freehold","paon":"4","saon":"","street":"MARCHWOOD ROAD","locality":"HAVANT","townOrCity":"HAVANT","district":"HAVANT","county":"HAMPSHIRE","ppdCategoryType":"Standard","recordStatus":"Addition","latitude":50.874321,"longitude":-0.987247,"postcodeStart":"PO9 5","postcode":["PO9","5EE"]}
{"price":66600,"dateOfTransfer":"1996-08-09T00:00:00","postcodeFull":"PO9 5HE","propertyType":"Semi-detached","oldOrNew":"Established","duration":"Freehold","paon":"21","saon":"","street":"STOCKHEATH ROAD","locality":"HAVANT","townOrCity":"HAVANT","district":"HAVANT","county":"HAMPSHIRE","ppdCategoryType":"Standard","recordStatus":"Addition","latitude":50.865779,"longitude":-0.982132,"postcodeStart":"PO9 5","postcode":["PO9","5HE"]}
{"price":45000,"dateOfTransfer":"1996-04-29T00:00:00","postcodeFull":"PO9 5HQ","propertyType":"Terraced","oldOrNew":"Established","duration":"Freehold","paon":"46","saon":"","street":"STOCKHEATH ROAD","locality":"HAVANT","townOrCity":"HAVANT","district":"HAVANT","county":"HAMPSHIRE","ppdCategoryType":"Standard","recordStatus":"Addition","latitude":50.866683,"longitude":-0.980648,"postcodeStart":"PO9 5","postcode":["PO9","5HQ"]}
{"price":47950,"dateOfTransfer":"1996-06-20T00:00:00","postcodeFull":"PO9 5SA","propertyType":"Semi-detached","oldOrNew":"Established","duration":"Freehold","paon":"28","saon":"","street":"KNIGHTWOOD AVENUE","locality":"HAVANT","townOrCity":"HAVANT","district":"HAVANT","county":"HAMPSHIRE","ppdCategoryType":"Standard","recordStatus":"Addition","latitude":50.868809,"longitude":-0.974932,"postcodeStart":"PO9 5","postcode":["PO9","5SA"]}
{"price":71950,"dateOfTransfer":"1996-01-19T00:00:00","postcodeFull":"PO9 5TG","propertyType":"Detached","oldOrNew":"New build","duration":"Freehold","paon":"5","saon":"","street":"DOUGLAS GARDENS","locality":"HAVANT","townOrCity":"HAVANT","district":"HAVANT","county":"HAMPSHIRE","ppdCategoryType":"Standard","recordStatus":"Addition","latitude":50.86563,"longitude":-0.973324,"postcodeStart":"PO9 5","postcode":["PO9","5TG"]}
{"price":55950,"dateOfTransfer":"1996-05-31T00:00:00","postcodeFull":"PO9 5TW","propertyType":"Terraced","oldOrNew":"New build","duration":"Freehold","paon":"7","saon":"","street":"FABER CLOSE","locality":"HAVANT","townOrCity":"HAVANT","district":"HAVANT","county":"HAMPSHIRE","ppdCategoryType":"Standard","recordStatus":"Addition","latitude":50.865197,"longitude":-0.974229,"postcodeStart":"PO9 5","postcode":["PO9","5TW"]}
{"price":25500,"dateOfTransfer":"1996-11-28T00:00:00","postcodeFull":"PO9 5LB","propertyType":"Flat/Maisonette/Townhouse","oldOrNew":"Established","duration":"Leasehold","paon":"6","saon":"","street":"WOODINGTON CLOSE","locality":"HAVANT","townOrCity":"HAVANT","district":"HAVANT","county":"HAMPSHIRE","ppdCategoryType":"Standard","recordStatus":"Addition","latitude":50.871645,"longitude":-0.97224,"postcodeStart":"PO9 5","postcode":["PO9","5LB"]}
{"price":53152,"dateOfTransfer":"1996-06-14T00:00:00","postcodeFull":"PO9 5TW","propertyType":"Terraced","oldOrNew":"New build","duration":"Freehold","paon":"15","saon":"","street":"FABER CLOSE","locality":"HAVANT","townOrCity":"HAVANT","district":"HAVANT","county":"HAMPSHIRE","ppdCategoryType":"Standard","recordStatus":"Addition","latitude":50.865197,"longitude":-0.974229,"postcodeStart":"PO9 5","postcode":["PO9","5TW"]}
{"price":56950,"dateOfTransfer":"1996-06-28T00:00:00","postcodeFull":"PO9 5TN","propertyType":"Terraced","oldOrNew":"New build","duration":"Freehold","paon":"48","saon":"","street":"REDWOOD GROVE","locality":"HAVANT","townOrCity":"HAVANT","district":"HAVANT","county":"HAMPSHIRE","ppdCategoryType":"Standard","recordStatus":"Addition","latitude":50.865704,"longitude":-0.974659,"postcodeStart":"PO9 5","postcode":["PO9","5TN"]}
{"price":22000,"dateOfTransfer":"1996-10-18T00:00:00","postcodeFull":"PO9 5RJ","propertyType":"Flat/Maisonette/Townhouse","oldOrNew":"Established","duration":"Leasehold","paon":"10","saon":"","street":"BURGHCLERE ROAD","locality":"HAVANT","townOrCity":"HAVANT","district":"HAVANT","county":"HAMPSHIRE","ppdCategoryType":"Standard","recordStatus":"Addition","latitude":50.872518,"longitude":-0.968256,"postcodeStart":"PO9 5","postcode":["PO9","5RJ"]}
{"price":47000,"dateOfTransfer":"1996-05-01T00:00:00","postcodeFull":"PO9 5AZ","propertyType":"Semi-detached","oldOrNew":"Established","duration":"Freehold","paon":"24","saon":"","street":"BLACKDOWN CRESCENT","locality":"HAVANT","townOrCity":"HAVANT","district":"HAVANT","county":"HAMPSHIRE","ppdCategoryType":"Standard","recordStatus":"Addition","latitude":50.866168,"longitude":-0.987622,"postcodeStart":"PO9 5","postcode":["PO9","5AZ"]}
{"price":45000,"dateOfTransfer":"1996-08-21T00:00:00","postcodeFull":"PO9 5HJ","propertyType":"Terraced","oldOrNew":"Established","duration":"Freehold","paon":"60","saon":"","street":"BILLY LAWN AVENUE","locality":"HAVANT","townOrCity":"HAVANT","district":"HAVANT","county":"HAMPSHIRE","ppdCategoryType":"Standard","recordStatus":"Addition","latitude":50.868781,"longitude":-0.977888,"postcodeStart":"PO9 5","postcode":["PO9","5HJ"]}
{"price":45750,"dateOfTransfer":"1996-07-31T00:00:00","postcodeFull":"PO9 5LA","propertyType":"Semi-detached","oldOrNew":"Established","duration":"Freehold","paon":"1","saon":"","street":"BROXHEAD ROAD","locality":"HAVANT","townOrCity":"HAVANT","district":"HAVANT","county":"HAMPSHIRE","ppdCategoryType":"Standard","recordStatus":"Addition","latitude":50.873212,"longitude":-0.972447,"postcodeStart":"PO9 5","postcode":["PO9","5LA"]}
{"price":38000,"dateOfTransfer":"1996-07-31T00:00:00","postcodeFull":"PO9 5RZ","propertyType":"Semi-detached","oldOrNew":"Established","duration":"Freehold","paon":"13","saon":"","street":"MOORGREEN ROAD","locality":"HAVANT","townOrCity":"HAVANT","district":"HAVANT","county":"HAMPSHIRE","ppdCategoryType":"Standard","recordStatus":"Addition","latitude":50.868779,"longitude":-0.974548,"postcodeStart":"PO9 5","postcode":["PO9","5RZ"]}
{"price":45000,"dateOfTransfer":"1996-03-22T00:00:00","postcodeFull":"PO9 5LP","propertyType":"Semi-detached","oldOrNew":"Established","duration":"Freehold","paon":"12","saon":"","street":"AVINGTON GREEN","locality":"HAVANT","townOrCity":"HAVANT","district":"HAVANT","county":"HAMPSHIRE","ppdCategoryType":"Standard","recordStatus":"Addition","latitude":50.87297,"longitude":-0.964451,"postcodeStart":"PO9 5","postcode":["PO9","5LP"]}
{"price":59802,"dateOfTransfer":"1996-04-26T00:00:00","postcodeFull":"PO9 5TG","propertyType":"Semi-detached","oldOrNew":"New build","duration":"Freehold","paon":"16","saon":"","street":"DOUGLAS GARDENS","locality":"HAVANT","townOrCity":"HAVANT","district":"HAVANT","county":"HAMPSHIRE","ppdCategoryType":"Standard","recordStatus":"Addition","latitude":50.86563,"longitude":-0.973324,"postcodeStart":"PO9 5","postcode":["PO9","5TG"]}
{"price":32000,"dateOfTransfer":"1996-01-22T00:00:00","postcodeFull":"PO9 5JW","propertyType":"Flat/Maisonette/Townhouse","oldOrNew":"Established","duration":"Leasehold","paon":"207","saon":"","street":"WAKEFORDS WAY","locality":"HAVANT","townOrCity":"HAVANT","district":"HAVANT","county":"HAMPSHIRE","ppdCategoryType":"Standard","recordStatus":"Addition","latitude":50.872952,"longitude":-0.966413,"postcodeStart":"PO9 5","postcode":["PO9","5JW"]}
{"price":55950,"dateOfTransfer":"1996-04-26T00:00:00","postcodeFull":"PO9 5TW","propertyType":"Terraced","oldOrNew":"New build","duration":"Freehold","paon":"2","saon":"","street":"FABER CLOSE","locality":"HAVANT","townOrCity":"HAVANT","district":"HAVANT","county":"HAMPSHIRE","ppdCategoryType":"Standard","recordStatus":"Addition","latitude":50.865197,"longitude":-0.974229,"postcodeStart":"PO9 5","postcode":["PO9","5TW"]}
{"price":57000,"dateOfTransfer":"1996-02-29T00:00:00","postcodeFull":"PO9 5TA","propertyType":"Semi-detached","oldOrNew":"New build","duration":"Freehold","paon":"78","saon":"","street":"PROSPECT LANE","locality":"HAVANT","townOrCity":"HAVANT","district":"HAVANT","county":"HAMPSHIRE","ppdCategoryType":"Standard","recordStatus":"Addition","latitude":50.872567,"longitude":-0.968681,"postcodeStart":"PO9 5","postcode":["PO9","5TA"]}
{"price":57950,"dateOfTransfer":"1996-10-22T00:00:00","postcodeFull":"PO9 5TQ","propertyType":"Terraced","oldOrNew":"New build","duration":"Freehold","paon":"17","saon":"","street":"MONTEREY DRIVE","locality":"HAVANT","townOrCity":"HAVANT","district":"HAVANT","county":"HAMPSHIRE","ppdCategoryType":"Standard","recordStatus":"Addition","latitude":50.865793,"longitude":-0.972511,"postcodeStart":"PO9 5","postcode":["PO9","5TQ"]}
{"price":47000,"dateOfTransfer":"1996-12-06T00:00:00","postcodeFull":"PO9 5HR","propertyType":"Terraced","oldOrNew":"Established","duration":"Freehold","paon":"39","saon":"","street":"OWSLEBURY GROVE","locality":"HAVANT","townOrCity":"HAVANT","district":"HAVANT","county":"HAMPSHIRE","ppdCategoryType":"Standard","recordStatus":"Addition","latitude":50.867526,"longitude":-0.981383,"postcodeStart":"PO9 5","postcode":["PO9","5HR"]}
{"price":56950,"dateOfTransfer":"1996-12-20T00:00:00","postcodeFull":"PO9 5TQ","propertyType":"Terraced","oldOrNew":"New build","duration":"Freehold","paon":"41","saon":"","street":"MONTEREY DRIVE","locality":"HAVANT","townOrCity":"HAVANT","district":"HAVANT","county":"HAMPSHIRE","ppdCategoryType":"Standard","recordStatus":"Addition","latitude":50.865793,"longitude":-0.972511,"postcodeStart":"PO9 5","postcode":["PO9","5TQ"]}
{"price":43000,"dateOfTransfer":"1996-02-29T00:00:00","postcodeFull":"PO9 5SA","propertyType":"Terraced","oldOrNew":"Established","duration":"Freehold","paon":"42","saon":"","street":"KNIGHTWOOD AVENUE","locality":"HAVANT","townOrCity":"HAVANT","district":"HAVANT","county":"HAMPSHIRE","ppdCategoryType":"Standard","recordStatus":"Addition","latitude":50.868809,"longitude":-0.974932,"postcodeStart":"PO9 5","postcode":["PO9","5SA"]}
{"price":47750,"dateOfTransfer":"1996-08-07T00:00:00","postcodeFull":"PO9 5AZ","propertyType":"Semi-detached","oldOrNew":"Established","duration":"Freehold","paon":"20","saon":"","street":"BLACKDOWN CRESCENT","locality":"HAVANT","townOrCity":"HAVANT","district":"HAVANT","county":"HAMPSHIRE","ppdCategoryType":"Standard","recordStatus":"Addition","latitude":50.866168,"longitude":-0.987622,"postcodeStart":"PO9 5","postcode":["PO9","5AZ"]}
{"price":59500,"dateOfTransfer":"1996-08-30T00:00:00","postcodeFull":"PO9 5TW","propertyType":"Semi-detached","oldOrNew":"New build","duration":"Freehold","paon":"5","saon":"","street":"FABER CLOSE","locality":"HAVANT","townOrCity":"HAVANT","district":"HAVANT","county":"HAMPSHIRE","ppdCategoryType":"Standard","recordStatus":"Addition","latitude":50.865197,"longitude":-0.974229,"postcodeStart":"PO9 5","postcode":["PO9","5TW"]}
{"price":45000,"dateOfTransfer":"1996-03-27T00:00:00","postcodeFull":"PO9 5JS","propertyType":"Terraced","oldOrNew":"Established","duration":"Freehold","paon":"96","saon":"","street":"WAKEFORDS WAY","locality":"HAVANT","townOrCity":"HAVANT","district":"HAVANT","county":"HAMPSHIRE","ppdCategoryType":"Standard","recordStatus":"Addition","latitude":50.872703,"longitude":-0.966759,"postcodeStart":"PO9 5","postcode":["PO9","5JS"]}
{"price":46995,"dateOfTransfer":"1996-11-08T00:00:00","postcodeFull":"PO9 5SB","propertyType":"Terraced","oldOrNew":"Established","duration":"Freehold","paon":"74","saon":"","street":"KNIGHTWOOD AVENUE","locality":"HAVANT","townOrCity":"HAVANT","district":"HAVANT","county":"HAMPSHIRE","ppdCategoryType":"Standard","recordStatus":"Addition","latitude":50.870422,"longitude":-0.974285,"postcodeStart":"PO9 5","postcode":["PO9","5SB"]}
{"price":62950,"dateOfTransfer":"1996-05-16T00:00:00","postcodeFull":"PO9 5TW","propertyType":"Terraced","oldOrNew":"New build","duration":"Freehold","paon":"9","saon":"","street":"FABER CLOSE","locality":"HAVANT","townOrCity":"HAVANT","district":"HAVANT","county":"HAMPSHIRE","ppdCategoryType":"Standard","recordStatus":"Addition","latitude":50.865197,"longitude":-0.974229,"postcodeStart":"PO9 5","postcode":["PO9","5TW"]}
{"price":33000,"dateOfTransfer":"1996-09-27T00:00:00","postcodeFull":"PO9 5PP","propertyType":"Flat/Maisonette/Townhouse","oldOrNew":"Established","duration":"Leasehold","paon":"5","saon":"","street":"HECKFIELD CLOSE","locality":"HAVANT","townOrCity":"HAVANT","district":"HAVANT","county":"HAMPSHIRE","ppdCategoryType":"Standard","recordStatus":"Addition","latitude":50.870489,"longitude":-0.964506,"postcodeStart":"PO9 5","postcode":["PO9","5PP"]}
{"price":48000,"dateOfTransfer":"1996-03-27T00:00:00","postcodeFull":"PO9 5RE","propertyType":"Semi-detached","oldOrNew":"Established","duration":"Freehold","paon":"4","saon":"","street":"BURLEY CLOSE","locality":"HAVANT","townOrCity":"HAVANT","district":"HAVANT","county":"HAMPSHIRE","ppdCategoryType":"Standard","recordStatus":"Addition","latitude":50.871967,"longitude":-0.966932,"postcodeStart":"PO9 5","postcode":["PO9","5RE"]}
{"price":46995,"dateOfTransfer":"1996-02-02T00:00:00","postcodeFull":"PO9 5AY","propertyType":"Semi-detached","oldOrNew":"Established","duration":"Freehold","paon":"57","saon":"","street":"ELLISFIELD ROAD","locality":"HAVANT","townOrCity":"HAVANT","district":"HAVANT","county":"HAMPSHIRE","ppdCategoryType":"Standard","recordStatus":"Addition","latitude":50.8666,"longitude":-0.988722,"postcodeStart":"PO9 5","postcode":["PO9","5AY"]}
{"price":55950,"dateOfTransfer":"1996-12-16T00:00:00","postcodeFull":"PO9 5TQ","propertyType":"Terraced","oldOrNew":"New build","duration":"Freehold","paon":"55","saon":"","street":"MONTEREY DRIVE","locality":"HAVANT","townOrCity":"HAVANT","district":"HAVANT","county":"HAMPSHIRE","ppdCategoryType":"Standard","recordStatus":"Addition","latitude":50.865793,"longitude":-0.972511,"postcodeStart":"PO9 5","postcode":["PO9","5TQ"]}
{"price":56950,"dateOfTransfer":"1996-08-29T00:00:00","postcodeFull":"PO9 5TN","propertyType":"Terraced","oldOrNew":"New build","duration":"Freehold","paon":"36","saon":"","street":"REDWOOD GROVE","locality":"HAVANT","townOrCity":"HAVANT","district":"HAVANT","county":"HAMPSHIRE","ppdCategoryType":"Standard","recordStatus":"Addition","latitude":50.865704,"longitude":-0.974659,"postcodeStart":"PO9 5","postcode":["PO9","5TN"]}
{"price":63950,"dateOfTransfer":"1996-11-08T00:00:00","postcodeFull":"PO9 5TQ","propertyType":"Terraced","oldOrNew":"New build","duration":"Freehold","paon":"5","saon":"","street":"MONTEREY DRIVE","locality":"HAVANT","townOrCity":"HAVANT","district":"HAVANT","county":"HAMPSHIRE","ppdCategoryType":"Standard","recordStatus":"Addition","latitude":50.865793,"longitude":-0.972511,"postcodeStart":"PO9 5","postcode":["PO9","5TQ"]}
{"price":44000,"dateOfTransfer":"1996-01-19T00:00:00","postcodeFull":"PO9 5DY","propertyType":"Terraced","oldOrNew":"Established","duration":"Freehold","paon":"44","saon":"","street":"WINTERSLOW DRIVE","locality":"HAVANT","townOrCity":"HAVANT","district":"HAVANT","county":"HAMPSHIRE","ppdCategoryType":"Standard","recordStatus":"Addition","latitude":50.875393,"longitude":-0.987465,"postcodeStart":"PO9 5","postcode":["PO9","5DY"]}
{"price":31000,"dateOfTransfer":"1996-03-01T00:00:00","postcodeFull":"PO9 5PN","propertyType":"Flat/Maisonette/Townhouse","oldOrNew":"Established","duration":"Leasehold","paon":"49","saon":"","street":"FROXFIELD ROAD","locality":"HAVANT","townOrCity":"HAVANT","district":"HAVANT","county":"HAMPSHIRE","ppdCategoryType":"Standard","recordStatus":"Addition","latitude":50.869646,"longitude":-0.965789,"postcodeStart":"PO9 5","postcode":["PO9","5PN"]}
{"price":59802,"dateOfTransfer":"1996-09-27T00:00:00","postcodeFull":"PO9 5TN","propertyType":"Terraced","oldOrNew":"New build","duration":"Freehold","paon":"44","saon":"","street":"REDWOOD GROVE","locality":"HAVANT","townOrCity":"HAVANT","district":"HAVANT","county":"HAMPSHIRE","ppdCategoryType":"Standard","recordStatus":"Addition","latitude":50.865704,"longitude":-0.974659,"postcodeStart":"PO9 5","postcode":["PO9","5TN"]}
{"price":65950,"dateOfTransfer":"1996-04-10T00:00:00","postcodeFull":"PO9 5TG","propertyType":"Semi-detached","oldOrNew":"New build","duration":"Freehold","paon":"26","saon":"","street":"DOUGLAS GARDENS","locality":"HAVANT","townOrCity":"HAVANT","district":"HAVANT","county":"HAMPSHIRE","ppdCategoryType":"Standard","recordStatus":"Addition","latitude":50.86563,"longitude":-0.973324,"postcodeStart":"PO9 5","postcode":["PO9","5TG"]}
{"price":65950,"dateOfTransfer":"1996-10-25T00:00:00","postcodeFull":"PO9 5TQ","propertyType":"Semi-detached","oldOrNew":"New build","duration":"Freehold","paon":"7","saon":"","street":"MONTEREY DRIVE","locality":"HAVANT","townOrCity":"HAVANT","district":"HAVANT","county":"HAMPSHIRE","ppdCategoryType":"Standard","recordStatus":"Addition","latitude":50.865793,"longitude":-0.972511,"postcodeStart":"PO9 5","postcode":["PO9","5TQ"]}
{"price":49000,"dateOfTransfer":"1996-06-21T00:00:00","postcodeFull":"PO9 5SH","propertyType":"Terraced","oldOrNew":"Established","duration":"Freehold","paon":"16","saon":"","street":"FORESTSIDE AVENUE","locality":"HAVANT","townOrCity":"HAVANT","district":"HAVANT","county":"HAMPSHIRE","ppdCategoryType":"Standard","recordStatus":"Addition","latitude":50.869309,"longitude":-0.972405,"postcodeStart":"PO9 5","postcode":["PO9","5SH"]}
{"price":42000,"dateOfTransfer":"1996-03-29T00:00:00","postcodeFull":"PO9 5DR","propertyType":"Terraced","oldOrNew":"Established","duration":"Freehold","paon":"465","saon":"","street":"MIDDLE PARK WAY","locality":"HAVANT","townOrCity":"HAVANT","district":"HAVANT","county":"HAMPSHIRE","ppdCategoryType":"Standard","recordStatus":"Addition","latitude":50.873286,"longitude":-0.983972,"postcodeStart":"PO9 5","postcode":["PO9","5DR"]}
{"price":62652,"dateOfTransfer":"1996-03-15T00:00:00","postcodeFull":"PO9 5TG","propertyType":"Semi-detached","oldOrNew":"New build","duration":"Freehold","paon":"24","saon":"","street":"DOUGLAS GARDENS","locality":"HAVANT","townOrCity":"HAVANT","district":"HAVANT","county":"HAMPSHIRE","ppdCategoryType":"Standard","recordStatus":"Addition","latitude":50.86563,"longitude":-0.973324,"postcodeStart":"PO9 5","postcode":["PO9","5TG"]}
{"price":65000,"dateOfTransfer":"1996-11-20T00:00:00","postcodeFull":"PO9 5BY","propertyType":"Semi-detached","oldOrNew":"Established","duration":"Freehold","paon":"14","saon":"","street":"COTSWOLD CLOSE","locality":"HAVANT","townOrCity":"HAVANT","district":"HAVANT","county":"HAMPSHIRE","ppdCategoryType":"Standard","recordStatus":"Addition","latitude":50.872379,"longitude":-0.989321,"postcodeStart":"PO9 5","postcode":["PO9","5BY"]}
{"price":38500,"dateOfTransfer":"1996-12-19T00:00:00","postcodeFull":"PO9 5AY","propertyType":"Terraced","oldOrNew":"Established","duration":"Freehold","paon":"3","saon":"","street":"ELLISFIELD ROAD","locality":"HAVANT","townOrCity":"HAVANT","district":"HAVANT","county":"HAMPSHIRE","ppdCategoryType":"Standard","recordStatus":"Addition","latitude":50.8666,"longitude":-0.988722,"postcodeStart":"PO9 5","postcode":["PO9","5AY"]}
{"price":45000,"dateOfTransfer":"1996-05-14T00:00:00","postcodeFull":"PO9 5SL","propertyType":"Terraced","oldOrNew":"Established","duration":"Freehold","paon":"4","saon":"","street":"OAKSHOTT DRIVE","locality":"HAVANT","townOrCity":"HAVANT","district":"HAVANT","county":"HAMPSHIRE","ppdCategoryType":"Standard","recordStatus":"Addition","latitude":50.871034,"longitude":-0.973319,"postcodeStart":"PO9 5","postcode":["PO9","5SL"]}
{"price":56950,"dateOfTransfer":"1996-06-26T00:00:00","postcodeFull":"PO9 5TN","propertyType":"Terraced","oldOrNew":"New build","duration":"Freehold","paon":"50","saon":"","street":"REDWOOD GROVE","locality":"HAVANT","townOrCity":"HAVANT","district":"HAVANT","county":"HAMPSHIRE","ppdCategoryType":"Standard","recordStatus":"Addition","latitude":50.865704,"longitude":-0.974659,"postcodeStart":"PO9 5","postcode":["PO9","5TN"]}
{"price":37500,"dateOfTransfer":"1996-10-21T00:00:00","postcodeFull":"PO9 5ST","propertyType":"Terraced","oldOrNew":"Established","duration":"Freehold","paon":"27","saon":"","street":"PROSPECT LANE","locality":"HAVANT","townOrCity":"HAVANT","district":"HAVANT","county":"HAMPSHIRE","ppdCategoryType":"Standard","recordStatus":"Addition","latitude":50.870531,"longitude":-0.970261,"postcodeStart":"PO9 5","postcode":["PO9","5ST"]}
{"price":54000,"dateOfTransfer":"1996-12-18T00:00:00","postcodeFull":"PO9 5QR","propertyType":"Semi-detached","oldOrNew":"Established","duration":"Freehold","paon":"23","saon":"","street":"TANGLEY WALK","locality":"HAVANT","townOrCity":"HAVANT","district":"HAVANT","county":"HAMPSHIRE","ppdCategoryType":"Standard","recordStatus":"Addition","latitude":50.869286,"longitude":-0.96783,"postcodeStart":"PO9 5","postcode":["PO9","5QR"]}
{"price":34000,"dateOfTransfer":"1996-10-11T00:00:00","postcodeFull":"PO9 5HE","propertyType":"Semi-detached","oldOrNew":"Established","duration":"Freehold","paon":"25","saon":"","street":"STOCKHEATH ROAD","locality":"HAVANT","townOrCity":"HAVANT","district":"HAVANT","county":"HAMPSHIRE","ppdCategoryType":"Standard","recordStatus":"Addition","latitude":50.865779,"longitude":-0.982132,"postcodeStart":"PO9 5","postcode":["PO9","5HE"]}
{"price":25000,"dateOfTransfer":"1996-10-31T00:00:00","postcodeFull":"PO9 5SG","propertyType":"Flat/Maisonette/Townhouse","oldOrNew":"Established","duration":"Leasehold","paon":"8","saon":"","street":"CURDRIDGE CLOSE","locality":"HAVANT","townOrCity":"HAVANT","district":"HAVANT","county":"HAMPSHIRE","ppdCategoryType":"Standard","recordStatus":"Addition","latitude":50.868821,"longitude":-0.973197,"postcodeStart":"PO9 5","postcode":["PO9","5SG"]}
{"price":288000,"dateOfTransfer":"1996-10-31T00:00:00","postcodeFull":"PO9 5NA","propertyType":"Detached","oldOrNew":"Established","duration":"Freehold","paon":"EASTLEIGH HOUSE","saon":"","street":"BARTONS ROAD","locality":"HAVANT","townOrCity":"HAVANT","district":"HAVANT","county":"HAMPSHIRE","ppdCategoryType":"Standard","recordStatus":"Addition","latitude":50.866537,"longitude":-0.96097,"postcodeStart":"PO9 5","postcode":["PO9","5NA"]}
{"price":59000,"dateOfTransfer":"1996-04-26T00:00:00","postcodeFull":"PO9 5NL","propertyType":"Semi-detached","oldOrNew":"Established","duration":"Freehold","paon":"87","saon":"","street":"STANSTED CRESCENT","locality":"HAVANT","townOrCity":"HAVANT","district":"HAVANT","county":"HAMPSHIRE","ppdCategoryType":"Standard","recordStatus":"Addition","latitude":50.874361,"longitude":-0.969125,"postcodeStart":"PO9 5","postcode":["PO9","5NL"]}
{"price":63950,"dateOfTransfer":"1996-12-13T00:00:00","postcodeFull":"PO9 5TQ","propertyType":"Semi-detached","oldOrNew":"New build","duration":"Freehold","paon":"27","saon":"","street":"MONTEREY DRIVE","locality":"HAVANT","townOrCity":"HAVANT","district":"HAVANT","county":"HAMPSHIRE","ppdCategoryType":"Standard","recordStatus":"Addition","latitude":50.865793,"longitude":-0.972511,"postcodeStart":"PO9 5","postcode":["PO9","5TQ"]}
{"price":69950,"dateOfTransfer":"1996-11-29T00:00:00","postcodeFull":"PO9 5TQ","propertyType":"Semi-detached","oldOrNew":"New build","duration":"Freehold","paon":"11","saon":"","street":"MONTEREY DRIVE","locality":"HAVANT","townOrCity":"HAVANT","district":"HAVANT","county":"HAMPSHIRE","ppdCategoryType":"Standard","recordStatus":"Addition","latitude":50.865793,"longitude":-0.972511,"postcodeStart":"PO9 5","postcode":["PO9","5TQ"]}
{"price":61950,"dateOfTransfer":"1996-03-28T00:00:00","postcodeFull":"PO9 5TG","propertyType":"Semi-detached","oldOrNew":"New build","duration":"Freehold","paon":"14","saon":"","street":"DOUGLAS GARDENS","locality":"HAVANT","townOrCity":"HAVANT","district":"HAVANT","county":"HAMPSHIRE","ppdCategoryType":"Standard","recordStatus":"Addition","latitude":50.86563,"longitude":-0.973324,"postcodeStart":"PO9 5","postcode":["PO9","5TG"]}
{"price":55950,"dateOfTransfer":"1996-06-10T00:00:00","postcodeFull":"PO9 5TW","propertyType":"Terraced","oldOrNew":"New build","duration":"Freehold","paon":"14","saon":"","street":"FABER CLOSE","locality":"HAVANT","townOrCity":"HAVANT","district":"HAVANT","county":"HAMPSHIRE","ppdCategoryType":"Standard","recordStatus":"Addition","latitude":50.865197,"longitude":-0.974229,"postcodeStart":"PO9 5","postcode":["PO9","5TW"]}
{"price":50000,"dateOfTransfer":"1996-07-10T00:00:00","postcodeFull":"PO9 5BZ","propertyType":"Terraced","oldOrNew":"Established","duration":"Freehold","paon":"37","saon":"","street":"GREAT COPSE DRIVE","locality":"HAVANT","townOrCity":"HAVANT","district":"HAVANT","county":"HAMPSHIRE","ppdCategoryType":"Standard","recordStatus":"Addition","latitude":50.872412,"longitude":-0.98797,"postcodeStart":"PO9 5","postcode":["PO9","5BZ"]}
{"price":35000,"dateOfTransfer":"1996-03-29T00:00:00","postcodeFull":"PO9 5DX","propertyType":"Terraced","oldOrNew":"Established","duration":"Freehold","paon":"23","saon":"","street":"WINTERSLOW DRIVE","locality":"HAVANT","townOrCity":"HAVANT","district":"HAVANT","county":"HAMPSHIRE","ppdCategoryType":"Standard","recordStatus":"Addition","latitude":50.874406,"longitude":-0.989121,"postcodeStart":"PO9 5","postcode":["PO9","5DX"]}
{"price":46000,"dateOfTransfer":"1996-03-04T00:00:00","postcodeFull":"PO9 5JJ","propertyType":"Terraced","oldOrNew":"Established","duration":"Freehold","paon":"4","saon":"","street":"LANGRISH CLOSE","locality":"HAVANT","townOrCity":"HAVANT","district":"HAVANT","county":"HAMPSHIRE","ppdCategoryType":"Standard","recordStatus":"Addition","latitude":50.873623,"longitude":-0.97322,"postcodeStart":"PO9 5","postcode":["PO9","5JJ"]}
{"price":62950,"dateOfTransfer":"1996-06-28T00:00:00","postcodeFull":"PO9 5TN","propertyType":"Terraced","oldOrNew":"New build","duration":"Freehold","paon":"52","saon":"","street":"REDWOOD GROVE","locality":"HAVANT","townOrCity":"HAVANT","district":"HAVANT","county":"HAMPSHIRE","ppdCategoryType":"Standard","recordStatus":"Addition","latitude":50.865704,"longitude":-0.974659,"postcodeStart":"PO9 5","postcode":["PO9","5TN"]}
{"price":59802,"dateOfTransfer":"1996-04-12T00:00:00","postcodeFull":"PO9 5TW","propertyType":"Semi-detached","oldOrNew":"New build","duration":"Freehold","paon":"1","saon":"","street":"FABER CLOSE","locality":"HAVANT","townOrCity":"HAVANT","district":"HAVANT","county":"HAMPSHIRE","ppdCategoryType":"Standard","recordStatus":"Addition","latitude":50.865197,"longitude":-0.974229,"postcodeStart":"PO9 5","postcode":["PO9","5TW"]}
{"price":56950,"dateOfTransfer":"1996-06-28T00:00:00","postcodeFull":"PO9 5TW","propertyType":"Terraced","oldOrNew":"New build","duration":"Freehold","paon":"10","saon":"","street":"FABER CLOSE","locality":"HAVANT","townOrCity":"HAVANT","district":"HAVANT","county":"HAMPSHIRE","ppdCategoryType":"Standard","recordStatus":"Addition","latitude":50.865197,"longitude":-0.974229,"postcodeStart":"PO9 5","postcode":["PO9","5TW"]}
{"price":54950,"dateOfTransfer":"1996-06-28T00:00:00","postcodeFull":"PO9 5TW","propertyType":"Terraced","oldOrNew":"New build","duration":"Freehold","paon":"6","saon":"","street":"FABER CLOSE","locality":"HAVANT","townOrCity":"HAVANT","district":"HAVANT","county":"HAMPSHIRE","ppdCategoryType":"Standard","recordStatus":"Addition","latitude":50.865197,"longitude":-0.974229,"postcodeStart":"PO9 5","postcode":["PO9","5TW"]}
{"price":46000,"dateOfTransfer":"1996-08-14T00:00:00","postcodeFull":"PO9 5DU","propertyType":"Terraced","oldOrNew":"Established","duration":"Freehold","paon":"19","saon":"","street":"KINGSLEY GREEN","locality":"HAVANT","townOrCity":"HAVANT","district":"HAVANT","county":"HAMPSHIRE","ppdCategoryType":"Standard","recordStatus":"Addition","latitude":50.874099,"longitude":-0.988559,"postcodeStart":"PO9 5","postcode":["PO9","5DU"]}
{"price":45000,"dateOfTransfer":"1996-10-18T00:00:00","postcodeFull":"PO9 5DY","propertyType":"Terraced","oldOrNew":"Established","duration":"Freehold","paon":"65","saon":"","street":"WINTERSLOW DRIVE","locality":"HAVANT","townOrCity":"HAVANT","district":"HAVANT","county":"HAMPSHIRE","ppdCategoryType":"Standard","recordStatus":"Addition","latitude":50.875393,"longitude":-0.987465,"postcodeStart":"PO9 5","postcode":["PO9","5DY"]}
{"price":46000,"dateOfTransfer":"1996-05-02T00:00:00","postcodeFull":"PO9 5DS","propertyType":"Terraced","oldOrNew":"Established","duration":"Freehold","paon":"374","saon":"","street":"MIDDLE PARK WAY","locality":"HAVANT","townOrCity":"HAVANT","district":"HAVANT","county":"HAMPSHIRE","ppdCategoryType":"Standard","recordStatus":"Addition","latitude":50.873081,"longitude":-0.988325,"postcodeStart":"PO9 5","postcode":["PO9","5DS"]}
{"price":36950,"dateOfTransfer":"1996-08-01T00:00:00","postcodeFull":"PO9 5QN","propertyType":"Semi-detached","oldOrNew":"Established","duration":"Freehold","paon":"18","saon":"","street":"KITWOOD GREEN","locality":"HAVANT","townOrCity":"HAVANT","district":"HAVANT","county":"HAMPSHIRE","ppdCategoryType":"Standard","recordStatus":"Addition","latitude":50.867995,"longitude":-0.968297,"postcodeStart":"PO9 5","postcode":["PO9","5QN"]}
{"price":54950,"dateOfTransfer":"1996-02-22T00:00:00","postcodeFull":"PO9 5TG","propertyType":"Terraced","oldOrNew":"New build","duration":"Freehold","paon":"12","saon":"","street":"DOUGLAS GARDENS","locality":"HAVANT","townOrCity":"HAVANT","district":"HAVANT","county":"HAMPSHIRE","ppdCategoryType":"Standard","recordStatus":"Addition","latitude":50.86563,"longitude":-0.973324,"postcodeStart":"PO9 5","postcode":["PO9","5TG"]}
{"price":38500,"dateOfTransfer":"1996-03-29T00:00:00","postcodeFull":"PO9 5DZ","propertyType":"Terraced","oldOrNew":"Established","duration":"Freehold","paon":"60","saon":"","street":"WINTERSLOW DRIVE","locality":"HAVANT","townOrCity":"HAVANT","district":"HAVANT","county":"HAMPSHIRE","ppdCategoryType":"Standard","recordStatus":"Addition","latitude":50.875335,"longitude":-0.985889,"postcodeStart":"PO9 5","postcode":["PO9","5DZ"]}
{"price":60000,"dateOfTransfer":"1996-03-15T00:00:00","postcodeFull":"PO9 5TG","propertyType":"Terraced","oldOrNew":"New build","duration":"Freehold","paon":"18","saon":"","street":"DOUGLAS GARDENS","locality":"HAVANT","townOrCity":"HAVANT","district":"HAVANT","county":"HAMPSHIRE","ppdCategoryType":"Standard","recordStatus":"Addition","latitude":50.86563,"longitude":-0.973324,"postcodeStart":"PO9 5","postcode":["PO9","5TG"]}
{"price":40000,"dateOfTransfer":"1996-09-30T00:00:00","postcodeFull":"PO9 5BP","propertyType":"Terraced","oldOrNew":"Established","duration":"Freehold","paon":"17","saon":"","street":"HIGH LAWN WAY","locality":"HAVANT","townOrCity":"HAVANT","district":"HAVANT","county":"HAMPSHIRE","ppdCategoryType":"Standard","recordStatus":"Addition","latitude":50.868424,"longitude":-0.986422,"postcodeStart":"PO9 5","postcode":["PO9","5BP"]}
{"price":40000,"dateOfTransfer":"1996-02-02T00:00:00","postcodeFull":"PO9 5PL","propertyType":"Terraced","oldOrNew":"Established","duration":"Freehold","paon":"9","saon":"","street":"WHITE OAK WALK","locality":"HAVANT","townOrCity":"HAVANT","district":"HAVANT","county":"HAMPSHIRE","ppdCategoryType":"Standard","recordStatus":"Addition","latitude":50.870204,"longitude":-0.964825,"postcodeStart":"PO9 5","postcode":["PO9","5PL"]}
{"price":62652,"dateOfTransfer":"1996-05-31T00:00:00","postcodeFull":"PO9 5TN","propertyType":"Semi-detached","oldOrNew":"New build","duration":"Freehold","paon":"24","saon":"","street":"REDWOOD GROVE","locality":"HAVANT","townOrCity":"HAVANT","district":"HAVANT","county":"HAMPSHIRE","ppdCategoryType":"Standard","recordStatus":"Addition","latitude":50.865704,"longitude":-0.974659,"postcodeStart":"PO9 5","postcode":["PO9","5TN"]}
{"price":56950,"dateOfTransfer":"1996-08-23T00:00:00","postcodeFull":"PO9 5TN","propertyType":"Terraced","oldOrNew":"New build","duration":"Freehold","paon":"38","saon":"","street":"REDWOOD GROVE","locality":"HAVANT","townOrCity":"HAVANT","district":"HAVANT","county":"HAMPSHIRE","ppdCategoryType":"Standard","recordStatus":"Addition","latitude":50.865704,"longitude":-0.974659,"postcodeStart":"PO9 5","postcode":["PO9","5TN"]}
{"price":49500,"dateOfTransfer":"1996-08-23T00:00:00","postcodeFull":"PO9 5JN","propertyType":"Terraced","oldOrNew":"Established","duration":"Freehold","paon":"95","saon":"","street":"WAKEFORDS WAY","locality":"HAVANT","townOrCity":"HAVANT","district":"EAST HAMPSHIRE","county":"HAMPSHIRE","ppdCategoryType":"Standard","recordStatus":"Addition","latitude":50.874201,"longitude":-0.969341,"postcodeStart":"PO9 5","postcode":["PO9","5JN"]}
{"price":56950,"dateOfTransfer":"1996-09-20T00:00:00","postcodeFull":"PO9 5TN","propertyType":"Terraced","oldOrNew":"New build","duration":"Freehold","paon":"30","saon":"","street":"REDWOOD GROVE","locality":"HAVANT","townOrCity":"HAVANT","district":"HAVANT","county":"HAMPSHIRE","ppdCategoryType":"Standard","recordStatus":"Addition","latitude":50.865704,"longitude":-0.974659,"postcodeStart":"PO9 5","postcode":["PO9","5TN"]}
{"price":46000,"dateOfTransfer":"1996-04-29T00:00:00","postcodeFull":"PO9 5QA","propertyType":"Semi-detached","oldOrNew":"Established","duration":"Freehold","paon":"114","saon":"","street":"WAKEFORDS WAY","locality":"HAVANT","townOrCity":"HAVANT","district":"HAVANT","county":"HAMPSHIRE","ppdCategoryType":"Standard","recordStatus":"Addition","latitude":50.870127,"longitude":-0.964301,"postcodeStart":"PO9 5","postcode":["PO9","5QA"]}
{"price":55950,"dateOfTransfer":"1996-11-29T00:00:00","postcodeFull":"PO9 5TQ","propertyType":"Terraced","oldOrNew":"New build","duration":"Freehold","paon":"25","saon":"","street":"MONTEREY DRIVE","locality":"HAVANT","townOrCity":"HAVANT","district":"HAVANT","county":"HAMPSHIRE","ppdCategoryType":"Standard","recordStatus":"Addition","latitude":50.865793,"longitude":-0.972511,"postcodeStart":"PO9 5","postcode":["PO9","5TQ"]}
{"price":62950,"dateOfTransfer":"1996-05-03T00:00:00","postcodeFull":"PO9 5TW","propertyType":"Semi-detached","oldOrNew":"New build","duration":"Freehold","paon":"4","saon":"","street":"FABER CLOSE","locality":"HAVANT","townOrCity":"HAVANT","district":"HAVANT","county":"HAMPSHIRE","ppdCategoryType":"Standard","recordStatus":"Addition","latitude":50.865197,"longitude":-0.974229,"postcodeStart":"PO9 5","postcode":["PO9","5TW"]}
{"price":43500,"dateOfTransfer":"1996-05-03T00:00:00","postcodeFull":"PO9 5DP","propertyType":"Terraced","oldOrNew":"Established","duration":"Freehold","paon":"433","saon":"","street":"MIDDLE PARK WAY","locality":"HAVANT","townOrCity":"HAVANT","district":"HAVANT","county":"HAMPSHIRE","ppdCategoryType":"Standard","recordStatus":"Addition","latitude":50.873332,"longitude":-0.986217,"postcodeStart":"PO9 5","postcode":["PO9","5DP"]}
{"price":63950,"dateOfTransfer":"1996-12-20T00:00:00","postcodeFull":"PO9 5TQ","propertyType":"Semi-detached","oldOrNew":"New build","duration":"Freehold","paon":"15","saon":"","street":"MONTEREY DRIVE","locality":"HAVANT","townOrCity":"HAVANT","district":"HAVANT","county":"HAMPSHIRE","ppdCategoryType":"Standard","recordStatus":"Addition","latitude":50.865793,"longitude":-0.972511,"postcodeStart":"PO9 5","postcode":["PO9","5TQ"]}
{"price":47450,"dateOfTransfer":"1996-10-04T00:00:00","postcodeFull":"PO9 5JW","propertyType":"Terraced","oldOrNew":"Established","duration":"Freehold","paon":"217","saon":"","street":"WAKEFORDS WAY","locality":"HAVANT","townOrCity":"HAVANT","district":"HAVANT","county":"HAMPSHIRE","ppdCategoryType":"Standard","recordStatus":"Addition","latitude":50.872952,"longitude":-0.966413,"postcodeStart":"PO9 5","postcode":["PO9","5JW"]}
{"price":45500,"dateOfTransfer":"1996-09-20T00:00:00","postcodeFull":"PO9 5SD","propertyType":"Terraced","oldOrNew":"Established","duration":"Freehold","paon":"11","saon":"","street":"FURZEDOWN CRESCENT","locality":"HAVANT","townOrCity":"HAVANT","district":"HAVANT","county":"HAMPSHIRE","ppdCategoryType":"Standard","recordStatus":"Addition","latitude":50.870208,"longitude":-0.973423,"postcodeStart":"PO9 5","postcode":["PO9","5SD"]}
{"price":56950,"dateOfTransfer":"1996-09-27T00:00:00","postcodeFull":"PO9 5TQ","propertyType":"Terraced","oldOrNew":"New build","duration":"Freehold","paon":"3","saon":"","street":"MONTEREY DRIVE","locality":"HAVANT","townOrCity":"HAVANT","district":"HAVANT","county":"HAMPSHIRE","ppdCategoryType":"Standard","recordStatus":"Addition","latitude":50.865793,"longitude":-0.972511,"postcodeStart":"PO9 5","postcode":["PO9","5TQ"]}
{"price":57950,"dateOfTransfer":"1996-12-23T00:00:00","postcodeFull":"PO9 5TQ","propertyType":"Terraced","oldOrNew":"New build","duration":"Freehold","paon":"39","saon":"","street":"MONTEREY DRIVE","locality":"HAVANT","townOrCity":"HAVANT","district":"HAVANT","county":"HAMPSHIRE","ppdCategoryType":"Standard","recordStatus":"Addition","latitude":50.865793,"longitude":-0.972511,"postcodeStart":"PO9 5","postcode":["PO9","5TQ"]}
{"price":58000,"dateOfTransfer":"1996-05-10T00:00:00","postcodeFull":"PO9 5BY","propertyType":"Semi-detached","oldOrNew":"Established","duration":"Freehold","paon":"16","saon":"","street":"COTSWOLD CLOSE","locality":"HAVANT","townOrCity":"HAVANT","district":"HAVANT","county":"HAMPSHIRE","ppdCategoryType":"Standard","recordStatus":"Addition","latitude":50.872379,"longitude":-0.989321,"postcodeStart":"PO9 5","postcode":["PO9","5BY"]}
{"price":65950,"dateOfTransfer":"1996-12-30T00:00:00","postcodeFull":"PO9 5TQ","propertyType":"Semi-detached","oldOrNew":"New build","duration":"Freehold","paon":"43","saon":"","street":"MONTEREY DRIVE","locality":"HAVANT","townOrCity":"HAVANT","district":"HAVANT","county":"HAMPSHIRE","ppdCategoryType":"Standard","recordStatus":"Addition","latitude":50.865793,"longitude":-0.972511,"postcodeStart":"PO9 5","postcode":["PO9","5TQ"]}
{"price":44500,"dateOfTransfer":"1996-12-16T00:00:00","postcodeFull":"PO9 5HR","propertyType":"Terraced","oldOrNew":"Established","duration":"Freehold","paon":"17","saon":"","street":"OWSLEBURY GROVE","locality":"HAVANT","townOrCity":"HAVANT","district":"HAVANT","county":"HAMPSHIRE","ppdCategoryType":"Standard","recordStatus":"Addition","latitude":50.867526,"longitude":-0.981383,"postcodeStart":"PO9 5","postcode":["PO9","5HR"]}
