{"price":170000,"dateOfTransfer":"1995-10-24T00:00:00","postcodeFull":"SA61 2UF","propertyType":"Detached","oldOrNew":"Established","duration":"Freehold","paon":"5","saon":"","street":"DOUGLAS JAMES CLOSE","locality":"HAVERFORDWEST","townOrCity":"HAVERFORDWEST","district":"PRESELI PEMBROKESHIRE","county":"DYFED","ppdCategoryType":"Standard","recordStatus":"Addition","latitude":51.800674,"longitude":-4.994803,"postcodeStart":"SA61 2","postcode":["SA61","2UF"]}
{"price":26500,"dateOfTransfer":"1995-04-13T00:00:00","postcodeFull":"SA61 2PF","propertyType":"Terraced","oldOrNew":"Established","duration":"Freehold","paon":"97","saon":"","street":"PRENDERGAST","locality":"HAVERFORDWEST","townOrCity":"HAVERFORDWEST","district":"PRESELI PEMBROKESHIRE","county":"DYFED","ppdCategoryType":"Standard","recordStatus":"Addition","latitude":51.808586,"longitude":-4.963904,"postcodeStart":"SA61 2","postcode":["SA61","2PF"]}
{"price":40000,"dateOfTransfer":"1995-12-08T00:00:00","postcodeFull":"SA61 2SB","propertyType":"Detached","oldOrNew":"Established","duration":"Freehold","paon":"49","saon":"","street":"BARING GOULD WAY","locality":"HAVERFORDWEST","townOrCity":"HAVERFORDWEST","district":"PRESELI PEMBROKESHIRE","county":"DYFED","ppdCategoryType":"Standard","recordStatus":"Addition","latitude":51.803937,"longitude":-4.979308,"postcodeStart":"SA61 2","postcode":["SA61","2SB"]}
{"price":76000,"dateOfTransfer":"1995-04-03T00:00:00","postcodeFull":"SA61 2HA","propertyType":"Detached","oldOrNew":"Established","duration":"Freehold","paon":"57","saon":"","street":"REDHILL PARK","locality":"HAVERFORDWEST","townOrCity":"HAVERFORDWEST","district":"PRESELI PEMBROKESHIRE","county":"DYFED","ppdCategoryType":"Standard","recordStatus":"Addition","latitude":51.810668,"longitude":-4.973832,"postcodeStart":"SA61 2","postcode":["SA61","2HA"]}
{"price":52000,"dateOfTransfer":"1995-01-31T00:00:00","postcodeFull":"SA61 2RR","propertyType":"Detached","oldOrNew":"Established","duration":"Freehold","paon":"87","saon":"","street":"CITY ROAD","locality":"HAVERFORDWEST","townOrCity":"HAVERFORDWEST","district":"PRESELI PEMBROKESHIRE","county":"DYFED","ppdCategoryType":"Standard","recordStatus":"Addition","latitude":51.802609,"longitude":-4.977613,"postcodeStart":"SA61 2","postcode":["SA61","2RR"]}
{"price":59950,"dateOfTransfer":"1995-09-29T00:00:00","postcodeFull":"SA61 2QP","propertyType":"Semi-detached","oldOrNew":"Established","duration":"Freehold","paon":"42","saon":"","street":"LINDSWAY PARK","locality":"HAVERFORDWEST","townOrCity":"HAVERFORDWEST","district":"PRESELI PEMBROKESHIRE","county":"DYFED","ppdCategoryType":"Standard","recordStatus":"Addition","latitude":51.812272,"longitude":-4.959123,"postcodeStart":"SA61 2","postcode":["SA61","2QP"]}
{"price":67000,"dateOfTransfer":"1995-06-26T00:00:00","postcodeFull":"SA61 2PS","propertyType":"Detached","oldOrNew":"New build","duration":"Freehold","paon":"2","saon":"","street":"HERMITAGE GROVE","locality":"HAVERFORDWEST","townOrCity":"HAVERFORDWEST","district":"PRESELI PEMBROKESHIRE","county":"DYFED","ppdCategoryType":"Standard","recordStatus":"Addition","latitude":51.81551,"longitude":-4.959323,"postcodeStart":"SA61 2","postcode":["SA61","2PS"]}
{"price":66500,"dateOfTransfer":"1995-07-21T00:00:00","postcodeFull":"SA61 2QF","propertyType":"Detached","oldOrNew":"New build","duration":"Freehold","paon":"24","saon":"","street":"HERITAGE PARK","locality":"HAVERFORDWEST","townOrCity":"HAVERFORDWEST","district":"SOUTH PEMBROKESHIRE","county":"DYFED","ppdCategoryType":"Standard","recordStatus":"Addition","latitude":51.814798,"longitude":-4.959712,"postcodeStart":"SA61 2","postcode":["SA61","2QF"]}
{"price":75000,"dateOfTransfer":"1995-11-24T00:00:00","postcodeFull":"SA61 2QF","propertyType":"Detached","oldOrNew":"New build","duration":"Freehold","paon":"26","saon":"","street":"HERITAGE PARK","locality":"HAVERFORDWEST","townOrCity":"HAVERFORDWEST","district":"SOUTH PEMBROKESHIRE","county":"DYFED","ppdCategoryType":"Standard","recordStatus":"Addition","latitude":51.814798,"longitude":-4.959712,"postcodeStart":"SA61 2","postcode":["SA61","2QF"]}
{"price":14200,"dateOfTransfer":"1995-03-17T00:00:00","postcodeFull":"SA61 2SQ","propertyType":"Terraced","oldOrNew":"Established","duration":"Leasehold","paon":"73","saon":"","street":"FLEMING CRESCENT","locality":"HAVERFORDWEST","townOrCity":"HAVERFORDWEST","district":"PRESELI PEMBROKESHIRE","county":"DYFED","ppdCategoryType":"Standard","recordStatus":"Addition","latitude":51.804584,"longitude":-4.98041,"postcodeStart":"SA61 2","postcode":["SA61","2SQ"]}
{"price":64000,"dateOfTransfer":"1995-10-25T00:00:00","postcodeFull":"SA61 2QL","propertyType":"Semi-detached","oldOrNew":"Established","duration":"Freehold","paon":"19","saon":"","street":"SPRINGFIELD CLOSE","locality":"HAVERFORDWEST","townOrCity":"HAVERFORDWEST","district":"PRESELI PEMBROKESHIRE","county":"DYFED","ppdCategoryType":"Standard","recordStatus":"Addition","latitude":51.812408,"longitude":-4.96179,"postcodeStart":"SA61 2","postcode":["SA61","2QL"]}
{"price":60000,"dateOfTransfer":"1995-08-17T00:00:00","postcodeFull":"SA61 2HL","propertyType":"Semi-detached","oldOrNew":"Established","duration":"Freehold","paon":"6","saon":"","street":"CROWHILL","locality":"HAVERFORDWEST","townOrCity":"HAVERFORDWEST","district":"PRESELI PEMBROKESHIRE","county":"DYFED","ppdCategoryType":"Standard","recordStatus":"Addition","latitude":51.806976,"longitude":-4.972097,"postcodeStart":"SA61 2","postcode":["SA61","2HL"]}
{"price":44000,"dateOfTransfer":"1995-03-22T00:00:00","postcodeFull":"SA61 2SS","propertyType":"Terraced","oldOrNew":"Established","duration":"Freehold","paon":"9","saon":"","street":"MILWARD CLOSE","locality":"HAVERFORDWEST","townOrCity":"HAVERFORDWEST","district":"PRESELI PEMBROKESHIRE","county":"DYFED","ppdCategoryType":"Standard","recordStatus":"Addition","latitude":51.803824,"longitude":-4.975567,"postcodeStart":"SA61 2","postcode":["SA61","2SS"]}
{"price":35000,"dateOfTransfer":"1995-10-09T00:00:00","postcodeFull":"SA61 2PF","propertyType":"Terraced","oldOrNew":"Established","duration":"Freehold","paon":"35","saon":"","street":"PRENDERGAST","locality":"HAVERFORDWEST","townOrCity":"HAVERFORDWEST","district":"PRESELI PEMBROKESHIRE","county":"DYFED","ppdCategoryType":"Standard","recordStatus":"Addition","latitude":51.808586,"longitude":-4.963904,"postcodeStart":"SA61 2","postcode":["SA61","2PF"]}
{"price":59995,"dateOfTransfer":"1995-09-20T00:00:00","postcodeFull":"SA61 2NU","propertyType":"Detached","oldOrNew":"Established","duration":"Freehold","paon":"49","saon":"","street":"QUEENSWAY","locality":"HAVERFORDWEST","townOrCity":"HAVERFORDWEST","district":"PRESELI PEMBROKESHIRE","county":"DYFED","ppdCategoryType":"Standard","recordStatus":"Addition","latitude":51.804325,"longitude":-4.963259,"postcodeStart":"SA61 2","postcode":["SA61","2NU"]}
{"price":33000,"dateOfTransfer":"1995-12-01T00:00:00","postcodeFull":"SA61 2RR","propertyType":"Semi-detached","oldOrNew":"Established","duration":"Freehold","paon":"64","saon":"","street":"CITY ROAD","locality":"HAVERFORDWEST","townOrCity":"HAVERFORDWEST","district":"PRESELI PEMBROKESHIRE","county":"DYFED","ppdCategoryType":"Standard","recordStatus":"Addition","latitude":51.802609,"longitude":-4.977613,"postcodeStart":"SA61 2","postcode":["SA61","2RR"]}
{"price":70000,"dateOfTransfer":"1995-03-10T00:00:00","postcodeFull":"SA61 2NU","propertyType":"Detached","oldOrNew":"Established","duration":"Freehold","paon":"43","saon":"","street":"QUEENSWAY","locality":"HAVERFORDWEST","townOrCity":"HAVERFORDWEST","district":"PRESELI PEMBROKESHIRE","county":"DYFED","ppdCategoryType":"Standard","recordStatus":"Addition","latitude":51.804325,"longitude":-4.963259,"postcodeStart":"SA61 2","postcode":["SA61","2NU"]}
{"price":57000,"dateOfTransfer":"1995-12-15T00:00:00","postcodeFull":"SA61 2QP","propertyType":"Detached","oldOrNew":"Established","duration":"Freehold","paon":"52","saon":"","street":"LINDSWAY PARK","locality":"HAVERFORDWEST","townOrCity":"HAVERFORDWEST","district":"PRESELI PEMBROKESHIRE","county":"DYFED","ppdCategoryType":"Standard","recordStatus":"Addition","latitude":51.812272,"longitude":-4.959123,"postcodeStart":"SA61 2","postcode":["SA61","2QP"]}
{"price":27000,"dateOfTransfer":"1995-09-11T00:00:00","postcodeFull":"SA61 2EA","propertyType":"Terraced","oldOrNew":"Established","duration":"Freehold","paon":"21","saon":"","street":"CHURCH STREET","locality":"HAVERFORDWEST","townOrCity":"HAVERFORDWEST","district":"PRESELI PEMBROKESHIRE","county":"DYFED","ppdCategoryType":"Standard","recordStatus":"Addition","latitude":51.802362,"longitude":-4.971907,"postcodeStart":"SA61 2","postcode":["SA61","2EA"]}
{"price":65000,"dateOfTransfer":"1995-09-08T00:00:00","postcodeFull":"SA61 2HA","propertyType":"Detached","oldOrNew":"New build","duration":"Freehold","paon":"55","saon":"","street":"REDHILL PARK","locality":"HAVERFORDWEST","townOrCity":"HAVERFORDWEST","district":"PRESELI PEMBROKESHIRE","county":"DYFED","ppdCategoryType":"Standard","recordStatus":"Addition","latitude":51.810668,"longitude":-4.973832,"postcodeStart":"SA61 2","postcode":["SA61","2HA"]}
{"price":22000,"dateOfTransfer":"1995-04-03T00:00:00","postcodeFull":"SA61 2PP","propertyType":"Terraced","oldOrNew":"Established","duration":"Freehold","paon":"86","saon":"","street":"PRENDERGAST","locality":"HAVERFORDWEST","townOrCity":"HAVERFORDWEST","district":"PRESELI PEMBROKESHIRE","county":"DYFED","ppdCategoryType":"Standard","recordStatus":"Addition","latitude":51.806517,"longitude":-4.965698,"postcodeStart":"SA61 2","postcode":["SA61","2PP"]}
{"price":49000,"dateOfTransfer":"1995-08-31T00:00:00","postcodeFull":"SA61 2SP","propertyType":"Detached","oldOrNew":"Established","duration":"Freehold","paon":"42","saon":"","street":"CASTLE HIGH","locality":"HAVERFORDWEST","townOrCity":"HAVERFORDWEST","district":"PRESELI PEMBROKESHIRE","county":"DYFED","ppdCategoryType":"Standard","recordStatus":"Addition","latitude":51.804388,"longitude":-4.97451,"postcodeStart":"SA61 2","postcode":["SA61","2SP"]}
{"price":36000,"dateOfTransfer":"1995-04-06T00:00:00","postcodeFull":"SA61 2UF","propertyType":"Detached","oldOrNew":"New build","duration":"Freehold","paon":"7","saon":"","street":"DOUGLAS JAMES CLOSE","locality":"HAVERFORDWEST","townOrCity":"HAVERFORDWEST","district":"SOUTH PEMBROKESHIRE","county":"DYFED","ppdCategoryType":"Standard","recordStatus":"Addition","latitude":51.800674,"longitude":-4.994803,"postcodeStart":"SA61 2","postcode":["SA61","2UF"]}
{"price":40000,"dateOfTransfer":"1995-03-31T00:00:00","postcodeFull":"SA61 2QW","propertyType":"Detached","oldOrNew":"Established","duration":"Freehold","paon":"61","saon":"","street":"CARDIGAN ROAD","locality":"HAVERFORDWEST","townOrCity":"HAVERFORDWEST","district":"PRESELI PEMBROKESHIRE","county":"DYFED","ppdCategoryType":"Standard","recordStatus":"Addition","latitude":51.812656,"longitude":-4.960834,"postcodeStart":"SA61 2","postcode":["SA61","2QW"]}
{"price":73000,"dateOfTransfer":"1995-12-15T00:00:00","postcodeFull":"SA61 2QF","propertyType":"Detached","oldOrNew":"Established","duration":"Freehold","paon":"33","saon":"","street":"HERITAGE PARK","locality":"HAVERFORDWEST","townOrCity":"HAVERFORDWEST","district":"PRESELI PEMBROKESHIRE","county":"DYFED","ppdCategoryType":"Standard","recordStatus":"Addition","latitude":51.814798,"longitude":-4.959712,"postcodeStart":"SA61 2","postcode":["SA61","2QF"]}
{"price":42000,"dateOfTransfer":"1995-04-07T00:00:00","postcodeFull":"SA61 2PP","propertyType":"Terraced","oldOrNew":"Established","duration":"Freehold","paon":"42","saon":"","street":"PRENDERGAST","locality":"HAVERFORDWEST","townOrCity":"HAVERFORDWEST","district":"PRESELI PEMBROKESHIRE","county":"DYFED","ppdCategoryType":"Standard","recordStatus":"Addition","latitude":51.806517,"longitude":-4.965698,"postcodeStart":"SA61 2","postcode":["SA61","2PP"]}
{"price":53250,"dateOfTransfer":"1995-08-14T00:00:00","postcodeFull":"SA61 2UR","propertyType":"Detached","oldOrNew":"Established","duration":"Freehold","paon":"SUNDALE","saon":"","street":"ST DAVIDS ROAD","locality":"HAVERFORDWEST","townOrCity":"HAVERFORDWEST","district":"PRESELI PEMBROKESHIRE","county":"DYFED","ppdCategoryType":"Standard","recordStatus":"Addition","latitude":51.810002,"longitude":-4.989125,"postcodeStart":"SA61 2","postcode":["SA61","2UR"]}
{"price":33000,"dateOfTransfer":"1995-03-31T00:00:00","postcodeFull":"SA61 2PF","propertyType":"Terraced","oldOrNew":"Established","duration":"Freehold","paon":"99","saon":"","street":"PRENDERGAST","locality":"HAVERFORDWEST","townOrCity":"HAVERFORDWEST","district":"PRESELI PEMBROKESHIRE","county":"DYFED","ppdCategoryType":"Standard","recordStatus":"Addition","latitude":51.808586,"longitude":-4.963904,"postcodeStart":"SA61 2","postcode":["SA61","2PF"]}
{"price":23000,"dateOfTransfer":"1995-07-24T00:00:00","postcodeFull":"SA61 2QQ","propertyType":"Semi-detached","oldOrNew":"Established","duration":"Freehold","paon":"16","saon":"","street":"CARDIGAN ROAD","locality":"HAVERFORDWEST","townOrCity":"HAVERFORDWEST","district":"PRESELI PEMBROKESHIRE","county":"DYFED","ppdCategoryType":"Standard","recordStatus":"Addition","latitude":51.81022,"longitude":-4.962036,"postcodeStart":"SA61 2","postcode":["SA61","2QQ"]}
{"price":76500,"dateOfTransfer":"1995-12-15T00:00:00","postcodeFull":"SA61 2TQ","propertyType":"Detached","oldOrNew":"Established","duration":"Freehold","paon":"39","saon":"","street":"DOUGLAS JAMES WAY","locality":"HAVERFORDWEST","townOrCity":"HAVERFORDWEST","district":"PRESELI PEMBROKESHIRE","county":"DYFED","ppdCategoryType":"Standard","recordStatus":"Addition","latitude":51.800984,"longitude":-4.992183,"postcodeStart":"SA61 2","postcode":["SA61","2TQ"]}
{"price":61000,"dateOfTransfer":"1995-10-13T00:00:00","postcodeFull":"SA61 2PT","propertyType":"Detached","oldOrNew":"Established","duration":"Freehold","paon":"5","saon":"","street":"KINGSMERE CLOSE","locality":"HAVERFORDWEST","townOrCity":"HAVERFORDWEST","district":"SOUTH PEMBROKESHIRE","county":"DYFED","ppdCategoryType":"Standard","recordStatus":"Addition","latitude":51.816241,"longitude":-4.960619,"postcodeStart":"SA61 2","postcode":["SA61","2PT"]}
{"price":39250,"dateOfTransfer":"1995-06-30T00:00:00","postcodeFull":"SA61 2ST","propertyType":"Terraced","oldOrNew":"Established","duration":"Freehold","paon":"52","saon":"","street":"CITY ROAD","locality":"HAVERFORDWEST","townOrCity":"HAVERFORDWEST","district":"PRESELI PEMBROKESHIRE","county":"DYFED","ppdCategoryType":"Standard","recordStatus":"Addition","latitude":51.803044,"longitude":-4.974653,"postcodeStart":"SA61 2","postcode":["SA61","2ST"]}
{"price":18000,"dateOfTransfer":"1995-01-30T00:00:00","postcodeFull":"SA61 2NE","propertyType":"Terraced","oldOrNew":"Established","duration":"Freehold","paon":"2","saon":"","street":"PROSPECT PLACE","locality":"HAVERFORDWEST","townOrCity":"HAVERFORDWEST","district":"PRESELI PEMBROKESHIRE","county":"DYFED","ppdCategoryType":"Standard","recordStatus":"Addition","latitude":51.80421,"longitude":-4.966385,"postcodeStart":"SA61 2","postcode":["SA61","2NE"]}
{"price":40000,"dateOfTransfer":"1995-08-25T00:00:00","postcodeFull":"SA61 2BG","propertyType":"Semi-detached","oldOrNew":"Established","duration":"Freehold","paon":"73","saon":"","street":"HAWTHORN RISE","locality":"HAVERFORDWEST","townOrCity":"HAVERFORDWEST","district":"PRESELI PEMBROKESHIRE","county":"DYFED","ppdCategoryType":"Standard","recordStatus":"Addition","latitude":51.801481,"longitude":-4.983948,"postcodeStart":"SA61 2","postcode":["SA61","2BG"]}
{"price":20000,"dateOfTransfer":"1995-10-27T00:00:00","postcodeFull":"SA61 2TH","propertyType":"Flat/Maisonette/Townhouse","oldOrNew":"Established","duration":"Leasehold","paon":"ST. JAMES COURT","saon":"FLAT 5","street":"CURLEW CLOSE","locality":"HAVERFORDWEST","townOrCity":"HAVERFORDWEST","district":"PRESELI PEMBROKESHIRE","county":"DYFED","ppdCategoryType":"Standard","recordStatus":"Addition","latitude":51.802619,"longitude":-4.988475,"postcodeStart":"SA61 2","postcode":["SA61","2TH"]}
{"price":44000,"dateOfTransfer":"1995-12-08T00:00:00","postcodeFull":"SA61 2PA","propertyType":"Semi-detached","oldOrNew":"Established","duration":"Freehold","paon":"8","saon":"","street":"THE RISE","locality":"HAVERFORDWEST","townOrCity":"HAVERFORDWEST","district":"PRESELI PEMBROKESHIRE","county":"DYFED","ppdCategoryType":"Standard","recordStatus":"Addition","latitude":51.804387,"longitude":-4.964905,"postcodeStart":"SA61 2","postcode":["SA61","2PA"]}
{"price":39000,"dateOfTransfer":"1995-10-13T00:00:00","postcodeFull":"SA61 2JL","propertyType":"Semi-detached","oldOrNew":"Established","duration":"Freehold","paon":"PENBRYN","saon":"","street":"HOLLOWAY","locality":"HAVERFORDWEST","townOrCity":"HAVERFORDWEST","district":"PRESELI PEMBROKESHIRE","county":"DYFED","ppdCategoryType":"Standard","recordStatus":"Addition","latitude":51.803687,"longitude":-4.970909,"postcodeStart":"SA61 2","postcode":["SA61","2JL"]}
{"price":83000,"dateOfTransfer":"1995-10-18T00:00:00","postcodeFull":"SA61 2QF","propertyType":"Detached","oldOrNew":"New build","duration":"Freehold","paon":"39","saon":"","street":"HERITAGE PARK","locality":"HAVERFORDWEST","townOrCity":"HAVERFORDWEST","district":"SOUTH PEMBROKESHIRE","county":"DYFED","ppdCategoryType":"Standard","recordStatus":"Addition","latitude":51.814798,"longitude":-4.959712,"postcodeStart":"SA61 2","postcode":["SA61","2QF"]}
{"price":70000,"dateOfTransfer":"1995-10-27T00:00:00","postcodeFull":"SA61 2QS","propertyType":"Detached","oldOrNew":"Established","duration":"Freehold","paon":"112","saon":"","street":"CARDIGAN ROAD","locality":"HAVERFORDWEST","townOrCity":"HAVERFORDWEST","district":"SOUTH PEMBROKESHIRE","county":"DYFED","ppdCategoryType":"Standard","recordStatus":"Addition","latitude":51.814066,"longitude":-4.958602,"postcodeStart":"SA61 2","postcode":["SA61","2QS"]}
{"price":50000,"dateOfTransfer":"1995-10-27T00:00:00","postcodeFull":"SA61 2HP","propertyType":"Semi-detached","oldOrNew":"Established","duration":"Freehold","paon":"21","saon":"","street":"ST MARTINS PARK","locality":"HAVERFORDWEST","townOrCity":"HAVERFORDWEST","district":"PRESELI PEMBROKESHIRE","county":"DYFED","ppdCategoryType":"Standard","recordStatus":"Addition","latitude":51.809475,"longitude":-4.973376,"postcodeStart":"SA61 2","postcode":["SA61","2HP"]}
{"price":12000,"dateOfTransfer":"1995-12-07T00:00:00","postcodeFull":"SA61 2JD","propertyType":"Terraced","oldOrNew":"Established","duration":"Freehold","paon":"1","saon":"","street":"CHAPEL LANE","locality":"HAVERFORDWEST","townOrCity":"HAVERFORDWEST","district":"PRESELI PEMBROKESHIRE","county":"DYFED","ppdCategoryType":"Standard","recordStatus":"Addition","latitude":51.802901,"longitude":-4.972134,"postcodeStart":"SA61 2","postcode":["SA61","2JD"]}
{"price":44500,"dateOfTransfer":"1995-03-17T00:00:00","postcodeFull":"SA61 2HA","propertyType":"Semi-detached","oldOrNew":"Established","duration":"Freehold","paon":"37","saon":"","street":"REDHILL PARK","locality":"HAVERFORDWEST","townOrCity":"HAVERFORDWEST","district":"PRESELI PEMBROKESHIRE","county":"DYFED","ppdCategoryType":"Standard","recordStatus":"Addition","latitude":51.810668,"longitude":-4.973832,"postcodeStart":"SA61 2","postcode":["SA61","2HA"]}
{"price":58000,"dateOfTransfer":"1995-06-26T00:00:00","postcodeFull":"SA61 2PT","propertyType":"Detached","oldOrNew":"New build","duration":"Freehold","paon":"17","saon":"","street":"KINGSMERE CLOSE","locality":"HAVERFORDWEST","townOrCity":"HAVERFORDWEST","district":"PRESELI PEMBROKESHIRE","county":"DYFED","ppdCategoryType":"Standard","recordStatus":"Addition","latitude":51.816241,"longitude":-4.960619,"postcodeStart":"SA61 2","postcode":["SA61","2PT"]}
{"price":60000,"dateOfTransfer":"1995-03-10T00:00:00","postcodeFull":"SA61 2PT","propertyType":"Detached","oldOrNew":"New build","duration":"Freehold","paon":"11","saon":"","street":"KINGSMERE CLOSE","locality":"HAVERFORDWEST","townOrCity":"HAVERFORDWEST","district":"PRESELI PEMBROKESHIRE","county":"DYFED","ppdCategoryType":"Standard","recordStatus":"Addition","latitude":51.816241,"longitude":-4.960619,"postcodeStart":"SA61 2","postcode":["SA61","2PT"]}
{"price":28000,"dateOfTransfer":"1995-08-11T00:00:00","postcodeFull":"SA61 2PP","propertyType":"Terraced","oldOrNew":"Established","duration":"Freehold","paon":"78","saon":"","street":"PRENDERGAST","locality":"HAVERFORDWEST","townOrCity":"HAVERFORDWEST","district":"PRESELI PEMBROKESHIRE","county":"DYFED","ppdCategoryType":"Standard","recordStatus":"Addition","latitude":51.806517,"longitude":-4.965698,"postcodeStart":"SA61 2","postcode":["SA61","2PP"]}
{"price":28000,"dateOfTransfer":"1995-05-01T00:00:00","postcodeFull":"SA61 2TD","propertyType":"Terraced","oldOrNew":"Established","duration":"Freehold","paon":"207","saon":"","street":"NORTH COURT","locality":"HAVERFORDWEST","townOrCity":"HAVERFORDWEST","district":"PRESELI PEMBROKESHIRE","county":"DYFED","ppdCategoryType":"Standard","recordStatus":"Addition","latitude":51.8024,"longitude":-4.990595,"postcodeStart":"SA61 2","postcode":["SA61","2TD"]}
{"price":72000,"dateOfTransfer":"1995-04-07T00:00:00","postcodeFull":"SA61 2QJ","propertyType":"Detached","oldOrNew":"Established","duration":"Freehold","paon":"24","saon":"","street":"GREENFIELD CLOSE","locality":"HAVERFORDWEST","townOrCity":"HAVERFORDWEST","district":"PRESELI PEMBROKESHIRE","county":"DYFED","ppdCategoryType":"Standard","recordStatus":"Addition","latitude":51.810855,"longitude":-4.96038,"postcodeStart":"SA61 2","postcode":["SA61","2QJ"]}
{"price":21000,"dateOfTransfer":"1996-05-17T00:00:00","postcodeFull":"SA61 2ST","propertyType":"Flat/Maisonette/Townhouse","oldOrNew":"Established","duration":"Leasehold","paon":"20D","saon":"","street":"CITY ROAD","locality":"HAVERFORDWEST","townOrCity":"HAVERFORDWEST","district":"PEMBROKESHIRE","county":"PEMBROKESHIRE","ppdCategoryType":"Standard","recordStatus":"Addition","latitude":51.803044,"longitude":-4.974653,"postcodeStart":"SA61 2","postcode":["SA61","2ST"]}
{"price":31500,"dateOfTransfer":"1996-03-29T00:00:00","postcodeFull":"SA61 2JH","propertyType":"Terraced","oldOrNew":"Established","duration":"Freehold","paon":"1","saon":"","street":"CASTLE TERRACE","locality":"HAVERFORDWEST","townOrCity":"HAVERFORDWEST","district":"PEMBROKESHIRE","county":"PEMBROKESHIRE","ppdCategoryType":"Standard","recordStatus":"Addition","latitude":51.803145,"longitude":-4.971636,"postcodeStart":"SA61 2","postcode":["SA61","2JH"]}
{"price":36750,"dateOfTransfer":"1996-08-16T00:00:00","postcodeFull":"SA61 2EA","propertyType":"Terraced","oldOrNew":"Established","duration":"Freehold","paon":"21","saon":"","street":"CHURCH STREET","locality":"HAVERFORDWEST","townOrCity":"HAVERFORDWEST","district":"PEMBROKESHIRE","county":"PEMBROKESHIRE","ppdCategoryType":"Standard","recordStatus":"Addition","latitude":51.802362,"longitude":-4.971907,"postcodeStart":"SA61 2","postcode":["SA61","2EA"]}
{"price":32000,"dateOfTransfer":"1996-06-07T00:00:00","postcodeFull":"SA61 2PB","propertyType":"Semi-detached","oldOrNew":"Established","duration":"Freehold","paon":"9","saon":"","street":"QUEENSWAY","locality":"HAVERFORDWEST","townOrCity":"HAVERFORDWEST","district":"PEMBROKESHIRE","county":"PEMBROKESHIRE","ppdCategoryType":"Standard","recordStatus":"Addition","latitude":51.805482,"longitude":-4.965127,"postcodeStart":"SA61 2","postcode":["SA61","2PB"]}
{"price":23000,"dateOfTransfer":"1996-03-26T00:00:00","postcodeFull":"SA61 2TA","propertyType":"Terraced","oldOrNew":"Established","duration":"Freehold","paon":"114","saon":"","street":"WEST COURT","locality":"HAVERFORDWEST","townOrCity":"HAVERFORDWEST","district":"PEMBROKESHIRE","county":"PEMBROKESHIRE","ppdCategoryType":"Standard","recordStatus":"Addition","latitude":51.801686,"longitude":-4.991305,"postcodeStart":"SA61 2","postcode":["SA61","2TA"]}
{"price":22500,"dateOfTransfer":"1996-09-24T00:00:00","postcodeFull":"SA61 2DS","propertyType":"Terraced","oldOrNew":"Established","duration":"Freehold","paon":"7","saon":"","street":"DARK STREET","locality":"HAVERFORDWEST","townOrCity":"HAVERFORDWEST","district":"PEMBROKESHIRE","county":"PEMBROKESHIRE","ppdCategoryType":"Standard","recordStatus":"Addition","latitude":51.801611,"longitude":-4.971713,"postcodeStart":"SA61 2","postcode":["SA61","2DS"]}
{"price":40000,"dateOfTransfer":"1996-11-29T00:00:00","postcodeFull":"SA61 2PF","propertyType":"Terraced","oldOrNew":"Established","duration":"Freehold","paon":"NEW COTTAGE","saon":"","street":"PRENDERGAST","locality":"HAVERFORDWEST","townOrCity":"HAVERFORDWEST","district":"PEMBROKESHIRE","county":"PEMBROKESHIRE","ppdCategoryType":"Standard","recordStatus":"Addition","latitude":51.808586,"longitude":-4.963904,"postcodeStart":"SA61 2","postcode":["SA61","2PF"]}
{"price":44000,"dateOfTransfer":"1996-07-05T00:00:00","postcodeFull":"SA61 2PA","propertyType":"Semi-detached","oldOrNew":"Established","duration":"Freehold","paon":"12","saon":"","street":"THE RISE","locality":"","townOrCity":"HAVERFORDWEST","district":"PEMBROKESHIRE","county":"PEMBROKESHIRE","ppdCategoryType":"Standard","recordStatus":"Addition","latitude":51.804387,"longitude":-4.964905,"postcodeStart":"SA61 2","postcode":["SA61","2PA"]}
{"price":59000,"dateOfTransfer":"1996-10-29T00:00:00","postcodeFull":"SA61 2HX","propertyType":"Detached","oldOrNew":"Established","duration":"Freehold","paon":"STUDLEY","saon":"","street":"MEADOW VIEW","locality":"HAVERFORDWEST","townOrCity":"HAVERFORDWEST","district":"PEMBROKESHIRE","county":"PEMBROKESHIRE","ppdCategoryType":"Standard","recordStatus":"Addition","latitude":51.806751,"longitude":-4.972794,"postcodeStart":"SA61 2","postcode":["SA61","2HX"]}
{"price":90000,"dateOfTransfer":"1996-01-19T00:00:00","postcodeFull":"SA61 2DA","propertyType":"Terraced","oldOrNew":"Established","duration":"Freehold","paon":"14","saon":"","street":"HIGH STREET","locality":"","townOrCity":"HAVERFORDWEST","district":"PEMBROKESHIRE","county":"PEMBROKESHIRE","ppdCategoryType":"Standard","recordStatus":"Addition","latitude":51.801623,"longitude":-4.970019,"postcodeStart":"SA61 2","postcode":["SA61","2DA"]}
{"price":33000,"dateOfTransfer":"1996-12-20T00:00:00","postcodeFull":"SA61 2HY","propertyType":"Detached","oldOrNew":"Established","duration":"Freehold","paon":"50","saon":"","street":"SLADE LANE","locality":"HAVERFORDWEST","townOrCity":"HAVERFORDWEST","district":"PEMBROKESHIRE","county":"PEMBROKESHIRE","ppdCategoryType":"Standard","recordStatus":"Addition","latitude":51.806921,"longitude":-4.973893,"postcodeStart":"SA61 2","postcode":["SA61","2HY"]}
{"price":17000,"dateOfTransfer":"1996-03-29T00:00:00","postcodeFull":"SA61 2PF","propertyType":"Terraced","oldOrNew":"Established","duration":"Freehold","paon":"43","saon":"","street":"PRENDERGAST","locality":"HAVERFORDWEST","townOrCity":"HAVERFORDWEST","district":"PEMBROKESHIRE","county":"PEMBROKESHIRE","ppdCategoryType":"Standard","recordStatus":"Addition","latitude":51.808586,"longitude":-4.963904,"postcodeStart":"SA61 2","postcode":["SA61","2PF"]}
{"price":35000,"dateOfTransfer":"1996-06-21T00:00:00","postcodeFull":"SA61 2SA","propertyType":"Terraced","oldOrNew":"Established","duration":"Freehold","paon":"14","saon":"","street":"PRESCELLY ROAD","locality":"HAVERFORDWEST","townOrCity":"HAVERFORDWEST","district":"PEMBROKESHIRE","county":"PEMBROKESHIRE","ppdCategoryType":"Standard","recordStatus":"Addition","latitude":51.804629,"longitude":-4.977761,"postcodeStart":"SA61 2","postcode":["SA61","2SA"]}
{"price":14000,"dateOfTransfer":"1996-08-16T00:00:00","postcodeFull":"SA61 2TH","propertyType":"Flat/Maisonette/Townhouse","oldOrNew":"Established","duration":"Leasehold","paon":"CONNAUGHT COURT","saon":"FLAT 24","street":"CURLEW CLOSE","locality":"HAVERFORDWEST","townOrCity":"HAVERFORDWEST","district":"PEMBROKESHIRE","county":"PEMBROKESHIRE","ppdCategoryType":"Standard","recordStatus":"Addition","latitude":51.802619,"longitude":-4.988475,"postcodeStart":"SA61 2","postcode":["SA61","2TH"]}
{"price":22000,"dateOfTransfer":"1996-02-08T00:00:00","postcodeFull":"SA61 2QQ","propertyType":"Terraced","oldOrNew":"Established","duration":"Freehold","paon":"8","saon":"","street":"CARDIGAN ROAD","locality":"HAVERFORDWEST","townOrCity":"HAVERFORDWEST","district":"PEMBROKESHIRE","county":"PEMBROKESHIRE","ppdCategoryType":"Standard","recordStatus":"Addition","latitude":51.81022,"longitude":-4.962036,"postcodeStart":"SA61 2","postcode":["SA61","2QQ"]}
{"price":32500,"dateOfTransfer":"1996-03-11T00:00:00","postcodeFull":"SA61 2RE","propertyType":"Terraced","oldOrNew":"Established","duration":"Freehold","paon":"30","saon":"","street":"SCOTCHWELL VIEW","locality":"HAVERFORDWEST","townOrCity":"HAVERFORDWEST","district":"PRESELI PEMBROKESHIRE","county":"DYFED","ppdCategoryType":"Standard","recordStatus":"Addition","latitude":51.807667,"longitude":-4.961999,"postcodeStart":"SA61 2","postcode":["SA61","2RE"]}
{"price":38400,"dateOfTransfer":"1996-08-30T00:00:00","postcodeFull":"SA61 2RB","propertyType":"Semi-detached","oldOrNew":"Established","duration":"Freehold","paon":"27","saon":"","street":"STOKES AVENUE","locality":"HAVERFORDWEST","townOrCity":"HAVERFORDWEST","district":"PEMBROKESHIRE","county":"PEMBROKESHIRE","ppdCategoryType":"Standard","recordStatus":"Addition","latitude":51.808833,"longitude":-4.961222,"postcodeStart":"SA61 2","postcode":["SA61","2RB"]}
{"price":72000,"dateOfTransfer":"1996-05-23T00:00:00","postcodeFull":"SA61 2PT","propertyType":"Detached","oldOrNew":"Established","duration":"Freehold","paon":"9","saon":"","street":"KINGSMERE CLOSE","locality":"HAVERFORDWEST","townOrCity":"HAVERFORDWEST","district":"PEMBROKESHIRE","county":"PEMBROKESHIRE","ppdCategoryType":"Standard","recordStatus":"Addition","latitude":51.816241,"longitude":-4.960619,"postcodeStart":"SA61 2","postcode":["SA61","2PT"]}
{"price":35000,"dateOfTransfer":"1996-09-06T00:00:00","postcodeFull":"SA61 2HZ","propertyType":"Terraced","oldOrNew":"Established","duration":"Freehold","paon":"18","saon":"","street":"NORTH CRESCENT","locality":"HAVERFORDWEST","townOrCity":"HAVERFORDWEST","district":"PEMBROKESHIRE","county":"PEMBROKESHIRE","ppdCategoryType":"Standard","recordStatus":"Addition","latitude":51.804771,"longitude":-4.972141,"postcodeStart":"SA61 2","postcode":["SA61","2HZ"]}
{"price":72000,"dateOfTransfer":"1996-07-15T00:00:00","postcodeFull":"SA61 2PS","propertyType":"Detached","oldOrNew":"New build","duration":"Freehold","paon":"21","saon":"","street":"HERMITAGE GROVE","locality":"HAVERFORDWEST","townOrCity":"HAVERFORDWEST","district":"PEMBROKESHIRE","county":"PEMBROKESHIRE","ppdCategoryType":"Standard","recordStatus":"Addition","latitude":51.81551,"longitude":-4.959323,"postcodeStart":"SA61 2","postcode":["SA61","2PS"]}
{"price":37500,"dateOfTransfer":"1996-11-27T00:00:00","postcodeFull":"SA61 2HZ","propertyType":"Terraced","oldOrNew":"Established","duration":"Freehold","paon":"28","saon":"","street":"NORTH CRESCENT","locality":"HAVERFORDWEST","townOrCity":"HAVERFORDWEST","district":"PEMBROKESHIRE","county":"PEMBROKESHIRE","ppdCategoryType":"Standard","recordStatus":"Addition","latitude":51.804771,"longitude":-4.972141,"postcodeStart":"SA61 2","postcode":["SA61","2HZ"]}
{"price":54000,"dateOfTransfer":"1996-05-13T00:00:00","postcodeFull":"SA61 2QP","propertyType":"Detached","oldOrNew":"Established","duration":"Freehold","paon":"56","saon":"","street":"LINDSWAY PARK","locality":"HAVERFORDWEST","townOrCity":"HAVERFORDWEST","district":"PEMBROKESHIRE","county":"PEMBROKESHIRE","ppdCategoryType":"Standard","recordStatus":"Addition","latitude":51.812272,"longitude":-4.959123,"postcodeStart":"SA61 2","postcode":["SA61","2QP"]}
{"price":37000,"dateOfTransfer":"1996-07-31T00:00:00","postcodeFull":"SA61 2RE","propertyType":"Terraced","oldOrNew":"Established","duration":"Freehold","paon":"46","saon":"","street":"SCOTCHWELL VIEW","locality":"HAVERFORDWEST","townOrCity":"HAVERFORDWEST","district":"PEMBROKESHIRE","county":"PEMBROKESHIRE","ppdCategoryType":"Standard","recordStatus":"Addition","latitude":51.807667,"longitude":-4.961999,"postcodeStart":"SA61 2","postcode":["SA61","2RE"]}
{"price":59950,"dateOfTransfer":"1996-02-16T00:00:00","postcodeFull":"SA61 2SP","propertyType":"Detached","oldOrNew":"Established","duration":"Freehold","paon":"29","saon":"","street":"CASTLE HIGH","locality":"HAVERFORDWEST","townOrCity":"HAVERFORDWEST","district":"PRESELI PEMBROKESHIRE","county":"DYFED","ppdCategoryType":"Standard","recordStatus":"Addition","latitude":51.804388,"longitude":-4.97451,"postcodeStart":"SA61 2","postcode":["SA61","2SP"]}
{"price":43500,"dateOfTransfer":"1996-09-02T00:00:00","postcodeFull":"SA61 2JJ","propertyType":"Terraced","oldOrNew":"Established","duration":"Freehold","paon":"9","saon":"","street":"GLOUCESTER TERRACE","locality":"HAVERFORDWEST","townOrCity":"HAVERFORDWEST","district":"PEMBROKESHIRE","county":"PEMBROKESHIRE","ppdCategoryType":"Standard","recordStatus":"Addition","latitude":51.803551,"longitude":-4.970958,"postcodeStart":"SA61 2","postcode":["SA61","2JJ"]}
{"price":18000,"dateOfTransfer":"1996-05-03T00:00:00","postcodeFull":"SA61 2PH","propertyType":"Terraced","oldOrNew":"Established","duration":"Freehold","paon":"5","saon":"","street":"MAYORAL TERRACE","locality":"HAVERFORDWEST","townOrCity":"HAVERFORDWEST","district":"PEMBROKESHIRE","county":"PEMBROKESHIRE","ppdCategoryType":"Standard","recordStatus":"Addition","latitude":51.808619,"longitude":-4.964136,"postcodeStart":"SA61 2","postcode":["SA61","2PH"]}
{"price":54000,"dateOfTransfer":"1996-04-04T00:00:00","postcodeFull":"SA61 2PS","propertyType":"Semi-detached","oldOrNew":"Established","duration":"Freehold","paon":"15","saon":"","street":"HERMITAGE GROVE","locality":"HAVERFORDWEST","townOrCity":"HAVERFORDWEST","district":"PEMBROKESHIRE","county":"PEMBROKESHIRE","ppdCategoryType":"Standard","recordStatus":"Addition","latitude":51.81551,"longitude":-4.959323,"postcodeStart":"SA61 2","postcode":["SA61","2PS"]}
{"price":56000,"dateOfTransfer":"1996-12-16T00:00:00","postcodeFull":"SA61 2SP","propertyType":"Semi-detached","oldOrNew":"Established","duration":"Freehold","paon":"26","saon":"","street":"CASTLE HIGH","locality":"HAVERFORDWEST","townOrCity":"HAVERFORDWEST","district":"PEMBROKESHIRE","county":"PEMBROKESHIRE","ppdCategoryType":"Standard","recordStatus":"Addition","latitude":51.804388,"longitude":-4.97451,"postcodeStart":"SA61 2","postcode":["SA61","2SP"]}
{"price":40000,"dateOfTransfer":"1996-02-23T00:00:00","postcodeFull":"SA61 2PH","propertyType":"Terraced","oldOrNew":"Established","duration":"Freehold","paon":"8","saon":"","street":"MAYORAL TERRACE","locality":"HAVERFORDWEST","townOrCity":"HAVERFORDWEST","district":"PEMBROKESHIRE","county":"PEMBROKESHIRE","ppdCategoryType":"Standard","recordStatus":"Addition","latitude":51.808619,"longitude":-4.964136,"postcodeStart":"SA61 2","postcode":["SA61","2PH"]}
{"price":47500,"dateOfTransfer":"1996-06-28T00:00:00","postcodeFull":"SA61 2HP","propertyType":"Detached","oldOrNew":"Established","duration":"Freehold","paon":"20","saon":"","street":"ST MARTINS PARK","locality":"HAVERFORDWEST","townOrCity":"HAVERFORDWEST","district":"PEMBROKESHIRE","county":"PEMBROKESHIRE","ppdCategoryType":"Standard","recordStatus":"Addition","latitude":51.809475,"longitude":-4.973376,"postcodeStart":"SA61 2","postcode":["SA61","2HP"]}
{"price":31000,"dateOfTransfer":"1996-08-09T00:00:00","postcodeFull":"SA61 2SH","propertyType":"Terraced","oldOrNew":"Established","duration":"Freehold","paon":"22","saon":"","street":"FLEMING CRESCENT","locality":"HAVERFORDWEST","townOrCity":"HAVERFORDWEST","district":"PEMBROKESHIRE","county":"PEMBROKESHIRE","ppdCategoryType":"Standard","recordStatus":"Addition","latitude":51.805061,"longitude":-4.977191,"postcodeStart":"SA61 2","postcode":["SA61","2SH"]}
{"price":36500,"dateOfTransfer":"1996-08-14T00:00:00","postcodeFull":"SA61 2RR","propertyType":"Terraced","oldOrNew":"Established","duration":"Freehold","paon":"99","saon":"","street":"CITY ROAD","locality":"HAVERFORDWEST","townOrCity":"HAVERFORDWEST","district":"PEMBROKESHIRE","county":"PEMBROKESHIRE","ppdCategoryType":"Standard","recordStatus":"Addition","latitude":51.802609,"longitude":-4.977613,"postcodeStart":"SA61 2","postcode":["SA61","2RR"]}
{"price":44000,"dateOfTransfer":"1996-08-30T00:00:00","postcodeFull":"SA61 2LH","propertyType":"Terraced","oldOrNew":"Established","duration":"Freehold","paon":"58","saon":"","street":"CARTLETT","locality":"HAVERFORDWEST","townOrCity":"HAVERFORDWEST","district":"PEMBROKESHIRE","county":"PEMBROKESHIRE","ppdCategoryType":"Standard","recordStatus":"Addition","latitude":51.80253,"longitude":-4.962166,"postcodeStart":"SA61 2","postcode":["SA61","2LH"]}
{"price":42500,"dateOfTransfer":"1996-07-26T00:00:00","postcodeFull":"SA61 2HA","propertyType":"Terraced","oldOrNew":"Established","duration":"Freehold","paon":"30","saon":"","street":"REDHILL PARK","locality":"HAVERFORDWEST","townOrCity":"HAVERFORDWEST","district":"PEMBROKESHIRE","county":"PEMBROKESHIRE","ppdCategoryType":"Standard","recordStatus":"Addition","latitude":51.810668,"longitude":-4.973832,"postcodeStart":"SA61 2","postcode":["SA61","2HA"]}
{"price":72000,"dateOfTransfer":"1996-11-01T00:00:00","postcodeFull":"SA61 2HF","propertyType":"Detached","oldOrNew":"Established","duration":"Freehold","paon":"15","saon":"","street":"OAKWOOD GROVE","locality":"HAVERFORDWEST","townOrCity":"HAVERFORDWEST","district":"PEMBROKESHIRE","county":"PEMBROKESHIRE","ppdCategoryType":"Standard","recordStatus":"Addition","latitude":51.806086,"longitude":-4.974201,"postcodeStart":"SA61 2","postcode":["SA61","2HF"]}
{"price":89950,"dateOfTransfer":"1996-08-09T00:00:00","postcodeFull":"SA61 2PD","propertyType":"Detached","oldOrNew":"Established","duration":"Freehold","paon":"6","saon":"","street":"PARK ROAD","locality":"HAVERFORDWEST","townOrCity":"HAVERFORDWEST","district":"PEMBROKESHIRE","county":"PEMBROKESHIRE","ppdCategoryType":"Standard","recordStatus":"Addition","latitude":51.804987,"longitude":-4.965914,"postcodeStart":"SA61 2","postcode":["SA61","2PD"]}
{"price":42500,"dateOfTransfer":"1996-06-14T00:00:00","postcodeFull":"SA61 2PP","propertyType":"Terraced","oldOrNew":"Established","duration":"Freehold","paon":"26","saon":"","street":"PRENDERGAST","locality":"HAVERFORDWEST","townOrCity":"HAVERFORDWEST","district":"PEMBROKESHIRE","county":"PEMBROKESHIRE","ppdCategoryType":"Standard","recordStatus":"Addition","latitude":51.806517,"longitude":-4.965698,"postcodeStart":"SA61 2","postcode":["SA61","2PP"]}
{"price":17000,"dateOfTransfer":"1996-12-04T00:00:00","postcodeFull":"SA61 2HS","propertyType":"Flat/Maisonette/Townhouse","oldOrNew":"Established","duration":"Leasehold","paon":"149","saon":"","street":"SLADE LANE","locality":"HAVERFORDWEST","townOrCity":"HAVERFORDWEST","district":"PEMBROKESHIRE","county":"PEMBROKESHIRE","ppdCategoryType":"Standard","recordStatus":"Addition","latitude":51.808443,"longitude":-4.975618,"postcodeStart":"SA61 2","postcode":["SA61","2HS"]}
{"price":53000,"dateOfTransfer":"1996-10-15T00:00:00","postcodeFull":"SA61 2HP","propertyType":"Semi-detached","oldOrNew":"Established","duration":"Freehold","paon":"10","saon":"","street":"ST MARTINS PARK","locality":"HAVERFORDWEST","townOrCity":"HAVERFORDWEST","district":"PEMBROKESHIRE","county":"PEMBROKESHIRE","ppdCategoryType":"Standard","recordStatus":"Addition","latitude":51.809475,"longitude":-4.973376,"postcodeStart":"SA61 2","postcode":["SA61","2HP"]}
{"price":43000,"dateOfTransfer":"1996-05-29T00:00:00","postcodeFull":"SA61 2PP","propertyType":"Terraced","oldOrNew":"Established","duration":"Freehold","paon":"28","saon":"","street":"PRENDERGAST","locality":"HAVERFORDWEST","townOrCity":"HAVERFORDWEST","district":"PEMBROKESHIRE","county":"PEMBROKESHIRE","ppdCategoryType":"Standard","recordStatus":"Addition","latitude":51.806517,"longitude":-4.965698,"postcodeStart":"SA61 2","postcode":["SA61","2PP"]}
{"price":43000,"dateOfTransfer":"1996-10-02T00:00:00","postcodeFull":"SA61 2ED","propertyType":"Semi-detached","oldOrNew":"Established","duration":"Freehold","paon":"16","saon":"","street":"CASTLE STREET","locality":"HAVERFORDWEST","townOrCity":"HAVERFORDWEST","district":"PEMBROKESHIRE","county":"PEMBROKESHIRE","ppdCategoryType":"Standard","recordStatus":"Addition","latitude":51.802451,"longitude":-4.971246,"postcodeStart":"SA61 2","postcode":["SA61","2ED"]}
{"price":31000,"dateOfTransfer":"1996-03-24T00:00:00","postcodeFull":"SA61 2BB","propertyType":"Terraced","oldOrNew":"Established","duration":"Freehold","paon":"80","saon":"","street":"HAWTHORN RISE","locality":"HAVERFORDWEST","townOrCity":"HAVERFORDWEST","district":"PEMBROKESHIRE","county":"PEMBROKESHIRE","ppdCategoryType":"Standard","recordStatus":"Addition","latitude":51.800729,"longitude":-4.988409,"postcodeStart":"SA61 2","postcode":["SA61","2BB"]}
{"price":32000,"dateOfTransfer":"1996-10-14T00:00:00","postcodeFull":"SA61 2SH","propertyType":"Semi-detached","oldOrNew":"Established","duration":"Freehold","paon":"28","saon":"","street":"FLEMING CRESCENT","locality":"HAVERFORDWEST","townOrCity":"HAVERFORDWEST","district":"PEMBROKESHIRE","county":"PEMBROKESHIRE","ppdCategoryType":"Standard","recordStatus":"Addition","latitude":51.805061,"longitude":-4.977191,"postcodeStart":"SA61 2","postcode":["SA61","2SH"]}
{"price":47000,"dateOfTransfer":"1996-11-29T00:00:00","postcodeFull":"SA61 2SP","propertyType":"Semi-detached","oldOrNew":"Established","duration":"Freehold","paon":"25","saon":"","street":"CASTLE HIGH","locality":"HAVERFORDWEST","townOrCity":"HAVERFORDWEST","district":"PEMBROKESHIRE","county":"PEMBROKESHIRE","ppdCategoryType":"Standard","recordStatus":"Addition","latitude":51.804388,"longitude":-4.97451,"postcodeStart":"SA61 2","postcode":["SA61","2SP"]}
{"price":41500,"dateOfTransfer":"1996-07-15T00:00:00","postcodeFull":"SA61 2HL","propertyType":"Detached","oldOrNew":"Established","duration":"Freehold","paon":"BRAMBLE HEDGE","saon":"","street":"CROWHILL","locality":"","townOrCity":"HAVERFORDWEST","district":"PEMBROKESHIRE","county":"PEMBROKESHIRE","ppdCategoryType":"Standard","recordStatus":"Addition","latitude":51.806976,"longitude":-4.972097,"postcodeStart":"SA61 2","postcode":["SA61","2HL"]}
{"price":36000,"dateOfTransfer":"1996-09-30T00:00:00","postcodeFull":"SA61 2RG","propertyType":"Semi-detached","oldOrNew":"Established","duration":"Freehold","paon":"7","saon":"","street":"CORONATION AVENUE","locality":"HAVERFORDWEST","townOrCity":"HAVERFORDWEST","district":"PEMBROKESHIRE","county":"PEMBROKESHIRE","ppdCategoryType":"Standard","recordStatus":"Addition","latitude":51.80689,"longitude":-4.962328,"postcodeStart":"SA61 2","postcode":["SA61","2RG"]}
{"price":30600,"dateOfTransfer":"1996-02-16T00:00:00","postcodeFull":"SA61 2QQ","propertyType":"Semi-detached","oldOrNew":"Established","duration":"Freehold","paon":"SYCAMORE","saon":"","street":"CARDIGAN ROAD","locality":"","townOrCity":"HAVERFORDWEST","district":"PEMBROKESHIRE","county":"PEMBROKESHIRE","ppdCategoryType":"Standard","recordStatus":"Addition","latitude":51.81022,"longitude":-4.962036,"postcodeStart":"SA61 2","postcode":["SA61","2QQ"]}
{"price":69000,"dateOfTransfer":"1996-06-03T00:00:00","postcodeFull":"SA61 2HF","propertyType":"Detached","oldOrNew":"New build","duration":"Freehold","paon":"14","saon":"","street":"OAKWOOD GROVE","locality":"HAVERFORDWEST","townOrCity":"HAVERFORDWEST","district":"PEMBROKESHIRE","county":"PEMBROKESHIRE","ppdCategoryType":"Standard","recordStatus":"Addition","latitude":51.806086,"longitude":-4.974201,"postcodeStart":"SA61 2","postcode":["SA61","2HF"]}
{"price":29520,"dateOfTransfer":"1996-06-04T00:00:00","postcodeFull":"SA61 2PF","propertyType":"Terraced","oldOrNew":"Established","duration":"Freehold","paon":"39","saon":"","street":"PRENDERGAST","locality":"HAVERFORDWEST","townOrCity":"HAVERFORDWEST","district":"PEMBROKESHIRE","county":"PEMBROKESHIRE","ppdCategoryType":"Standard","recordStatus":"Addition","latitude":51.808586,"longitude":-4.963904,"postcodeStart":"SA61 2","postcode":["SA61","2PF"]}
{"price":49000,"dateOfTransfer":"1996-07-26T00:00:00","postcodeFull":"SA61 2SP","propertyType":"Semi-detached","oldOrNew":"Established","duration":"Freehold","paon":"46","saon":"","street":"CASTLE HIGH","locality":"HAVERFORDWEST","townOrCity":"HAVERFORDWEST","district":"PEMBROKESHIRE","county":"PEMBROKESHIRE","ppdCategoryType":"Standard","recordStatus":"Addition","latitude":51.804388,"longitude":-4.97451,"postcodeStart":"SA61 2","postcode":["SA61","2SP"]}
{"price":67500,"dateOfTransfer":"1996-06-28T00:00:00","postcodeFull":"SA61 2HA","propertyType":"Detached","oldOrNew":"New build","duration":"Freehold","paon":"53","saon":"","street":"REDHILL PARK","locality":"HAVERFORDWEST","townOrCity":"HAVERFORDWEST","district":"PEMBROKESHIRE","county":"PEMBROKESHIRE","ppdCategoryType":"Standard","recordStatus":"Addition","latitude":51.810668,"longitude":-4.973832,"postcodeStart":"SA61 2","postcode":["SA61","2HA"]}
{"price":39000,"dateOfTransfer":"1996-03-29T00:00:00","postcodeFull":"SA61 2NF","propertyType":"Terraced","oldOrNew":"Established","duration":"Freehold","paon":"20","saon":"","street":"PROSPECT PLACE","locality":"HAVERFORDWEST","townOrCity":"HAVERFORDWEST","district":"PEMBROKESHIRE","county":"PEMBROKESHIRE","ppdCategoryType":"Standard","recordStatus":"Addition","latitude":51.803696,"longitude":-4.965919,"postcodeStart":"SA61 2","postcode":["SA61","2NF"]}
{"price":75000,"dateOfTransfer":"1996-04-25T00:00:00","postcodeFull":"SA61 2TQ","propertyType":"Detached","oldOrNew":"Established","duration":"Freehold","paon":"35","saon":"","street":"DOUGLAS JAMES WAY","locality":"HAVERFORDWEST","townOrCity":"HAVERFORDWEST","district":"PEMBROKESHIRE","county":"PEMBROKESHIRE","ppdCategoryType":"Standard","recordStatus":"Addition","latitude":51.800984,"longitude":-4.992183,"postcodeStart":"SA61 2","postcode":["SA61","2TQ"]}
{"price":59000,"dateOfTransfer":"1996-09-11T00:00:00","postcodeFull":"SA61 2PS","propertyType":"Detached","oldOrNew":"Established","duration":"Freehold","paon":"17","saon":"","street":"HERMITAGE GROVE","locality":"HAVERFORDWEST","townOrCity":"HAVERFORDWEST","district":"PEMBROKESHIRE","county":"PEMBROKESHIRE","ppdCategoryType":"Standard","recordStatus":"Addition","latitude":51.81551,"longitude":-4.959323,"postcodeStart":"SA61 2","postcode":["SA61","2PS"]}
{"price":96000,"dateOfTransfer":"1996-09-20T00:00:00","postcodeFull":"SA61 2QF","propertyType":"Detached","oldOrNew":"Established","duration":"Freehold","paon":"37","saon":"","street":"HERITAGE PARK","locality":"HAVERFORDWEST","townOrCity":"HAVERFORDWEST","district":"PEMBROKESHIRE","county":"PEMBROKESHIRE","ppdCategoryType":"Standard","recordStatus":"Addition","latitude":51.814798,"longitude":-4.959712,"postcodeStart":"SA61 2","postcode":["SA61","2QF"]}
{"price":27950,"dateOfTransfer":"1996-06-21T00:00:00","postcodeFull":"SA61 2SD","propertyType":"Terraced","oldOrNew":"Established","duration":"Freehold","paon":"42","saon":"","street":"BARING GOULD WAY","locality":"HAVERFORDWEST","townOrCity":"HAVERFORDWEST","district":"PEMBROKESHIRE","county":"PEMBROKESHIRE","ppdCategoryType":"Standard","recordStatus":"Addition","latitude":51.804229,"longitude":-4.980056,"postcodeStart":"SA61 2","postcode":["SA61","2SD"]}
{"price":30000,"dateOfTransfer":"1996-09-13T00:00:00","postcodeFull":"SA61 2RR","propertyType":"Terraced","oldOrNew":"Established","duration":"Freehold","paon":"93","saon":"","street":"CITY ROAD","locality":"HAVERFORDWEST","townOrCity":"HAVERFORDWEST","district":"PEMBROKESHIRE","county":"PEMBROKESHIRE","ppdCategoryType":"Standard","recordStatus":"Addition","latitude":51.802609,"longitude":-4.977613,"postcodeStart":"SA61 2","postcode":["SA61","2RR"]}
{"price":34000,"dateOfTransfer":"1996-03-21T00:00:00","postcodeFull":"SA61 2RR","propertyType":"Terraced","oldOrNew":"Established","duration":"Freehold","paon":"107","saon":"","street":"CITY ROAD","locality":"HAVERFORDWEST","townOrCity":"HAVERFORDWEST","district":"PEMBROKESHIRE","county":"PEMBROKESHIRE","ppdCategoryType":"Standard","recordStatus":"Addition","latitude":51.802609,"longitude":-4.977613,"postcodeStart":"SA61 2","postcode":["SA61","2RR"]}
{"price":30000,"dateOfTransfer":"1996-03-11T00:00:00","postcodeFull":"SA61 2JN","propertyType":"Terraced","oldOrNew":"Established","duration":"Freehold","paon":"5","saon":"","street":"KILN ROAD","locality":"HAVERFORDWEST","townOrCity":"HAVERFORDWEST","district":"PEMBROKESHIRE","county":"PEMBROKESHIRE","ppdCategoryType":"Standard","recordStatus":"Addition","latitude":51.803919,"longitude":-4.970791,"postcodeStart":"SA61 2","postcode":["SA61","2JN"]}
{"price":33500,"dateOfTransfer":"1996-10-18T00:00:00","postcodeFull":"SA61 2PP","propertyType":"Terraced","oldOrNew":"Established","duration":"Freehold","paon":"96","saon":"","street":"PRENDERGAST","locality":"HAVERFORDWEST","townOrCity":"HAVERFORDWEST","district":"PEMBROKESHIRE","county":"PEMBROKESHIRE","ppdCategoryType":"Standard","recordStatus":"Addition","latitude":51.806517,"longitude":-4.965698,"postcodeStart":"SA61 2","postcode":["SA61","2PP"]}
{"price":37000,"dateOfTransfer":"1996-07-05T00:00:00","postcodeFull":"SA61 2RD","propertyType":"Terraced","oldOrNew":"Established","duration":"Freehold","paon":"67","saon":"","street":"SCOTCHWELL VIEW","locality":"HAVERFORDWEST","townOrCity":"HAVERFORDWEST","district":"PEMBROKESHIRE","county":"PEMBROKESHIRE","ppdCategoryType":"Standard","recordStatus":"Addition","latitude":51.807716,"longitude":-4.960769,"postcodeStart":"SA61 2","postcode":["SA61","2RD"]}
{"price":40000,"dateOfTransfer":"1996-02-23T00:00:00","postcodeFull":"SA61 2PN","propertyType":"Semi-detached","oldOrNew":"Established","duration":"Freehold","paon":"GLENALLT","saon":"","street":"JOCKEY FIELDS","locality":"HAVERFORDWEST","townOrCity":"HAVERFORDWEST","district":"PEMBROKESHIRE","county":"PEMBROKESHIRE","ppdCategoryType":"Standard","recordStatus":"Addition","latitude":51.80728,"longitude":-4.965734,"postcodeStart":"SA61 2","postcode":["SA61","2PN"]}
{"price":24000,"dateOfTransfer":"1996-10-24T00:00:00","postcodeFull":"SA61 2QX","propertyType":"Terraced","oldOrNew":"Established","duration":"Freehold","paon":"143","saon":"","street":"BACK LANE","locality":"HAVERFORDWEST","townOrCity":"HAVERFORDWEST","district":"PEMBROKESHIRE","county":"PEMBROKESHIRE","ppdCategoryType":"Standard","recordStatus":"Addition","latitude":51.808848,"longitude":-4.962961,"postcodeStart":"SA61 2","postcode":["SA61","2QX"]}
{"price":27000,"dateOfTransfer":"1996-05-10T00:00:00","postcodeFull":"SA61 2PJ","propertyType":"Terraced","oldOrNew":"Established","duration":"Freehold","paon":"140","saon":"","street":"PRENDERGAST","locality":"HAVERFORDWEST","townOrCity":"HAVERFORDWEST","district":"PEMBROKESHIRE","county":"PEMBROKESHIRE","ppdCategoryType":"Standard","recordStatus":"Addition","latitude":51.80825,"longitude":-4.964532,"postcodeStart":"SA61 2","postcode":["SA61","2PJ"]}
{"price":72000,"dateOfTransfer":"1996-10-29T00:00:00","postcodeFull":"SA61 2PS","propertyType":"Detached","oldOrNew":"Established","duration":"Freehold","paon":"23","saon":"","street":"HERMITAGE GROVE","locality":"HAVERFORDWEST","townOrCity":"HAVERFORDWEST","district":"PEMBROKESHIRE","county":"PEMBROKESHIRE","ppdCategoryType":"Standard","recordStatus":"Addition","latitude":51.81551,"longitude":-4.959323,"postcodeStart":"SA61 2","postcode":["SA61","2PS"]}
{"price":45000,"dateOfTransfer":"1996-06-21T00:00:00","postcodeFull":"SA61 2JJ","propertyType":"Terraced","oldOrNew":"Established","duration":"Freehold","paon":"10","saon":"","street":"GLOUCESTER TERRACE","locality":"HAVERFORDWEST","townOrCity":"HAVERFORDWEST","district":"PEMBROKESHIRE","county":"PEMBROKESHIRE","ppdCategoryType":"Standard","recordStatus":"Addition","latitude":51.803551,"longitude":-4.970958,"postcodeStart":"SA61 2","postcode":["SA61","2JJ"]}
{"price":50000,"dateOfTransfer":"1996-03-05T00:00:00","postcodeFull":"SA61 2QL","propertyType":"Semi-detached","oldOrNew":"Established","duration":"Freehold","paon":"5","saon":"","street":"SPRINGFIELD CLOSE","locality":"HAVERFORDWEST","townOrCity":"HAVERFORDWEST","district":"PRESELI PEMBROKESHIRE","county":"DYFED","ppdCategoryType":"Standard","recordStatus":"Addition","latitude":51.812408,"longitude":-4.96179,"postcodeStart":"SA61 2","postcode":["SA61","2QL"]}
{"price":15000,"dateOfTransfer":"1996-12-06T00:00:00","postcodeFull":"SA61 2JD","propertyType":"Terraced","oldOrNew":"Established","duration":"Freehold","paon":"1","saon":"","street":"CHAPEL LANE","locality":"HAVERFORDWEST","townOrCity":"HAVERFORDWEST","district":"PEMBROKESHIRE","county":"PEMBROKESHIRE","ppdCategoryType":"Standard","recordStatus":"Addition","latitude":51.802901,"longitude":-4.972134,"postcodeStart":"SA61 2","postcode":["SA61","2JD"]}
{"price":59000,"dateOfTransfer":"1996-08-02T00:00:00","postcodeFull":"SA61 2PS","propertyType":"Detached","oldOrNew":"Established","duration":"Freehold","paon":"19","saon":"","street":"HERMITAGE GROVE","locality":"HAVERFORDWEST","townOrCity":"HAVERFORDWEST","district":"PEMBROKESHIRE","county":"PEMBROKESHIRE","ppdCategoryType":"Standard","recordStatus":"Addition","latitude":51.81551,"longitude":-4.959323,"postcodeStart":"SA61 2","postcode":["SA61","2PS"]}
{"price":42000,"dateOfTransfer":"1996-07-26T00:00:00","postcodeFull":"SA61 2HA","propertyType":"Terraced","oldOrNew":"Established","duration":"Freehold","paon":"45","saon":"","street":"REDHILL PARK","locality":"HAVERFORDWEST","townOrCity":"HAVERFORDWEST","district":"PEMBROKESHIRE","county":"PEMBROKESHIRE","ppdCategoryType":"Standard","recordStatus":"Addition","latitude":51.810668,"longitude":-4.973832,"postcodeStart":"SA61 2","postcode":["SA61","2HA"]}
{"price":15950,"dateOfTransfer":"1997-11-25T00:00:00","postcodeFull":"SA61 2TY","propertyType":"Flat/Maisonette/Townhouse","oldOrNew":"New build","duration":"Leasehold","paon":"3","saon":"","street":"GOSHAWK ROAD","locality":"HAVERFORDWEST","townOrCity":"HAVERFORDWEST","district":"PEMBROKESHIRE","county":"PEMBROKESHIRE","ppdCategoryType":"Standard","recordStatus":"Addition","latitude":51.803403,"longitude":-4.984046,"postcodeStart":"SA61 2","postcode":["SA61","2TY"]}
{"price":14950,"dateOfTransfer":"1997-12-10T00:00:00","postcodeFull":"SA61 2UB","propertyType":"Flat/Maisonette/Townhouse","oldOrNew":"New build","duration":"Leasehold","paon":"12","saon":"","street":"GOSHAWK ROAD","locality":"HAVERFORDWEST","townOrCity":"HAVERFORDWEST","district":"PEMBROKESHIRE","county":"PEMBROKESHIRE","ppdCategoryType":"Standard","recordStatus":"Addition","latitude":51.804106,"longitude":-4.984005,"postcodeStart":"SA61 2","postcode":["SA61","2UB"]}
{"price":14950,"dateOfTransfer":"1997-12-15T00:00:00","postcodeFull":"SA61 2TY","propertyType":"Flat/Maisonette/Townhouse","oldOrNew":"New build","duration":"Leasehold","paon":"11","saon":"","street":"GOSHAWK ROAD","locality":"HAVERFORDWEST","townOrCity":"HAVERFORDWEST","district":"PEMBROKESHIRE","county":"PEMBROKESHIRE","ppdCategoryType":"Standard","recordStatus":"Addition","latitude":51.803403,"longitude":-4.984046,"postcodeStart":"SA61 2","postcode":["SA61","2TY"]}
{"price":80000,"dateOfTransfer":"1997-07-21T00:00:00","postcodeFull":"SA61 2NU","propertyType":"Detached","oldOrNew":"Established","duration":"Freehold","paon":"43","saon":"","street":"QUEENSWAY","locality":"HAVERFORDWEST","townOrCity":"HAVERFORDWEST","district":"PEMBROKESHIRE","county":"PEMBROKESHIRE","ppdCategoryType":"Standard","recordStatus":"Addition","latitude":51.804325,"longitude":-4.963259,"postcodeStart":"SA61 2","postcode":["SA61","2NU"]}
{"price":36500,"dateOfTransfer":"1997-05-23T00:00:00","postcodeFull":"SA61 2RP","propertyType":"Terraced","oldOrNew":"Established","duration":"Freehold","paon":"17","saon":"","street":"RACKHILL TERRACE","locality":"HAVERFORDWEST","townOrCity":"HAVERFORDWEST","district":"PEMBROKESHIRE","county":"PEMBROKESHIRE","ppdCategoryType":"Standard","recordStatus":"Addition","latitude":51.802207,"longitude":-4.979632,"postcodeStart":"SA61 2","postcode":["SA61","2RP"]}
{"price":37500,"dateOfTransfer":"1997-12-18T00:00:00","postcodeFull":"SA61 2TS","propertyType":"Semi-detached","oldOrNew":"Established","duration":"Freehold","paon":"7","saon":"","street":"KESTREL ROAD","locality":"HAVERFORDWEST","townOrCity":"HAVERFORDWEST","district":"PEMBROKESHIRE","county":"PEMBROKESHIRE","ppdCategoryType":"Standard","recordStatus":"Addition","latitude":51.801998,"longitude":-4.984276,"postcodeStart":"SA61 2","postcode":["SA61","2TS"]}
{"price":52000,"dateOfTransfer":"1997-07-14T00:00:00","postcodeFull":"SA61 2QU","propertyType":"Semi-detached","oldOrNew":"Established","duration":"Freehold","paon":"4","saon":"","street":"TAN BANK","locality":"HAVERFORDWEST","townOrCity":"HAVERFORDWEST","district":"PEMBROKESHIRE","county":"PEMBROKESHIRE","ppdCategoryType":"Standard","recordStatus":"Addition","latitude":51.809547,"longitude":-4.962183,"postcodeStart":"SA61 2","postcode":["SA61","2QU"]}
{"price":28950,"dateOfTransfer":"1997-11-14T00:00:00","postcodeFull":"SA61 2UD","propertyType":"Terraced","oldOrNew":"New build","duration":"Freehold","paon":"20","saon":"","street":"TRAFALGAR ROAD","locality":"HAVERFORDWEST","townOrCity":"HAVERFORDWEST","district":"PEMBROKESHIRE","county":"PEMBROKESHIRE","ppdCategoryType":"Standard","recordStatus":"Addition","latitude":51.802973,"longitude":-4.984528,"postcodeStart":"SA61 2","postcode":["SA61","2UD"]}
{"price":40000,"dateOfTransfer":"1997-08-01T00:00:00","postcodeFull":"SA61 2NF","propertyType":"Terraced","oldOrNew":"Established","duration":"Freehold","paon":"20","saon":"","street":"PROSPECT PLACE","locality":"HAVERFORDWEST","townOrCity":"HAVERFORDWEST","district":"PEMBROKESHIRE","county":"PEMBROKESHIRE","ppdCategoryType":"Standard","recordStatus":"Addition","latitude":51.803696,"longitude":-4.965919,"postcodeStart":"SA61 2","postcode":["SA61","2NF"]}
{"price":75000,"dateOfTransfer":"1997-11-28T00:00:00","postcodeFull":"SA61 2PS","propertyType":"Detached","oldOrNew":"New build","duration":"Freehold","paon":"31","saon":"","street":"HERMITAGE GROVE","locality":"HAVERFORDWEST","townOrCity":"HAVERFORDWEST","district":"PEMBROKESHIRE","county":"PEMBROKESHIRE","ppdCategoryType":"Standard","recordStatus":"Addition","latitude":51.81551,"longitude":-4.959323,"postcodeStart":"SA61 2","postcode":["SA61","2PS"]}
{"price":42000,"dateOfTransfer":"1997-04-02T00:00:00","postcodeFull":"SA61 2ED","propertyType":"Terraced","oldOrNew":"Established","duration":"Freehold","paon":"18","saon":"","street":"CASTLE STREET","locality":"HAVERFORDWEST","townOrCity":"HAVERFORDWEST","district":"PEMBROKESHIRE","county":"PEMBROKESHIRE","ppdCategoryType":"Standard","recordStatus":"Addition","latitude":51.802451,"longitude":-4.971246,"postcodeStart":"SA61 2","postcode":["SA61","2ED"]}
{"price":48000,"dateOfTransfer":"1997-12-23T00:00:00","postcodeFull":"SA61 2RB","propertyType":"Semi-detached","oldOrNew":"Established","duration":"Freehold","paon":"5","saon":"","street":"STOKES AVENUE","locality":"HAVERFORDWEST","townOrCity":"HAVERFORDWEST","district":"PEMBROKESHIRE","county":"PEMBROKESHIRE","ppdCategoryType":"Standard","recordStatus":"Addition","latitude":51.808833,"longitude":-4.961222,"postcodeStart":"SA61 2","postcode":["SA61","2RB"]}
{"price":31000,"dateOfTransfer":"1997-10-10T00:00:00","postcodeFull":"SA61 2RE","propertyType":"Terraced","oldOrNew":"Established","duration":"Freehold","paon":"24","saon":"","street":"SCOTCHWELL VIEW","locality":"HAVERFORDWEST","townOrCity":"HAVERFORDWEST","district":"PEMBROKESHIRE","county":"PEMBROKESHIRE","ppdCategoryType":"Standard","recordStatus":"Addition","latitude":51.807667,"longitude":-4.961999,"postcodeStart":"SA61 2","postcode":["SA61","2RE"]}
{"price":31000,"dateOfTransfer":"1997-10-16T00:00:00","postcodeFull":"SA61 2TB","propertyType":"Terraced","oldOrNew":"Established","duration":"Freehold","paon":"29","saon":"","street":"SOUTH COURT","locality":"HAVERFORDWEST","townOrCity":"HAVERFORDWEST","district":"PEMBROKESHIRE","county":"PEMBROKESHIRE","ppdCategoryType":"Standard","recordStatus":"Addition","latitude":51.801817,"longitude":-4.990037,"postcodeStart":"SA61 2","postcode":["SA61","2TB"]}
{"price":48000,"dateOfTransfer":"1997-11-07T00:00:00","postcodeFull":"SA61 2SP","propertyType":"Semi-detached","oldOrNew":"Established","duration":"Freehold","paon":"38","saon":"","street":"CASTLE HIGH","locality":"HAVERFORDWEST","townOrCity":"HAVERFORDWEST","district":"PEMBROKESHIRE","county":"PEMBROKESHIRE","ppdCategoryType":"Standard","recordStatus":"Addition","latitude":51.804388,"longitude":-4.97451,"postcodeStart":"SA61 2","postcode":["SA61","2SP"]}
{"price":37500,"dateOfTransfer":"1997-02-27T00:00:00","postcodeFull":"SA61 2RB","propertyType":"Semi-detached","oldOrNew":"Established","duration":"Freehold","paon":"10","saon":"","street":"STOKES AVENUE","locality":"HAVERFORDWEST","townOrCity":"HAVERFORDWEST","district":"PEMBROKESHIRE","county":"PEMBROKESHIRE","ppdCategoryType":"Standard","recordStatus":"Addition","latitude":51.808833,"longitude":-4.961222,"postcodeStart":"SA61 2","postcode":["SA61","2RB"]}
{"price":27950,"dateOfTransfer":"1997-11-10T00:00:00","postcodeFull":"SA61 2UD","propertyType":"Terraced","oldOrNew":"New build","duration":"Freehold","paon":"14","saon":"","street":"TRAFALGAR ROAD","locality":"HAVERFORDWEST","townOrCity":"HAVERFORDWEST","district":"PEMBROKESHIRE","county":"PEMBROKESHIRE","ppdCategoryType":"Standard","recordStatus":"Addition","latitude":51.802973,"longitude":-4.984528,"postcodeStart":"SA61 2","postcode":["SA61","2UD"]}
{"price":43950,"dateOfTransfer":"1997-12-29T00:00:00","postcodeFull":"SA61 2UE","propertyType":"Semi-detached","oldOrNew":"New build","duration":"Freehold","paon":"2","saon":"","street":"FALCON ROAD","locality":"HAVERFORDWEST","townOrCity":"HAVERFORDWEST","district":"PEMBROKESHIRE","county":"PEMBROKESHIRE","ppdCategoryType":"Standard","recordStatus":"Addition","latitude":51.80293,"longitude":-4.982477,"postcodeStart":"SA61 2","postcode":["SA61","2UE"]}
{"price":17000,"dateOfTransfer":"1997-11-24T00:00:00","postcodeFull":"SA61 2RR","propertyType":"Semi-detached","oldOrNew":"Established","duration":"Freehold","paon":"70","saon":"","street":"CITY ROAD","locality":"HAVERFORDWEST","townOrCity":"HAVERFORDWEST","district":"PEMBROKESHIRE","county":"PEMBROKESHIRE","ppdCategoryType":"Standard","recordStatus":"Addition","latitude":51.802609,"longitude":-4.977613,"postcodeStart":"SA61 2","postcode":["SA61","2RR"]}
{"price":28950,"dateOfTransfer":"1997-12-11T00:00:00","postcodeFull":"SA61 2UD","propertyType":"Terraced","oldOrNew":"New build","duration":"Freehold","paon":"2","saon":"","street":"TRAFALGAR ROAD","locality":"HAVERFORDWEST","townOrCity":"HAVERFORDWEST","district":"PEMBROKESHIRE","county":"PEMBROKESHIRE","ppdCategoryType":"Standard","recordStatus":"Addition","latitude":51.802973,"longitude":-4.984528,"postcodeStart":"SA61 2","postcode":["SA61","2UD"]}
{"price":31750,"dateOfTransfer":"1997-11-14T00:00:00","postcodeFull":"SA61 2SB","propertyType":"Semi-detached","oldOrNew":"Established","duration":"Freehold","paon":"45","saon":"","street":"BARING GOULD WAY","locality":"HAVERFORDWEST","townOrCity":"HAVERFORDWEST","district":"PEMBROKESHIRE","county":"PEMBROKESHIRE","ppdCategoryType":"Standard","recordStatus":"Addition","latitude":51.803937,"longitude":-4.979308,"postcodeStart":"SA61 2","postcode":["SA61","2SB"]}
{"price":49000,"dateOfTransfer":"1997-07-31T00:00:00","postcodeFull":"SA61 2HR","propertyType":"Semi-detached","oldOrNew":"Established","duration":"Freehold","paon":"62","saon":"","street":"ST MARTINS PARK","locality":"HAVERFORDWEST","townOrCity":"HAVERFORDWEST","district":"PEMBROKESHIRE","county":"PEMBROKESHIRE","ppdCategoryType":"Standard","recordStatus":"Addition","latitude":51.808862,"longitude":-4.97306,"postcodeStart":"SA61 2","postcode":["SA61","2HR"]}
{"price":17500,"dateOfTransfer":"1997-12-11T00:00:00","postcodeFull":"SA61 2TY","propertyType":"Flat/Maisonette/Townhouse","oldOrNew":"New build","duration":"Leasehold","paon":"15","saon":"","street":"GOSHAWK ROAD","locality":"HAVERFORDWEST","townOrCity":"HAVERFORDWEST","district":"PEMBROKESHIRE","county":"PEMBROKESHIRE","ppdCategoryType":"Standard","recordStatus":"Addition","latitude":51.803403,"longitude":-4.984046,"postcodeStart":"SA61 2","postcode":["SA61","2TY"]}
{"price":82000,"dateOfTransfer":"1997-10-15T00:00:00","postcodeFull":"SA61 2TQ","propertyType":"Detached","oldOrNew":"Established","duration":"Freehold","paon":"31","saon":"","street":"DOUGLAS JAMES WAY","locality":"HAVERFORDWEST","townOrCity":"HAVERFORDWEST","district":"PEMBROKESHIRE","county":"PEMBROKESHIRE","ppdCategoryType":"Standard","recordStatus":"Addition","latitude":51.800984,"longitude":-4.992183,"postcodeStart":"SA61 2","postcode":["SA61","2TQ"]}
{"price":62000,"dateOfTransfer":"1997-08-29T00:00:00","postcodeFull":"SA61 2PB","propertyType":"Semi-detached","oldOrNew":"Established","duration":"Freehold","paon":"29","saon":"","street":"QUEENSWAY","locality":"HAVERFORDWEST","townOrCity":"HAVERFORDWEST","district":"PEMBROKESHIRE","county":"PEMBROKESHIRE","ppdCategoryType":"Standard","recordStatus":"Addition","latitude":51.805482,"longitude":-4.965127,"postcodeStart":"SA61 2","postcode":["SA61","2PB"]}
{"price":14950,"dateOfTransfer":"1997-12-19T00:00:00","postcodeFull":"SA61 2UB","propertyType":"Flat/Maisonette/Townhouse","oldOrNew":"New build","duration":"Leasehold","paon":"24","saon":"","street":"GOSHAWK ROAD","locality":"HAVERFORDWEST","townOrCity":"HAVERFORDWEST","district":"PEMBROKESHIRE","county":"PEMBROKESHIRE","ppdCategoryType":"Standard","recordStatus":"Addition","latitude":51.804106,"longitude":-4.984005,"postcodeStart":"SA61 2","postcode":["SA61","2UB"]}
{"price":61000,"dateOfTransfer":"1997-02-14T00:00:00","postcodeFull":"SA61 2HY","propertyType":"Detached","oldOrNew":"Established","duration":"Freehold","paon":"BROOKLEA","saon":"","street":"SLADE LANE","locality":"HAVERFORDWEST","townOrCity":"HAVERFORDWEST","district":"PEMBROKESHIRE","county":"PEMBROKESHIRE","ppdCategoryType":"Standard","recordStatus":"Addition","latitude":51.806921,"longitude":-4.973893,"postcodeStart":"SA61 2","postcode":["SA61","2HY"]}
{"price":36000,"dateOfTransfer":"1997-05-09T00:00:00","postcodeFull":"SA61 2SN","propertyType":"Semi-detached","oldOrNew":"Established","duration":"Freehold","paon":"15","saon":"","street":"BARING GOULD WAY","locality":"HAVERFORDWEST","townOrCity":"HAVERFORDWEST","district":"PEMBROKESHIRE","county":"PEMBROKESHIRE","ppdCategoryType":"Standard","recordStatus":"Addition","latitude":51.804313,"longitude":-4.975851,"postcodeStart":"SA61 2","postcode":["SA61","2SN"]}
{"price":70000,"dateOfTransfer":"1997-01-28T00:00:00","postcodeFull":"SA61 2HA","propertyType":"Detached","oldOrNew":"New build","duration":"Freehold","paon":"22","saon":"","street":"REDHILL PARK","locality":"HAVERFORDWEST","townOrCity":"HAVERFORDWEST","district":"PEMBROKESHIRE","county":"PEMBROKESHIRE","ppdCategoryType":"Standard","recordStatus":"Addition","latitude":51.810668,"longitude":-4.973832,"postcodeStart":"SA61 2","postcode":["SA61","2HA"]}
{"price":72500,"dateOfTransfer":"1997-10-20T00:00:00","postcodeFull":"SA61 2PS","propertyType":"Detached","oldOrNew":"New build","duration":"Freehold","paon":"25","saon":"","street":"HERMITAGE GROVE","locality":"HAVERFORDWEST","townOrCity":"HAVERFORDWEST","district":"PEMBROKESHIRE","county":"PEMBROKESHIRE","ppdCategoryType":"Standard","recordStatus":"Addition","latitude":51.81551,"longitude":-4.959323,"postcodeStart":"SA61 2","postcode":["SA61","2PS"]}
{"price":55000,"dateOfTransfer":"1997-07-18T00:00:00","postcodeFull":"SA61 2HA","propertyType":"Semi-detached","oldOrNew":"Established","duration":"Freehold","paon":"29","saon":"","street":"REDHILL PARK","locality":"HAVERFORDWEST","townOrCity":"HAVERFORDWEST","district":"PEMBROKESHIRE","county":"PEMBROKESHIRE","ppdCategoryType":"Standard","recordStatus":"Addition","latitude":51.810668,"longitude":-4.973832,"postcodeStart":"SA61 2","postcode":["SA61","2HA"]}
{"price":59000,"dateOfTransfer":"1997-04-29T00:00:00","postcodeFull":"SA61 2QP","propertyType":"Detached","oldOrNew":"Established","duration":"Freehold","paon":"9","saon":"","street":"LINDSWAY PARK","locality":"HAVERFORDWEST","townOrCity":"HAVERFORDWEST","district":"PEMBROKESHIRE","county":"PEMBROKESHIRE","ppdCategoryType":"Standard","recordStatus":"Addition","latitude":51.812272,"longitude":-4.959123,"postcodeStart":"SA61 2","postcode":["SA61","2QP"]}
{"price":40000,"dateOfTransfer":"1997-11-28T00:00:00","postcodeFull":"SA61 2TS","propertyType":"Detached","oldOrNew":"New build","duration":"Freehold","paon":"5","saon":"","street":"KESTREL ROAD","locality":"HAVERFORDWEST","townOrCity":"HAVERFORDWEST","district":"PEMBROKESHIRE","county":"PEMBROKESHIRE","ppdCategoryType":"Standard","recordStatus":"Addition","latitude":51.801998,"longitude":-4.984276,"postcodeStart":"SA61 2","postcode":["SA61","2TS"]}
{"price":60000,"dateOfTransfer":"1997-01-24T00:00:00","postcodeFull":"SA61 2NU","propertyType":"Semi-detached","oldOrNew":"Established","duration":"Freehold","paon":"18","saon":"","street":"QUEENSWAY","locality":"HAVERFORDWEST","townOrCity":"HAVERFORDWEST","district":"PEMBROKESHIRE","county":"PEMBROKESHIRE","ppdCategoryType":"Standard","recordStatus":"Addition","latitude":51.804325,"longitude":-4.963259,"postcodeStart":"SA61 2","postcode":["SA61","2NU"]}
{"price":72000,"dateOfTransfer":"1997-08-15T00:00:00","postcodeFull":"SA61 2JH","propertyType":"Terraced","oldOrNew":"Established","duration":"Freehold","paon":"3","saon":"","street":"CASTLE TERRACE","locality":"HAVERFORDWEST","townOrCity":"HAVERFORDWEST","district":"PEMBROKESHIRE","county":"PEMBROKESHIRE","ppdCategoryType":"Standard","recordStatus":"Addition","latitude":51.803145,"longitude":-4.971636,"postcodeStart":"SA61 2","postcode":["SA61","2JH"]}
{"price":40000,"dateOfTransfer":"1997-11-05T00:00:00","postcodeFull":"SA61 2TS","propertyType":"Detached","oldOrNew":"New build","duration":"Freehold","paon":"1","saon":"","street":"KESTREL ROAD","locality":"HAVERFORDWEST","townOrCity":"HAVERFORDWEST","district":"PEMBROKESHIRE","county":"PEMBROKESHIRE","ppdCategoryType":"Standard","recordStatus":"Addition","latitude":51.801998,"longitude":-4.984276,"postcodeStart":"SA61 2","postcode":["SA61","2TS"]}
{"price":36000,"dateOfTransfer":"1997-10-24T00:00:00","postcodeFull":"SA61 2SB","propertyType":"Semi-detached","oldOrNew":"Established","duration":"Freehold","paon":"91","saon":"","street":"BARING GOULD WAY","locality":"HAVERFORDWEST","townOrCity":"HAVERFORDWEST","district":"PEMBROKESHIRE","county":"PEMBROKESHIRE","ppdCategoryType":"Standard","recordStatus":"Addition","latitude":51.803937,"longitude":-4.979308,"postcodeStart":"SA61 2","postcode":["SA61","2SB"]}
{"price":37000,"dateOfTransfer":"1997-11-21T00:00:00","postcodeFull":"SA61 2QX","propertyType":"Terraced","oldOrNew":"Established","duration":"Freehold","paon":"141","saon":"","street":"BACK LANE","locality":"HAVERFORDWEST","townOrCity":"HAVERFORDWEST","district":"PEMBROKESHIRE","county":"PEMBROKESHIRE","ppdCategoryType":"Standard","recordStatus":"Addition","latitude":51.808848,"longitude":-4.962961,"postcodeStart":"SA61 2","postcode":["SA61","2QX"]}
{"price":75250,"dateOfTransfer":"1997-08-07T00:00:00","postcodeFull":"SA61 2QF","propertyType":"Detached","oldOrNew":"Established","duration":"Freehold","paon":"5","saon":"","street":"HERITAGE PARK","locality":"HAVERFORDWEST","townOrCity":"HAVERFORDWEST","district":"PEMBROKESHIRE","county":"PEMBROKESHIRE","ppdCategoryType":"Standard","recordStatus":"Addition","latitude":51.814798,"longitude":-4.959712,"postcodeStart":"SA61 2","postcode":["SA61","2QF"]}
{"price":27950,"dateOfTransfer":"1997-12-12T00:00:00","postcodeFull":"SA61 2UD","propertyType":"Terraced","oldOrNew":"New build","duration":"Freehold","paon":"18","saon":"","street":"TRAFALGAR ROAD","locality":"HAVERFORDWEST","townOrCity":"HAVERFORDWEST","district":"PEMBROKESHIRE","county":"PEMBROKESHIRE","ppdCategoryType":"Standard","recordStatus":"Addition","latitude":51.802973,"longitude":-4.984528,"postcodeStart":"SA61 2","postcode":["SA61","2UD"]}
{"price":15000,"dateOfTransfer":"1997-12-05T00:00:00","postcodeFull":"SA61 2TY","propertyType":"Flat/Maisonette/Townhouse","oldOrNew":"New build","duration":"Leasehold","paon":"5","saon":"","street":"GOSHAWK ROAD","locality":"HAVERFORDWEST","townOrCity":"HAVERFORDWEST","district":"PEMBROKESHIRE","county":"PEMBROKESHIRE","ppdCategoryType":"Standard","recordStatus":"Addition","latitude":51.803403,"longitude":-4.984046,"postcodeStart":"SA61 2","postcode":["SA61","2TY"]}
{"price":33000,"dateOfTransfer":"1997-02-24T00:00:00","postcodeFull":"SA61 2RD","propertyType":"Terraced","oldOrNew":"Established","duration":"Freehold","paon":"55","saon":"","street":"SCOTCHWELL VIEW","locality":"HAVERFORDWEST","townOrCity":"HAVERFORDWEST","district":"PEMBROKESHIRE","county":"PEMBROKESHIRE","ppdCategoryType":"Standard","recordStatus":"Addition","latitude":51.807716,"longitude":-4.960769,"postcodeStart":"SA61 2","postcode":["SA61","2RD"]}
{"price":35000,"dateOfTransfer":"1997-08-27T00:00:00","postcodeFull":"SA61 2TR","propertyType":"Semi-detached","oldOrNew":"Established","duration":"Freehold","paon":"1","saon":"","street":"TRAFALGAR ROAD","locality":"HAVERFORDWEST","townOrCity":"HAVERFORDWEST","district":"PEMBROKESHIRE","county":"PEMBROKESHIRE","ppdCategoryType":"Standard","recordStatus":"Addition","latitude":51.802436,"longitude":-4.984449,"postcodeStart":"SA61 2","postcode":["SA61","2TR"]}
{"price":36000,"dateOfTransfer":"1997-11-03T00:00:00","postcodeFull":"SA61 2TS","propertyType":"Semi-detached","oldOrNew":"New build","duration":"Freehold","paon":"2","saon":"","street":"KESTREL ROAD","locality":"HAVERFORDWEST","townOrCity":"HAVERFORDWEST","district":"PEMBROKESHIRE","county":"PEMBROKESHIRE","ppdCategoryType":"Standard","recordStatus":"Addition","latitude":51.801998,"longitude":-4.984276,"postcodeStart":"SA61 2","postcode":["SA61","2TS"]}
{"price":76000,"dateOfTransfer":"1997-07-04T00:00:00","postcodeFull":"SA61 2PS","propertyType":"Detached","oldOrNew":"Established","duration":"Freehold","paon":"16","saon":"","street":"HERMITAGE GROVE","locality":"HAVERFORDWEST","townOrCity":"HAVERFORDWEST","district":"PEMBROKESHIRE","county":"PEMBROKESHIRE","ppdCategoryType":"Standard","recordStatus":"Addition","latitude":51.81551,"longitude":-4.959323,"postcodeStart":"SA61 2","postcode":["SA61","2PS"]}
{"price":17500,"dateOfTransfer":"1997-12-19T00:00:00","postcodeFull":"SA61 2TY","propertyType":"Flat/Maisonette/Townhouse","oldOrNew":"New build","duration":"Leasehold","paon":"17","saon":"","street":"GOSHAWK ROAD","locality":"HAVERFORDWEST","townOrCity":"HAVERFORDWEST","district":"PEMBROKESHIRE","county":"PEMBROKESHIRE","ppdCategoryType":"Standard","recordStatus":"Addition","latitude":51.803403,"longitude":-4.984046,"postcodeStart":"SA61 2","postcode":["SA61","2TY"]}
{"price":14950,"dateOfTransfer":"1997-12-23T00:00:00","postcodeFull":"SA61 2UB","propertyType":"Flat/Maisonette/Townhouse","oldOrNew":"New build","duration":"Leasehold","paon":"16","saon":"","street":"GOSHAWK ROAD","locality":"HAVERFORDWEST","townOrCity":"HAVERFORDWEST","district":"PEMBROKESHIRE","county":"PEMBROKESHIRE","ppdCategoryType":"Standard","recordStatus":"Addition","latitude":51.804106,"longitude":-4.984005,"postcodeStart":"SA61 2","postcode":["SA61","2UB"]}
{"price":50000,"dateOfTransfer":"1997-08-14T00:00:00","postcodeFull":"SA61 2QE","propertyType":"Semi-detached","oldOrNew":"Established","duration":"Freehold","paon":"100","saon":"","street":"PRESCELLY PARK","locality":"HAVERFORDWEST","townOrCity":"HAVERFORDWEST","district":"PEMBROKESHIRE","county":"PEMBROKESHIRE","ppdCategoryType":"Standard","recordStatus":"Addition","latitude":51.813253,"longitude":-4.961439,"postcodeStart":"SA61 2","postcode":["SA61","2QE"]}
{"price":35000,"dateOfTransfer":"1997-04-25T00:00:00","postcodeFull":"SA61 2RG","propertyType":"Semi-detached","oldOrNew":"Established","duration":"Freehold","paon":"27","saon":"","street":"CORONATION AVENUE","locality":"HAVERFORDWEST","townOrCity":"HAVERFORDWEST","district":"PEMBROKESHIRE","county":"PEMBROKESHIRE","ppdCategoryType":"Standard","recordStatus":"Addition","latitude":51.80689,"longitude":-4.962328,"postcodeStart":"SA61 2","postcode":["SA61","2RG"]}
{"price":31000,"dateOfTransfer":"1997-11-14T00:00:00","postcodeFull":"SA61 2SE","propertyType":"Semi-detached","oldOrNew":"Established","duration":"Freehold","paon":"4","saon":"","street":"ST DAVIDS ROAD","locality":"HAVERFORDWEST","townOrCity":"HAVERFORDWEST","district":"PEMBROKESHIRE","county":"PEMBROKESHIRE","ppdCategoryType":"Standard","recordStatus":"Addition","latitude":51.804103,"longitude":-4.981846,"postcodeStart":"SA61 2","postcode":["SA61","2SE"]}
{"price":41000,"dateOfTransfer":"1997-08-20T00:00:00","postcodeFull":"SA61 2LH","propertyType":"Terraced","oldOrNew":"Established","duration":"Freehold","paon":"50","saon":"","street":"CARTLETT","locality":"HAVERFORDWEST","townOrCity":"HAVERFORDWEST","district":"PEMBROKESHIRE","county":"PEMBROKESHIRE","ppdCategoryType":"Standard","recordStatus":"Addition","latitude":51.80253,"longitude":-4.962166,"postcodeStart":"SA61 2","postcode":["SA61","2LH"]}
{"price":23500,"dateOfTransfer":"1997-12-23T00:00:00","postcodeFull":"SA61 2PP","propertyType":"Terraced","oldOrNew":"Established","duration":"Freehold","paon":"6","saon":"","street":"PRENDERGAST","locality":"HAVERFORDWEST","townOrCity":"HAVERFORDWEST","district":"PEMBROKESHIRE","county":"PEMBROKESHIRE","ppdCategoryType":"Standard","recordStatus":"Addition","latitude":51.806517,"longitude":-4.965698,"postcodeStart":"SA61 2","postcode":["SA61","2PP"]}
{"price":31500,"dateOfTransfer":"1997-09-26T00:00:00","postcodeFull":"SA61 2HZ","propertyType":"Terraced","oldOrNew":"Established","duration":"Freehold","paon":"26","saon":"","street":"NORTH CRESCENT","locality":"HAVERFORDWEST","townOrCity":"HAVERFORDWEST","district":"PEMBROKESHIRE","county":"PEMBROKESHIRE","ppdCategoryType":"Standard","recordStatus":"Addition","latitude":51.804771,"longitude":-4.972141,"postcodeStart":"SA61 2","postcode":["SA61","2HZ"]}
{"price":65000,"dateOfTransfer":"1997-11-17T00:00:00","postcodeFull":"SA61 2HX","propertyType":"Detached","oldOrNew":"Established","duration":"Freehold","paon":"MARGAM","saon":"","street":"MEADOW VIEW","locality":"HAVERFORDWEST","townOrCity":"HAVERFORDWEST","district":"PEMBROKESHIRE","county":"PEMBROKESHIRE","ppdCategoryType":"Standard","recordStatus":"Addition","latitude":51.806751,"longitude":-4.972794,"postcodeStart":"SA61 2","postcode":["SA61","2HX"]}
{"price":47000,"dateOfTransfer":"1997-01-24T00:00:00","postcodeFull":"SA61 2PP","propertyType":"Terraced","oldOrNew":"Established","duration":"Freehold","paon":"54","saon":"","street":"PRENDERGAST","locality":"HAVERFORDWEST","townOrCity":"HAVERFORDWEST","district":"PEMBROKESHIRE","county":"PEMBROKESHIRE","ppdCategoryType":"Standard","recordStatus":"Addition","latitude":51.806517,"longitude":-4.965698,"postcodeStart":"SA61 2","postcode":["SA61","2PP"]}
{"price":43000,"dateOfTransfer":"1997-05-09T00:00:00","postcodeFull":"SA61 2EJ","propertyType":"Terraced","oldOrNew":"Established","duration":"Freehold","paon":"13","saon":"","street":"SPRING GARDENS","locality":"HAVERFORDWEST","townOrCity":"HAVERFORDWEST","district":"PEMBROKESHIRE","county":"PEMBROKESHIRE","ppdCategoryType":"Standard","recordStatus":"Addition","latitude":51.801918,"longitude":-4.973651,"postcodeStart":"SA61 2","postcode":["SA61","2EJ"]}
{"price":14950,"dateOfTransfer":"1997-12-15T00:00:00","postcodeFull":"SA61 2TY","propertyType":"Flat/Maisonette/Townhouse","oldOrNew":"New build","duration":"Leasehold","paon":"7","saon":"","street":"GOSHAWK ROAD","locality":"HAVERFORDWEST","townOrCity":"HAVERFORDWEST","district":"PEMBROKESHIRE","county":"PEMBROKESHIRE","ppdCategoryType":"Standard","recordStatus":"Addition","latitude":51.803403,"longitude":-4.984046,"postcodeStart":"SA61 2","postcode":["SA61","2TY"]}
{"price":36000,"dateOfTransfer":"1997-12-23T00:00:00","postcodeFull":"SA61 2PX","propertyType":"Terraced","oldOrNew":"Established","duration":"Freehold","paon":"14","saon":"","street":"STEPNEY TERRACE","locality":"HAVERFORDWEST","townOrCity":"HAVERFORDWEST","district":"PEMBROKESHIRE","county":"PEMBROKESHIRE","ppdCategoryType":"Standard","recordStatus":"Addition","latitude":51.810328,"longitude":-4.963102,"postcodeStart":"SA61 2","postcode":["SA61","2PX"]}
{"price":34000,"dateOfTransfer":"1997-07-31T00:00:00","postcodeFull":"SA61 2ST","propertyType":"Terraced","oldOrNew":"Established","duration":"Freehold","paon":"35","saon":"","street":"CITY ROAD","locality":"HAVERFORDWEST","townOrCity":"HAVERFORDWEST","district":"PEMBROKESHIRE","county":"PEMBROKESHIRE","ppdCategoryType":"Standard","recordStatus":"Addition","latitude":51.803044,"longitude":-4.974653,"postcodeStart":"SA61 2","postcode":["SA61","2ST"]}
{"price":62000,"dateOfTransfer":"1997-12-19T00:00:00","postcodeFull":"SA61 2PS","propertyType":"Detached","oldOrNew":"New build","duration":"Freehold","paon":"29","saon":"","street":"HERMITAGE GROVE","locality":"HAVERFORDWEST","townOrCity":"HAVERFORDWEST","district":"PEMBROKESHIRE","county":"PEMBROKESHIRE","ppdCategoryType":"Standard","recordStatus":"Addition","latitude":51.81551,"longitude":-4.959323,"postcodeStart":"SA61 2","postcode":["SA61","2PS"]}
{"price":83000,"dateOfTransfer":"1997-12-19T00:00:00","postcodeFull":"SA61 2HT","propertyType":"Detached","oldOrNew":"New build","duration":"Freehold","paon":"71","saon":"","street":"SLADE LANE","locality":"HAVERFORDWEST","townOrCity":"HAVERFORDWEST","district":"PEMBROKESHIRE","county":"PEMBROKESHIRE","ppdCategoryType":"Standard","recordStatus":"Addition","latitude":51.808621,"longitude":-4.9746,"postcodeStart":"SA61 2","postcode":["SA61","2HT"]}
{"price":30000,"dateOfTransfer":"1997-08-05T00:00:00","postcodeFull":"SA61 2SA","propertyType":"Terraced","oldOrNew":"Established","duration":"Freehold","paon":"8","saon":"","street":"PRESCELLY ROAD","locality":"HAVERFORDWEST","townOrCity":"HAVERFORDWEST","district":"PEMBROKESHIRE","county":"PEMBROKESHIRE","ppdCategoryType":"Standard","recordStatus":"Addition","latitude":51.804629,"longitude":-4.977761,"postcodeStart":"SA61 2","postcode":["SA61","2SA"]}
{"price":40000,"dateOfTransfer":"1997-06-20T00:00:00","postcodeFull":"SA61 2HA","propertyType":"Terraced","oldOrNew":"Established","duration":"Freehold","paon":"34","saon":"","street":"REDHILL PARK","locality":"HAVERFORDWEST","townOrCity":"HAVERFORDWEST","district":"PEMBROKESHIRE","county":"PEMBROKESHIRE","ppdCategoryType":"Standard","recordStatus":"Addition","latitude":51.810668,"longitude":-4.973832,"postcodeStart":"SA61 2","postcode":["SA61","2HA"]}
{"price":46000,"dateOfTransfer":"1997-01-31T00:00:00","postcodeFull":"SA61 2PH","propertyType":"Terraced","oldOrNew":"Established","duration":"Freehold","paon":"4","saon":"","street":"MAYORAL TERRACE","locality":"HAVERFORDWEST","townOrCity":"HAVERFORDWEST","district":"PEMBROKESHIRE","county":"PEMBROKESHIRE","ppdCategoryType":"Standard","recordStatus":"Addition","latitude":51.808619,"longitude":-4.964136,"postcodeStart":"SA61 2","postcode":["SA61","2PH"]}
{"price":17500,"dateOfTransfer":"1997-12-19T00:00:00","postcodeFull":"SA61 2TY","propertyType":"Terraced","oldOrNew":"New build","duration":"Leasehold","paon":"21","saon":"","street":"GOSHAWK ROAD","locality":"HAVERFORDWEST","townOrCity":"HAVERFORDWEST","district":"PEMBROKESHIRE","county":"PEMBROKESHIRE","ppdCategoryType":"Standard","recordStatus":"Addition","latitude":51.803403,"longitude":-4.984046,"postcodeStart":"SA61 2","postcode":["SA61","2TY"]}
{"price":40500,"dateOfTransfer":"1997-05-02T00:00:00","postcodeFull":"SA61 2PH","propertyType":"Terraced","oldOrNew":"Established","duration":"Freehold","paon":"8","saon":"","street":"MAYORAL TERRACE","locality":"HAVERFORDWEST","townOrCity":"HAVERFORDWEST","district":"PEMBROKESHIRE","county":"PEMBROKESHIRE","ppdCategoryType":"Standard","recordStatus":"Addition","latitude":51.808619,"longitude":-4.964136,"postcodeStart":"SA61 2","postcode":["SA61","2PH"]}
{"price":34000,"dateOfTransfer":"1997-12-05T00:00:00","postcodeFull":"SA61 2RG","propertyType":"Semi-detached","oldOrNew":"Established","duration":"Freehold","paon":"15","saon":"","street":"CORONATION AVENUE","locality":"HAVERFORDWEST","townOrCity":"HAVERFORDWEST","district":"PEMBROKESHIRE","county":"PEMBROKESHIRE","ppdCategoryType":"Standard","recordStatus":"Addition","latitude":51.80689,"longitude":-4.962328,"postcodeStart":"SA61 2","postcode":["SA61","2RG"]}
{"price":35750,"dateOfTransfer":"1997-05-19T00:00:00","postcodeFull":"SA61 2PF","propertyType":"Terraced","oldOrNew":"Established","duration":"Freehold","paon":"71","saon":"","street":"PRENDERGAST","locality":"HAVERFORDWEST","townOrCity":"HAVERFORDWEST","district":"PEMBROKESHIRE","county":"PEMBROKESHIRE","ppdCategoryType":"Standard","recordStatus":"Addition","latitude":51.808586,"longitude":-4.963904,"postcodeStart":"SA61 2","postcode":["SA61","2PF"]}
{"price":28950,"dateOfTransfer":"1997-11-14T00:00:00","postcodeFull":"SA61 2UD","propertyType":"Terraced","oldOrNew":"New build","duration":"Freehold","paon":"8","saon":"","street":"TRAFALGAR ROAD","locality":"HAVERFORDWEST","townOrCity":"HAVERFORDWEST","district":"PEMBROKESHIRE","county":"PEMBROKESHIRE","ppdCategoryType":"Standard","recordStatus":"Addition","latitude":51.802973,"longitude":-4.984528,"postcodeStart":"SA61 2","postcode":["SA61","2UD"]}
{"price":44000,"dateOfTransfer":"1997-12-19T00:00:00","postcodeFull":"SA61 2HA","propertyType":"Semi-detached","oldOrNew":"Established","duration":"Freehold","paon":"66","saon":"","street":"REDHILL PARK","locality":"HAVERFORDWEST","townOrCity":"HAVERFORDWEST","district":"PEMBROKESHIRE","county":"PEMBROKESHIRE","ppdCategoryType":"Standard","recordStatus":"Addition","latitude":51.810668,"longitude":-4.973832,"postcodeStart":"SA61 2","postcode":["SA61","2HA"]}
{"price":30500,"dateOfTransfer":"1997-03-27T00:00:00","postcodeFull":"SA61 2NL","propertyType":"Terraced","oldOrNew":"Established","duration":"Freehold","paon":"27","saon":"","street":"MILL BANK","locality":"HAVERFORDWEST","townOrCity":"HAVERFORDWEST","district":"PEMBROKESHIRE","county":"PEMBROKESHIRE","ppdCategoryType":"Standard","recordStatus":"Addition","latitude":51.803193,"longitude":-4.965013,"postcodeStart":"SA61 2","postcode":["SA61","2NL"]}
{"price":41000,"dateOfTransfer":"1997-10-30T00:00:00","postcodeFull":"SA61 2TR","propertyType":"Detached","oldOrNew":"New build","duration":"Freehold","paon":"5","saon":"","street":"TRAFALGAR ROAD","locality":"HAVERFORDWEST","townOrCity":"HAVERFORDWEST","district":"PEMBROKESHIRE","county":"PEMBROKESHIRE","ppdCategoryType":"Standard","recordStatus":"Addition","latitude":51.802436,"longitude":-4.984449,"postcodeStart":"SA61 2","postcode":["SA61","2TR"]}
{"price":37500,"dateOfTransfer":"1997-02-27T00:00:00","postcodeFull":"SA61 2RB","propertyType":"Semi-detached","oldOrNew":"Established","duration":"Freehold","paon":"15","saon":"","street":"STOKES AVENUE","locality":"HAVERFORDWEST","townOrCity":"HAVERFORDWEST","district":"PEMBROKESHIRE","county":"PEMBROKESHIRE","ppdCategoryType":"Standard","recordStatus":"Addition","latitude":51.808833,"longitude":-4.961222,"postcodeStart":"SA61 2","postcode":["SA61","2RB"]}
{"price":37757,"dateOfTransfer":"1997-11-28T00:00:00","postcodeFull":"SA61 2RB","propertyType":"Semi-detached","oldOrNew":"Established","duration":"Freehold","paon":"13","saon":"","street":"STOKES AVENUE","locality":"HAVERFORDWEST","townOrCity":"HAVERFORDWEST","district":"PEMBROKESHIRE","county":"PEMBROKESHIRE","ppdCategoryType":"Standard","recordStatus":"Addition","latitude":51.808833,"longitude":-4.961222,"postcodeStart":"SA61 2","postcode":["SA61","2RB"]}
{"price":34000,"dateOfTransfer":"1997-02-24T00:00:00","postcodeFull":"SA61 2HY","propertyType":"Detached","oldOrNew":"Established","duration":"Freehold","paon":"CHARLBURY","saon":"","street":"SLADE LANE","locality":"HAVERFORDWEST","townOrCity":"HAVERFORDWEST","district":"PEMBROKESHIRE","county":"PEMBROKESHIRE","ppdCategoryType":"Standard","recordStatus":"Addition","latitude":51.806921,"longitude":-4.973893,"postcodeStart":"SA61 2","postcode":["SA61","2HY"]}
{"price":37500,"dateOfTransfer":"1997-02-27T00:00:00","postcodeFull":"SA61 2RB","propertyType":"Semi-detached","oldOrNew":"Established","duration":"Freehold","paon":"12","saon":"","street":"STOKES AVENUE","locality":"HAVERFORDWEST","townOrCity":"HAVERFORDWEST","district":"PEMBROKESHIRE","county":"PEMBROKESHIRE","ppdCategoryType":"Standard","recordStatus":"Addition","latitude":51.808833,"longitude":-4.961222,"postcodeStart":"SA61 2","postcode":["SA61","2RB"]}
{"price":59000,"dateOfTransfer":"1997-11-07T00:00:00","postcodeFull":"SA61 2QL","propertyType":"Semi-detached","oldOrNew":"Established","duration":"Freehold","paon":"8","saon":"","street":"SPRINGFIELD CLOSE","locality":"HAVERFORDWEST","townOrCity":"HAVERFORDWEST","district":"PEMBROKESHIRE","county":"PEMBROKESHIRE","ppdCategoryType":"Standard","recordStatus":"Addition","latitude":51.812408,"longitude":-4.96179,"postcodeStart":"SA61 2","postcode":["SA61","2QL"]}
{"price":32000,"dateOfTransfer":"1997-01-31T00:00:00","postcodeFull":"SA61 2ST","propertyType":"Terraced","oldOrNew":"Established","duration":"Freehold","paon":"45","saon":"","street":"CITY ROAD","locality":"HAVERFORDWEST","townOrCity":"HAVERFORDWEST","district":"PEMBROKESHIRE","county":"PEMBROKESHIRE","ppdCategoryType":"Standard","recordStatus":"Addition","latitude":51.803044,"longitude":-4.974653,"postcodeStart":"SA61 2","postcode":["SA61","2ST"]}
{"price":53000,"dateOfTransfer":"1997-09-05T00:00:00","postcodeFull":"SA61 2HP","propertyType":"Semi-detached","oldOrNew":"Established","duration":"Freehold","paon":"13","saon":"","street":"ST MARTINS PARK","locality":"HAVERFORDWEST","townOrCity":"HAVERFORDWEST","district":"PEMBROKESHIRE","county":"PEMBROKESHIRE","ppdCategoryType":"Standard","recordStatus":"Addition","latitude":51.809475,"longitude":-4.973376,"postcodeStart":"SA61 2","postcode":["SA61","2HP"]}
{"price":80000,"dateOfTransfer":"1997-07-02T00:00:00","postcodeFull":"SA61 2QS","propertyType":"Detached","oldOrNew":"Established","duration":"Freehold","paon":"94","saon":"","street":"CARDIGAN ROAD","locality":"HAVERFORDWEST","townOrCity":"HAVERFORDWEST","district":"PEMBROKESHIRE","county":"PEMBROKESHIRE","ppdCategoryType":"Standard","recordStatus":"Addition","latitude":51.814066,"longitude":-4.958602,"postcodeStart":"SA61 2","postcode":["SA61","2QS"]}
{"price":15000,"dateOfTransfer":"1997-12-15T00:00:00","postcodeFull":"SA61 2TY","propertyType":"Flat/Maisonette/Townhouse","oldOrNew":"New build","duration":"Leasehold","paon":"9","saon":"","street":"GOSHAWK ROAD","locality":"HAVERFORDWEST","townOrCity":"HAVERFORDWEST","district":"PEMBROKESHIRE","county":"PEMBROKESHIRE","ppdCategoryType":"Standard","recordStatus":"Addition","latitude":51.803403,"longitude":-4.984046,"postcodeStart":"SA61 2","postcode":["SA61","2TY"]}
{"price":46000,"dateOfTransfer":"1997-05-23T00:00:00","postcodeFull":"SA61 2NU","propertyType":"Semi-detached","oldOrNew":"Established","duration":"Freehold","paon":"61","saon":"","street":"QUEENSWAY","locality":"HAVERFORDWEST","townOrCity":"HAVERFORDWEST","district":"PEMBROKESHIRE","county":"PEMBROKESHIRE","ppdCategoryType":"Standard","recordStatus":"Addition","latitude":51.804325,"longitude":-4.963259,"postcodeStart":"SA61 2","postcode":["SA61","2NU"]}
{"price":15000,"dateOfTransfer":"1997-05-16T00:00:00","postcodeFull":"SA61 2ST","propertyType":"Terraced","oldOrNew":"Established","duration":"Freehold","paon":"29","saon":"","street":"CITY ROAD","locality":"HAVERFORDWEST","townOrCity":"HAVERFORDWEST","district":"PEMBROKESHIRE","county":"PEMBROKESHIRE","ppdCategoryType":"Standard","recordStatus":"Addition","latitude":51.803044,"longitude":-4.974653,"postcodeStart":"SA61 2","postcode":["SA61","2ST"]}
{"price":36450,"dateOfTransfer":"1997-12-29T00:00:00","postcodeFull":"SA61 2TS","propertyType":"Semi-detached","oldOrNew":"New build","duration":"Freehold","paon":"9","saon":"","street":"KESTREL ROAD","locality":"HAVERFORDWEST","townOrCity":"HAVERFORDWEST","district":"PEMBROKESHIRE","county":"PEMBROKESHIRE","ppdCategoryType":"Standard","recordStatus":"Addition","latitude":51.801998,"longitude":-4.984276,"postcodeStart":"SA61 2","postcode":["SA61","2TS"]}
{"price":75000,"dateOfTransfer":"1997-08-08T00:00:00","postcodeFull":"SA61 2QS","propertyType":"Detached","oldOrNew":"Established","duration":"Freehold","paon":"110","saon":"","street":"CARDIGAN ROAD","locality":"HAVERFORDWEST","townOrCity":"HAVERFORDWEST","district":"PEMBROKESHIRE","county":"PEMBROKESHIRE","ppdCategoryType":"Standard","recordStatus":"Addition","latitude":51.814066,"longitude":-4.958602,"postcodeStart":"SA61 2","postcode":["SA61","2QS"]}
{"price":65000,"dateOfTransfer":"1997-07-08T00:00:00","postcodeFull":"SA61 2JH","propertyType":"Terraced","oldOrNew":"Established","duration":"Freehold","paon":"7","saon":"","street":"CASTLE TERRACE","locality":"HAVERFORDWEST","townOrCity":"HAVERFORDWEST","district":"PEMBROKESHIRE","county":"PEMBROKESHIRE","ppdCategoryType":"Standard","recordStatus":"Addition","latitude":51.803145,"longitude":-4.971636,"postcodeStart":"SA61 2","postcode":["SA61","2JH"]}
{"price":59500,"dateOfTransfer":"1997-05-30T00:00:00","postcodeFull":"SA61 2QL","propertyType":"Semi-detached","oldOrNew":"Established","duration":"Freehold","paon":"7","saon":"","street":"SPRINGFIELD CLOSE","locality":"","townOrCity":"HAVERFORDWEST","district":"PEMBROKESHIRE","county":"PEMBROKESHIRE","ppdCategoryType":"Standard","recordStatus":"Addition","latitude":51.812408,"longitude":-4.96179,"postcodeStart":"SA61 2","postcode":["SA61","2QL"]}
{"price":34450,"dateOfTransfer":"1997-12-19T00:00:00","postcodeFull":"SA61 2TS","propertyType":"Semi-detached","oldOrNew":"New build","duration":"Freehold","paon":"8","saon":"","street":"KESTREL ROAD","locality":"HAVERFORDWEST","townOrCity":"HAVERFORDWEST","district":"PEMBROKESHIRE","county":"PEMBROKESHIRE","ppdCategoryType":"Standard","recordStatus":"Addition","latitude":51.801998,"longitude":-4.984276,"postcodeStart":"SA61 2","postcode":["SA61","2TS"]}
{"price":12000,"dateOfTransfer":"1997-02-17T00:00:00","postcodeFull":"SA61 2TD","propertyType":"Terraced","oldOrNew":"Established","duration":"Freehold","paon":"239","saon":"","street":"NORTH COURT","locality":"HAVERFORDWEST","townOrCity":"HAVERFORDWEST","district":"PEMBROKESHIRE","county":"PEMBROKESHIRE","ppdCategoryType":"Standard","recordStatus":"Addition","latitude":51.8024,"longitude":-4.990595,"postcodeStart":"SA61 2","postcode":["SA61","2TD"]}
{"price":50000,"dateOfTransfer":"1997-01-29T00:00:00","postcodeFull":"SA61 2RR","propertyType":"Detached","oldOrNew":"Established","duration":"Freehold","paon":"89","saon":"","street":"CITY ROAD","locality":"HAVERFORDWEST","townOrCity":"HAVERFORDWEST","district":"PEMBROKESHIRE","county":"PEMBROKESHIRE","ppdCategoryType":"Standard","recordStatus":"Addition","latitude":51.802609,"longitude":-4.977613,"postcodeStart":"SA61 2","postcode":["SA61","2RR"]}
{"price":17500,"dateOfTransfer":"1997-12-16T00:00:00","postcodeFull":"SA61 2TY","propertyType":"Flat/Maisonette/Townhouse","oldOrNew":"New build","duration":"Leasehold","paon":"13","saon":"","street":"GOSHAWK ROAD","locality":"HAVERFORDWEST","townOrCity":"HAVERFORDWEST","district":"PEMBROKESHIRE","county":"PEMBROKESHIRE","ppdCategoryType":"Standard","recordStatus":"Addition","latitude":51.803403,"longitude":-4.984046,"postcodeStart":"SA61 2","postcode":["SA61","2TY"]}
{"price":44000,"dateOfTransfer":"1997-04-30T00:00:00","postcodeFull":"SA61 2PA","propertyType":"Semi-detached","oldOrNew":"Established","duration":"Freehold","paon":"6","saon":"","street":"THE RISE","locality":"HAVERFORDWEST","townOrCity":"HAVERFORDWEST","district":"PEMBROKESHIRE","county":"PEMBROKESHIRE","ppdCategoryType":"Standard","recordStatus":"Addition","latitude":51.804387,"longitude":-4.964905,"postcodeStart":"SA61 2","postcode":["SA61","2PA"]}
{"price":15000,"dateOfTransfer":"1997-11-26T00:00:00","postcodeFull":"SA61 2UB","propertyType":"Flat/Maisonette/Townhouse","oldOrNew":"New build","duration":"Leasehold","paon":"18","saon":"","street":"GOSHAWK ROAD","locality":"HAVERFORDWEST","townOrCity":"HAVERFORDWEST","district":"PEMBROKESHIRE","county":"PEMBROKESHIRE","ppdCategoryType":"Standard","recordStatus":"Addition","latitude":51.804106,"longitude":-4.984005,"postcodeStart":"SA61 2","postcode":["SA61","2UB"]}
{"price":32000,"dateOfTransfer":"1997-05-15T00:00:00","postcodeFull":"SA61 2LH","propertyType":"Terraced","oldOrNew":"Established","duration":"Freehold","paon":"42","saon":"","street":"CARTLETT","locality":"HAVERFORDWEST","townOrCity":"HAVERFORDWEST","district":"PEMBROKESHIRE","county":"PEMBROKESHIRE","ppdCategoryType":"Standard","recordStatus":"Addition","latitude":51.80253,"longitude":-4.962166,"postcodeStart":"SA61 2","postcode":["SA61","2LH"]}
{"price":60000,"dateOfTransfer":"1997-09-24T00:00:00","postcodeFull":"SA61 2AZ","propertyType":"Detached","oldOrNew":"Established","duration":"Freehold","paon":"155","saon":"","street":"HAWTHORN RISE","locality":"HAVERFORDWEST","townOrCity":"HAVERFORDWEST","district":"PEMBROKESHIRE","county":"PEMBROKESHIRE","ppdCategoryType":"Standard","recordStatus":"Addition","latitude":51.800466,"longitude":-4.988131,"postcodeStart":"SA61 2","postcode":["SA61","2AZ"]}
{"price":56500,"dateOfTransfer":"1997-04-17T00:00:00","postcodeFull":"SA61 2QP","propertyType":"Detached","oldOrNew":"Established","duration":"Freehold","paon":"22","saon":"","street":"LINDSWAY PARK","locality":"HAVERFORDWEST","townOrCity":"HAVERFORDWEST","district":"PEMBROKESHIRE","county":"PEMBROKESHIRE","ppdCategoryType":"Standard","recordStatus":"Addition","latitude":51.812272,"longitude":-4.959123,"postcodeStart":"SA61 2","postcode":["SA61","2QP"]}
{"price":33000,"dateOfTransfer":"1997-01-06T00:00:00","postcodeFull":"SA61 2TU","propertyType":"Terraced","oldOrNew":"Established","duration":"Freehold","paon":"42","saon":"","street":"HARRIER ROAD","locality":"HAVERFORDWEST","townOrCity":"HAVERFORDWEST","district":"PEMBROKESHIRE","county":"PEMBROKESHIRE","ppdCategoryType":"Standard","recordStatus":"Addition","latitude":51.803199,"longitude":-4.985573,"postcodeStart":"SA61 2","postcode":["SA61","2TU"]}
{"price":16000,"dateOfTransfer":"1997-11-14T00:00:00","postcodeFull":"SA61 2TH","propertyType":"Flat/Maisonette/Townhouse","oldOrNew":"Established","duration":"Leasehold","paon":"CONNAUGHT COURT","saon":"FLAT 14","street":"CURLEW CLOSE","locality":"HAVERFORDWEST","townOrCity":"HAVERFORDWEST","district":"PEMBROKESHIRE","county":"PEMBROKESHIRE","ppdCategoryType":"Standard","recordStatus":"Addition","latitude":51.802619,"longitude":-4.988475,"postcodeStart":"SA61 2","postcode":["SA61","2TH"]}
{"price":29900,"dateOfTransfer":"1997-08-27T00:00:00","postcodeFull":"SA61 2DS","propertyType":"Terraced","oldOrNew":"Established","duration":"Freehold","paon":"3","saon":"","street":"DARK STREET","locality":"HAVERFORDWEST","townOrCity":"HAVERFORDWEST","district":"PEMBROKESHIRE","county":"PEMBROKESHIRE","ppdCategoryType":"Standard","recordStatus":"Addition","latitude":51.801611,"longitude":-4.971713,"postcodeStart":"SA61 2","postcode":["SA61","2DS"]}
{"price":34450,"dateOfTransfer":"1998-02-12T00:00:00","postcodeFull":"SA61 2TS","propertyType":"Semi-detached","oldOrNew":"New build","duration":"Freehold","paon":"17","saon":"","street":"KESTREL ROAD","locality":"HAVERFORDWEST","townOrCity":"HAVERFORDWEST","district":"PEMBROKESHIRE","county":"PEMBROKESHIRE","ppdCategoryType":"Standard","recordStatus":"Addition","latitude":51.801998,"longitude":-4.984276,"postcodeStart":"SA61 2","postcode":["SA61","2TS"]}
