{"price":37000,"dateOfTransfer":"1995-06-28T00:00:00","postcodeFull":"SK14 2SL","propertyType":"Terraced","oldOrNew":"Established","duration":"Freehold","paon":"242","saon":"","street":"MOTTRAM ROAD","locality":"HYDE","townOrCity":"HYDE","district":"TAMESIDE","county":"GREATER MANCHESTER","ppdCategoryType":"Standard","recordStatus":"Addition","latitude":53.451266,"longitude":-2.063626,"postcodeStart":"SK14 2","postcode":["SK14","2SL"]}
{"price":28000,"dateOfTransfer":"1995-12-22T00:00:00","postcodeFull":"SK14 2RN","propertyType":"Terraced","oldOrNew":"Established","duration":"Freehold","paon":"29","saon":"","street":"TOM SHEPLEY STREET","locality":"HYDE","townOrCity":"HYDE","district":"TAMESIDE","county":"GREATER MANCHESTER","ppdCategoryType":"Standard","recordStatus":"Addition","latitude":53.450462,"longitude":-2.07156,"postcodeStart":"SK14 2","postcode":["SK14","2RN"]}
{"price":49500,"dateOfTransfer":"1995-10-27T00:00:00","postcodeFull":"SK14 2QQ","propertyType":"Semi-detached","oldOrNew":"Established","duration":"Leasehold","paon":"16","saon":"","street":"BROOKSIDE CLOSE","locality":"HYDE","townOrCity":"HYDE","district":"TAMESIDE","county":"GREATER MANCHESTER","ppdCategoryType":"Standard","recordStatus":"Addition","latitude":53.45196,"longitude":-2.06063,"postcodeStart":"SK14 2","postcode":["SK14","2QQ"]}
{"price":34500,"dateOfTransfer":"1995-04-13T00:00:00","postcodeFull":"SK14 2NX","propertyType":"Terraced","oldOrNew":"Established","duration":"Freehold","paon":"145A","saon":"","street":"MOTTRAM ROAD","locality":"HYDE","townOrCity":"HYDE","district":"TAMESIDE","county":"GREATER MANCHESTER","ppdCategoryType":"Standard","recordStatus":"Addition","latitude":53.451884,"longitude":-2.067783,"postcodeStart":"SK14 2","postcode":["SK14","2NX"]}
{"price":26000,"dateOfTransfer":"1995-07-28T00:00:00","postcodeFull":"SK14 2LD","propertyType":"Terraced","oldOrNew":"Established","duration":"Leasehold","paon":"40","saon":"","street":"CORONA AVENUE","locality":"HYDE","townOrCity":"HYDE","district":"TAMESIDE","county":"GREATER MANCHESTER","ppdCategoryType":"Standard","recordStatus":"Addition","latitude":53.455818,"longitude":-2.072322,"postcodeStart":"SK14 2","postcode":["SK14","2LD"]}
{"price":59500,"dateOfTransfer":"1995-10-27T00:00:00","postcodeFull":"SK14 2SU","propertyType":"Semi-detached","oldOrNew":"Established","duration":"Freehold","paon":"19","saon":"","street":"CROSSBRIDGE ROAD","locality":"HYDE","townOrCity":"HYDE","district":"TAMESIDE","county":"GREATER MANCHESTER","ppdCategoryType":"Standard","recordStatus":"Addition","latitude":53.449147,"longitude":-2.059994,"postcodeStart":"SK14 2","postcode":["SK14","2SU"]}
{"price":67950,"dateOfTransfer":"1995-12-15T00:00:00","postcodeFull":"SK14 2SW","propertyType":"Semi-detached","oldOrNew":"Established","duration":"Freehold","paon":"46","saon":"","street":"ST PAULS HILL ROAD","locality":"HYDE","townOrCity":"HYDE","district":"TAMESIDE","county":"GREATER MANCHESTER","ppdCategoryType":"Standard","recordStatus":"Addition","latitude":53.449765,"longitude":-2.062931,"postcodeStart":"SK14 2","postcode":["SK14","2SW"]}
{"price":56950,"dateOfTransfer":"1995-05-19T00:00:00","postcodeFull":"SK14 2PR","propertyType":"Terraced","oldOrNew":"Established","duration":"Freehold","paon":"52","saon":"","street":"SHEFFIELD ROAD","locality":"HYDE","townOrCity":"HYDE","district":"TAMESIDE","county":"GREATER MANCHESTER","ppdCategoryType":"Standard","recordStatus":"Addition","latitude":53.454538,"longitude":-2.062893,"postcodeStart":"SK14 2","postcode":["SK14","2PR"]}
{"price":39500,"dateOfTransfer":"1995-09-27T00:00:00","postcodeFull":"SK14 2JY","propertyType":"Terraced","oldOrNew":"Established","duration":"Leasehold","paon":"166","saon":"","street":"CLARENDON ROAD","locality":"HYDE","townOrCity":"HYDE","district":"TAMESIDE","county":"GREATER MANCHESTER","ppdCategoryType":"Standard","recordStatus":"Addition","latitude":53.456159,"longitude":-2.073437,"postcodeStart":"SK14 2","postcode":["SK14","2JY"]}
{"price":37500,"dateOfTransfer":"1995-12-08T00:00:00","postcodeFull":"SK14 2RT","propertyType":"Terraced","oldOrNew":"Established","duration":"Leasehold","paon":"19","saon":"","street":"BOSTON STREET","locality":"HYDE","townOrCity":"HYDE","district":"TAMESIDE","county":"GREATER MANCHESTER","ppdCategoryType":"Standard","recordStatus":"Addition","latitude":53.451514,"longitude":-2.070869,"postcodeStart":"SK14 2","postcode":["SK14","2RT"]}
{"price":35500,"dateOfTransfer":"1995-06-14T00:00:00","postcodeFull":"SK14 2RN","propertyType":"Terraced","oldOrNew":"Established","duration":"Leasehold","paon":"22","saon":"","street":"TOM SHEPLEY STREET","locality":"HYDE","townOrCity":"HYDE","district":"TAMESIDE","county":"GREATER MANCHESTER","ppdCategoryType":"Standard","recordStatus":"Addition","latitude":53.450462,"longitude":-2.07156,"postcodeStart":"SK14 2","postcode":["SK14","2RN"]}
{"price":18000,"dateOfTransfer":"1995-02-06T00:00:00","postcodeFull":"SK14 2JY","propertyType":"Semi-detached","oldOrNew":"Established","duration":"Leasehold","paon":"192","saon":"","street":"CLARENDON ROAD","locality":"HYDE","townOrCity":"HYDE","district":"TAMESIDE","county":"GREATER MANCHESTER","ppdCategoryType":"Standard","recordStatus":"Addition","latitude":53.456159,"longitude":-2.073437,"postcodeStart":"SK14 2","postcode":["SK14","2JY"]}
{"price":21000,"dateOfTransfer":"1995-06-07T00:00:00","postcodeFull":"SK14 2RW","propertyType":"Semi-detached","oldOrNew":"Established","duration":"Freehold","paon":"78","saon":"","street":"LUMN ROAD","locality":"HYDE","townOrCity":"HYDE","district":"TAMESIDE","county":"GREATER MANCHESTER","ppdCategoryType":"Standard","recordStatus":"Addition","latitude":53.450525,"longitude":-2.071184,"postcodeStart":"SK14 2","postcode":["SK14","2RW"]}
{"price":39950,"dateOfTransfer":"1995-09-22T00:00:00","postcodeFull":"SK14 2RS","propertyType":"Terraced","oldOrNew":"Established","duration":"Freehold","paon":"118","saon":"","street":"MOTTRAM ROAD","locality":"HYDE","townOrCity":"HYDE","district":"TAMESIDE","county":"GREATER MANCHESTER","ppdCategoryType":"Standard","recordStatus":"Addition","latitude":53.452053,"longitude":-2.070659,"postcodeStart":"SK14 2","postcode":["SK14","2RS"]}
{"price":30250,"dateOfTransfer":"1995-11-01T00:00:00","postcodeFull":"SK14 2RH","propertyType":"Terraced","oldOrNew":"Established","duration":"Leasehold","paon":"19","saon":"","street":"VICARAGE GARDENS","locality":"HYDE","townOrCity":"HYDE","district":"TAMESIDE","county":"GREATER MANCHESTER","ppdCategoryType":"Standard","recordStatus":"Addition","latitude":53.451263,"longitude":-2.069107,"postcodeStart":"SK14 2","postcode":["SK14","2RH"]}
{"price":40000,"dateOfTransfer":"1995-02-24T00:00:00","postcodeFull":"SK14 2SW","propertyType":"Terraced","oldOrNew":"Established","duration":"Freehold","paon":"72","saon":"","street":"ST PAULS HILL ROAD","locality":"HYDE","townOrCity":"HYDE","district":"TAMESIDE","county":"GREATER MANCHESTER","ppdCategoryType":"Standard","recordStatus":"Addition","latitude":53.449765,"longitude":-2.062931,"postcodeStart":"SK14 2","postcode":["SK14","2SW"]}
{"price":53950,"dateOfTransfer":"1995-05-25T00:00:00","postcodeFull":"SK14 2QQ","propertyType":"Semi-detached","oldOrNew":"Established","duration":"Leasehold","paon":"2","saon":"","street":"BROOKSIDE CLOSE","locality":"HYDE","townOrCity":"HYDE","district":"TAMESIDE","county":"GREATER MANCHESTER","ppdCategoryType":"Standard","recordStatus":"Addition","latitude":53.45196,"longitude":-2.06063,"postcodeStart":"SK14 2","postcode":["SK14","2QQ"]}
{"price":47500,"dateOfTransfer":"1995-12-01T00:00:00","postcodeFull":"SK14 2PJ","propertyType":"Detached","oldOrNew":"Established","duration":"Freehold","paon":"124","saon":"","street":"SHEFFIELD ROAD","locality":"HYDE","townOrCity":"HYDE","district":"TAMESIDE","county":"GREATER MANCHESTER","ppdCategoryType":"Standard","recordStatus":"Addition","latitude":53.452599,"longitude":-2.058192,"postcodeStart":"SK14 2","postcode":["SK14","2PJ"]}
{"price":15000,"dateOfTransfer":"1995-03-08T00:00:00","postcodeFull":"SK14 2DL","propertyType":"Terraced","oldOrNew":"Established","duration":"Leasehold","paon":"46","saon":"","street":"MILL LANE","locality":"HYDE","townOrCity":"HYDE","district":"TAMESIDE","county":"GREATER MANCHESTER","ppdCategoryType":"Standard","recordStatus":"Addition","latitude":53.451941,"longitude":-2.090415,"postcodeStart":"SK14 2","postcode":["SK14","2DL"]}
{"price":30500,"dateOfTransfer":"1995-06-28T00:00:00","postcodeFull":"SK14 2LD","propertyType":"Terraced","oldOrNew":"Established","duration":"Leasehold","paon":"57","saon":"","street":"CORONA AVENUE","locality":"HYDE","townOrCity":"HYDE","district":"TAMESIDE","county":"GREATER MANCHESTER","ppdCategoryType":"Standard","recordStatus":"Addition","latitude":53.455818,"longitude":-2.072322,"postcodeStart":"SK14 2","postcode":["SK14","2LD"]}
{"price":20000,"dateOfTransfer":"1995-02-10T00:00:00","postcodeFull":"SK14 2RG","propertyType":"Terraced","oldOrNew":"Established","duration":"Freehold","paon":"14","saon":"","street":"ORCHARD STREET","locality":"HYDE","townOrCity":"HYDE","district":"TAMESIDE","county":"GREATER MANCHESTER","ppdCategoryType":"Standard","recordStatus":"Addition","latitude":53.450811,"longitude":-2.072735,"postcodeStart":"SK14 2","postcode":["SK14","2RG"]}
{"price":36000,"dateOfTransfer":"1995-09-01T00:00:00","postcodeFull":"SK14 2NX","propertyType":"Terraced","oldOrNew":"Established","duration":"Freehold","paon":"131","saon":"","street":"MOTTRAM ROAD","locality":"HYDE","townOrCity":"HYDE","district":"TAMESIDE","county":"GREATER MANCHESTER","ppdCategoryType":"Standard","recordStatus":"Addition","latitude":53.451884,"longitude":-2.067783,"postcodeStart":"SK14 2","postcode":["SK14","2NX"]}
{"price":59000,"dateOfTransfer":"1995-12-05T00:00:00","postcodeFull":"SK14 2SX","propertyType":"Terraced","oldOrNew":"Established","duration":"Freehold","paon":"6","saon":"","street":"ST MICHAELS ROAD","locality":"HYDE","townOrCity":"HYDE","district":"TAMESIDE","county":"GREATER MANCHESTER","ppdCategoryType":"Standard","recordStatus":"Addition","latitude":53.45009,"longitude":-2.061034,"postcodeStart":"SK14 2","postcode":["SK14","2SX"]}
{"price":35000,"dateOfTransfer":"1995-08-25T00:00:00","postcodeFull":"SK14 2SH","propertyType":"Terraced","oldOrNew":"Established","duration":"Leasehold","paon":"21","saon":"","street":"GRANGE ROAD NORTH","locality":"HYDE","townOrCity":"HYDE","district":"TAMESIDE","county":"GREATER MANCHESTER","ppdCategoryType":"Standard","recordStatus":"Addition","latitude":53.450861,"longitude":-2.065568,"postcodeStart":"SK14 2","postcode":["SK14","2SH"]}
{"price":39995,"dateOfTransfer":"1995-06-09T00:00:00","postcodeFull":"SK14 2JY","propertyType":"Semi-detached","oldOrNew":"Established","duration":"Leasehold","paon":"192","saon":"","street":"CLARENDON ROAD","locality":"HYDE","townOrCity":"HYDE","district":"TAMESIDE","county":"GREATER MANCHESTER","ppdCategoryType":"Standard","recordStatus":"Addition","latitude":53.456159,"longitude":-2.073437,"postcodeStart":"SK14 2","postcode":["SK14","2JY"]}
{"price":39000,"dateOfTransfer":"1995-06-30T00:00:00","postcodeFull":"SK14 2RW","propertyType":"Terraced","oldOrNew":"Established","duration":"Leasehold","paon":"42","saon":"","street":"LUMN ROAD","locality":"HYDE","townOrCity":"HYDE","district":"TAMESIDE","county":"GREATER MANCHESTER","ppdCategoryType":"Standard","recordStatus":"Addition","latitude":53.450525,"longitude":-2.071184,"postcodeStart":"SK14 2","postcode":["SK14","2RW"]}
{"price":32000,"dateOfTransfer":"1995-10-12T00:00:00","postcodeFull":"SK14 2SL","propertyType":"Flat/Maisonette/Townhouse","oldOrNew":"New build","duration":"Leasehold","paon":"GODLEY COURT","saon":"FLAT 3","street":"MOTTRAM ROAD","locality":"HYDE","townOrCity":"HYDE","district":"TAMESIDE","county":"GREATER MANCHESTER","ppdCategoryType":"Standard","recordStatus":"Addition","latitude":53.451266,"longitude":-2.063626,"postcodeStart":"SK14 2","postcode":["SK14","2SL"]}
{"price":33000,"dateOfTransfer":"1995-08-25T00:00:00","postcodeFull":"SK14 2RN","propertyType":"Terraced","oldOrNew":"Established","duration":"Leasehold","paon":"30","saon":"","street":"TOM SHEPLEY STREET","locality":"HYDE","townOrCity":"HYDE","district":"TAMESIDE","county":"GREATER MANCHESTER","ppdCategoryType":"Standard","recordStatus":"Addition","latitude":53.450462,"longitude":-2.07156,"postcodeStart":"SK14 2","postcode":["SK14","2RN"]}
{"price":46500,"dateOfTransfer":"1995-02-06T00:00:00","postcodeFull":"SK14 2PG","propertyType":"Terraced","oldOrNew":"Established","duration":"Freehold","paon":"10","saon":"","street":"CALLAND AVENUE","locality":"HYDE","townOrCity":"HYDE","district":"TAMESIDE","county":"GREATER MANCHESTER","ppdCategoryType":"Standard","recordStatus":"Addition","latitude":53.451859,"longitude":-2.063431,"postcodeStart":"SK14 2","postcode":["SK14","2PG"]}
{"price":38000,"dateOfTransfer":"1995-04-28T00:00:00","postcodeFull":"SK14 2RN","propertyType":"Terraced","oldOrNew":"Established","duration":"Freehold","paon":"3","saon":"","street":"TOM SHEPLEY STREET","locality":"HYDE","townOrCity":"HYDE","district":"TAMESIDE","county":"GREATER MANCHESTER","ppdCategoryType":"Standard","recordStatus":"Addition","latitude":53.450462,"longitude":-2.07156,"postcodeStart":"SK14 2","postcode":["SK14","2RN"]}
{"price":35000,"dateOfTransfer":"1995-10-30T00:00:00","postcodeFull":"SK14 2DB","propertyType":"Semi-detached","oldOrNew":"Established","duration":"Freehold","paon":"1","saon":"","street":"KINGSTON GARDENS","locality":"HYDE","townOrCity":"HYDE","district":"TAMESIDE","county":"GREATER MANCHESTER","ppdCategoryType":"Standard","recordStatus":"Addition","latitude":53.455166,"longitude":-2.092244,"postcodeStart":"SK14 2","postcode":["SK14","2DB"]}
{"price":25000,"dateOfTransfer":"1995-06-09T00:00:00","postcodeFull":"SK14 2PE","propertyType":"Terraced","oldOrNew":"Established","duration":"Freehold","paon":"233","saon":"","street":"MOTTRAM ROAD","locality":"HYDE","townOrCity":"HYDE","district":"TAMESIDE","county":"GREATER MANCHESTER","ppdCategoryType":"Standard","recordStatus":"Addition","latitude":53.451536,"longitude":-2.063701,"postcodeStart":"SK14 2","postcode":["SK14","2PE"]}
{"price":19000,"dateOfTransfer":"1995-05-19T00:00:00","postcodeFull":"SK14 2PU","propertyType":"Terraced","oldOrNew":"Established","duration":"Freehold","paon":"50","saon":"","street":"HIGH STREET","locality":"HYDE","townOrCity":"HYDE","district":"TAMESIDE","county":"GREATER MANCHESTER","ppdCategoryType":"Standard","recordStatus":"Addition","latitude":53.45442,"longitude":-2.065287,"postcodeStart":"SK14 2","postcode":["SK14","2PU"]}
{"price":22500,"dateOfTransfer":"1995-11-10T00:00:00","postcodeFull":"SK14 2NR","propertyType":"Terraced","oldOrNew":"Established","duration":"Freehold","paon":"85","saon":"","street":"MOTTRAM ROAD","locality":"HYDE","townOrCity":"HYDE","district":"TAMESIDE","county":"GREATER MANCHESTER","ppdCategoryType":"Standard","recordStatus":"Addition","latitude":53.45226,"longitude":-2.070012,"postcodeStart":"SK14 2","postcode":["SK14","2NR"]}
{"price":38500,"dateOfTransfer":"1995-08-11T00:00:00","postcodeFull":"SK14 2SE","propertyType":"Terraced","oldOrNew":"Established","duration":"Leasehold","paon":"40","saon":"","street":"GRANGE ROAD NORTH","locality":"HYDE","townOrCity":"HYDE","district":"TAMESIDE","county":"GREATER MANCHESTER","ppdCategoryType":"Standard","recordStatus":"Addition","latitude":53.44971,"longitude":-2.065762,"postcodeStart":"SK14 2","postcode":["SK14","2SE"]}
{"price":42500,"dateOfTransfer":"1995-11-27T00:00:00","postcodeFull":"SK14 2RH","propertyType":"Detached","oldOrNew":"Established","duration":"Leasehold","paon":"6","saon":"","street":"VICARAGE GARDENS","locality":"HYDE","townOrCity":"HYDE","district":"TAMESIDE","county":"GREATER MANCHESTER","ppdCategoryType":"Standard","recordStatus":"Addition","latitude":53.451263,"longitude":-2.069107,"postcodeStart":"SK14 2","postcode":["SK14","2RH"]}
{"price":44000,"dateOfTransfer":"1995-09-26T00:00:00","postcodeFull":"SK14 2RZ","propertyType":"Terraced","oldOrNew":"Established","duration":"Freehold","paon":"176","saon":"","street":"MOTTRAM ROAD","locality":"HYDE","townOrCity":"HYDE","district":"TAMESIDE","county":"GREATER MANCHESTER","ppdCategoryType":"Standard","recordStatus":"Addition","latitude":53.451516,"longitude":-2.067165,"postcodeStart":"SK14 2","postcode":["SK14","2RZ"]}
{"price":33150,"dateOfTransfer":"1995-06-14T00:00:00","postcodeFull":"SK14 2RU","propertyType":"Terraced","oldOrNew":"Established","duration":"Leasehold","paon":"9","saon":"","street":"RICHMOND STREET","locality":"HYDE","townOrCity":"HYDE","district":"TAMESIDE","county":"GREATER MANCHESTER","ppdCategoryType":"Standard","recordStatus":"Addition","latitude":53.451703,"longitude":-2.070101,"postcodeStart":"SK14 2","postcode":["SK14","2RU"]}
{"price":36000,"dateOfTransfer":"1995-01-20T00:00:00","postcodeFull":"SK14 2JX","propertyType":"Terraced","oldOrNew":"Established","duration":"Freehold","paon":"226","saon":"","street":"CLARENDON ROAD","locality":"HYDE","townOrCity":"HYDE","district":"TAMESIDE","county":"GREATER MANCHESTER","ppdCategoryType":"Standard","recordStatus":"Addition","latitude":53.456888,"longitude":-2.071797,"postcodeStart":"SK14 2","postcode":["SK14","2JX"]}
{"price":33750,"dateOfTransfer":"1995-12-08T00:00:00","postcodeFull":"SK14 2RN","propertyType":"Terraced","oldOrNew":"Established","duration":"Freehold","paon":"17","saon":"","street":"TOM SHEPLEY STREET","locality":"HYDE","townOrCity":"HYDE","district":"TAMESIDE","county":"GREATER MANCHESTER","ppdCategoryType":"Standard","recordStatus":"Addition","latitude":53.450462,"longitude":-2.07156,"postcodeStart":"SK14 2","postcode":["SK14","2RN"]}
{"price":8000,"dateOfTransfer":"1995-02-10T00:00:00","postcodeFull":"SK14 2SD","propertyType":"Terraced","oldOrNew":"Established","duration":"Leasehold","paon":"26","saon":"","street":"ELM GROVE","locality":"HYDE","townOrCity":"HYDE","district":"TAMESIDE","county":"GREATER MANCHESTER","ppdCategoryType":"Standard","recordStatus":"Addition","latitude":53.450276,"longitude":-2.066907,"postcodeStart":"SK14 2","postcode":["SK14","2SD"]}
{"price":34950,"dateOfTransfer":"1995-08-30T00:00:00","postcodeFull":"SK14 2RS","propertyType":"Terraced","oldOrNew":"Established","duration":"Leasehold","paon":"106","saon":"","street":"MOTTRAM ROAD","locality":"HYDE","townOrCity":"HYDE","district":"TAMESIDE","county":"GREATER MANCHESTER","ppdCategoryType":"Standard","recordStatus":"Addition","latitude":53.452053,"longitude":-2.070659,"postcodeStart":"SK14 2","postcode":["SK14","2RS"]}
{"price":32500,"dateOfTransfer":"1995-08-07T00:00:00","postcodeFull":"SK14 2DL","propertyType":"Terraced","oldOrNew":"Established","duration":"Leasehold","paon":"46","saon":"","street":"MILL LANE","locality":"HYDE","townOrCity":"HYDE","district":"TAMESIDE","county":"GREATER MANCHESTER","ppdCategoryType":"Standard","recordStatus":"Addition","latitude":53.451941,"longitude":-2.090415,"postcodeStart":"SK14 2","postcode":["SK14","2DL"]}
{"price":40000,"dateOfTransfer":"1995-01-26T00:00:00","postcodeFull":"SK14 2SP","propertyType":"Semi-detached","oldOrNew":"Established","duration":"Freehold","paon":"43","saon":"","street":"ST PAULS HILL ROAD","locality":"HYDE","townOrCity":"HYDE","district":"TAMESIDE","county":"GREATER MANCHESTER","ppdCategoryType":"Standard","recordStatus":"Addition","latitude":53.450647,"longitude":-2.06224,"postcodeStart":"SK14 2","postcode":["SK14","2SP"]}
{"price":73800,"dateOfTransfer":"1995-09-08T00:00:00","postcodeFull":"SK14 2PR","propertyType":"Semi-detached","oldOrNew":"Established","duration":"Leasehold","paon":"41","saon":"","street":"SHEFFIELD ROAD","locality":"HYDE","townOrCity":"HYDE","district":"TAMESIDE","county":"GREATER MANCHESTER","ppdCategoryType":"Standard","recordStatus":"Addition","latitude":53.454538,"longitude":-2.062893,"postcodeStart":"SK14 2","postcode":["SK14","2PR"]}
{"price":31500,"dateOfTransfer":"1995-10-27T00:00:00","postcodeFull":"SK14 2JY","propertyType":"Terraced","oldOrNew":"Established","duration":"Leasehold","paon":"174","saon":"","street":"CLARENDON ROAD","locality":"HYDE","townOrCity":"HYDE","district":"TAMESIDE","county":"GREATER MANCHESTER","ppdCategoryType":"Standard","recordStatus":"Addition","latitude":53.456159,"longitude":-2.073437,"postcodeStart":"SK14 2","postcode":["SK14","2JY"]}
{"price":19000,"dateOfTransfer":"1995-03-10T00:00:00","postcodeFull":"SK14 2LD","propertyType":"Terraced","oldOrNew":"Established","duration":"Leasehold","paon":"51","saon":"","street":"CORONA AVENUE","locality":"HYDE","townOrCity":"HYDE","district":"TAMESIDE","county":"GREATER MANCHESTER","ppdCategoryType":"Standard","recordStatus":"Addition","latitude":53.455818,"longitude":-2.072322,"postcodeStart":"SK14 2","postcode":["SK14","2LD"]}
{"price":36000,"dateOfTransfer":"1995-04-05T00:00:00","postcodeFull":"SK14 2RX","propertyType":"Terraced","oldOrNew":"Established","duration":"Leasehold","paon":"8","saon":"","street":"PRINCESS STREET","locality":"HYDE","townOrCity":"HYDE","district":"TAMESIDE","county":"GREATER MANCHESTER","ppdCategoryType":"Standard","recordStatus":"Addition","latitude":53.451478,"longitude":-2.069845,"postcodeStart":"SK14 2","postcode":["SK14","2RX"]}
{"price":38950,"dateOfTransfer":"1995-07-28T00:00:00","postcodeFull":"SK14 2PE","propertyType":"Terraced","oldOrNew":"Established","duration":"Freehold","paon":"217","saon":"","street":"MOTTRAM ROAD","locality":"HYDE","townOrCity":"HYDE","district":"TAMESIDE","county":"GREATER MANCHESTER","ppdCategoryType":"Standard","recordStatus":"Addition","latitude":53.451536,"longitude":-2.063701,"postcodeStart":"SK14 2","postcode":["SK14","2PE"]}
{"price":33000,"dateOfTransfer":"1995-10-20T00:00:00","postcodeFull":"SK14 2PS","propertyType":"Terraced","oldOrNew":"Established","duration":"Freehold","paon":"11","saon":"","street":"FOUNTAIN STREET","locality":"HYDE","townOrCity":"HYDE","district":"TAMESIDE","county":"GREATER MANCHESTER","ppdCategoryType":"Standard","recordStatus":"Addition","latitude":53.454034,"longitude":-2.064172,"postcodeStart":"SK14 2","postcode":["SK14","2PS"]}
{"price":35500,"dateOfTransfer":"1995-11-03T00:00:00","postcodeFull":"SK14 2LB","propertyType":"Terraced","oldOrNew":"Established","duration":"Leasehold","paon":"4","saon":"","street":"BEDFORD AVENUE","locality":"HYDE","townOrCity":"HYDE","district":"TAMESIDE","county":"GREATER MANCHESTER","ppdCategoryType":"Standard","recordStatus":"Addition","latitude":53.45535,"longitude":-2.073134,"postcodeStart":"SK14 2","postcode":["SK14","2LB"]}
{"price":41500,"dateOfTransfer":"1995-08-25T00:00:00","postcodeFull":"SK14 2LD","propertyType":"Terraced","oldOrNew":"Established","duration":"Leasehold","paon":"51","saon":"","street":"CORONA AVENUE","locality":"HYDE","townOrCity":"HYDE","district":"TAMESIDE","county":"GREATER MANCHESTER","ppdCategoryType":"Standard","recordStatus":"Addition","latitude":53.455818,"longitude":-2.072322,"postcodeStart":"SK14 2","postcode":["SK14","2LD"]}
{"price":20000,"dateOfTransfer":"1995-02-28T00:00:00","postcodeFull":"SK14 2PS","propertyType":"Terraced","oldOrNew":"Established","duration":"Freehold","paon":"11","saon":"","street":"FOUNTAIN STREET","locality":"HYDE","townOrCity":"HYDE","district":"TAMESIDE","county":"GREATER MANCHESTER","ppdCategoryType":"Standard","recordStatus":"Addition","latitude":53.454034,"longitude":-2.064172,"postcodeStart":"SK14 2","postcode":["SK14","2PS"]}
{"price":85000,"dateOfTransfer":"1995-10-02T00:00:00","postcodeFull":"SK14 2PE","propertyType":"Detached","oldOrNew":"Established","duration":"Freehold","paon":"195","saon":"","street":"MOTTRAM ROAD","locality":"","townOrCity":"HYDE","district":"TAMESIDE","county":"GREATER MANCHESTER","ppdCategoryType":"Standard","recordStatus":"Addition","latitude":53.451536,"longitude":-2.063701,"postcodeStart":"SK14 2","postcode":["SK14","2PE"]}
{"price":11000,"dateOfTransfer":"1995-06-28T00:00:00","postcodeFull":"SK14 2DL","propertyType":"Terraced","oldOrNew":"Established","duration":"Leasehold","paon":"22","saon":"","street":"MILL LANE","locality":"HYDE","townOrCity":"HYDE","district":"TAMESIDE","county":"GREATER MANCHESTER","ppdCategoryType":"Standard","recordStatus":"Addition","latitude":53.451941,"longitude":-2.090415,"postcodeStart":"SK14 2","postcode":["SK14","2DL"]}
{"price":32000,"dateOfTransfer":"1995-04-21T00:00:00","postcodeFull":"SK14 2DB","propertyType":"Semi-detached","oldOrNew":"Established","duration":"Freehold","paon":"9","saon":"","street":"KINGSTON GARDENS","locality":"HYDE","townOrCity":"HYDE","district":"TAMESIDE","county":"GREATER MANCHESTER","ppdCategoryType":"Standard","recordStatus":"Addition","latitude":53.455166,"longitude":-2.092244,"postcodeStart":"SK14 2","postcode":["SK14","2DB"]}
{"price":35000,"dateOfTransfer":"1995-03-03T00:00:00","postcodeFull":"SK14 2BT","propertyType":"Terraced","oldOrNew":"Established","duration":"Freehold","paon":"81","saon":"","street":"MANCHESTER ROAD","locality":"","townOrCity":"HYDE","district":"TAMESIDE","county":"GREATER MANCHESTER","ppdCategoryType":"Standard","recordStatus":"Addition","latitude":53.453261,"longitude":-2.089017,"postcodeStart":"SK14 2","postcode":["SK14","2BT"]}
{"price":30000,"dateOfTransfer":"1995-03-10T00:00:00","postcodeFull":"SK14 2SD","propertyType":"Terraced","oldOrNew":"Established","duration":"Leasehold","paon":"22","saon":"","street":"ELM GROVE","locality":"HYDE","townOrCity":"HYDE","district":"TAMESIDE","county":"GREATER MANCHESTER","ppdCategoryType":"Standard","recordStatus":"Addition","latitude":53.450276,"longitude":-2.066907,"postcodeStart":"SK14 2","postcode":["SK14","2SD"]}
{"price":79950,"dateOfTransfer":"1995-04-21T00:00:00","postcodeFull":"SK14 2SH","propertyType":"Detached","oldOrNew":"New build","duration":"Freehold","paon":"7","saon":"","street":"GRANGE ROAD NORTH","locality":"HYDE","townOrCity":"HYDE","district":"TAMESIDE","county":"GREATER MANCHESTER","ppdCategoryType":"Standard","recordStatus":"Addition","latitude":53.450861,"longitude":-2.065568,"postcodeStart":"SK14 2","postcode":["SK14","2SH"]}
{"price":33000,"dateOfTransfer":"1995-09-29T00:00:00","postcodeFull":"SK14 2NZ","propertyType":"Terraced","oldOrNew":"Established","duration":"Leasehold","paon":"13","saon":"","street":"ALBERT STREET","locality":"HYDE","townOrCity":"HYDE","district":"TAMESIDE","county":"GREATER MANCHESTER","ppdCategoryType":"Standard","recordStatus":"Addition","latitude":53.452081,"longitude":-2.067301,"postcodeStart":"SK14 2","postcode":["SK14","2NZ"]}
{"price":34500,"dateOfTransfer":"1995-05-25T00:00:00","postcodeFull":"SK14 2RN","propertyType":"Terraced","oldOrNew":"Established","duration":"Freehold","paon":"15","saon":"","street":"TOM SHEPLEY STREET","locality":"HYDE","townOrCity":"HYDE","district":"TAMESIDE","county":"GREATER MANCHESTER","ppdCategoryType":"Standard","recordStatus":"Addition","latitude":53.450462,"longitude":-2.07156,"postcodeStart":"SK14 2","postcode":["SK14","2RN"]}
{"price":56000,"dateOfTransfer":"1995-05-25T00:00:00","postcodeFull":"SK14 2ST","propertyType":"Semi-detached","oldOrNew":"Established","duration":"Freehold","paon":"4","saon":"","street":"ST GILES DRIVE","locality":"HYDE","townOrCity":"HYDE","district":"TAMESIDE","county":"GREATER MANCHESTER","ppdCategoryType":"Standard","recordStatus":"Addition","latitude":53.448939,"longitude":-2.062433,"postcodeStart":"SK14 2","postcode":["SK14","2ST"]}
{"price":40000,"dateOfTransfer":"1995-11-30T00:00:00","postcodeFull":"SK14 2NX","propertyType":"Terraced","oldOrNew":"Established","duration":"Freehold","paon":"127","saon":"","street":"MOTTRAM ROAD","locality":"HYDE","townOrCity":"HYDE","district":"TAMESIDE","county":"GREATER MANCHESTER","ppdCategoryType":"Standard","recordStatus":"Addition","latitude":53.451884,"longitude":-2.067783,"postcodeStart":"SK14 2","postcode":["SK14","2NX"]}
{"price":42000,"dateOfTransfer":"1995-03-31T00:00:00","postcodeFull":"SK14 2PR","propertyType":"Terraced","oldOrNew":"Established","duration":"Freehold","paon":"61","saon":"","street":"SHEFFIELD ROAD","locality":"HYDE","townOrCity":"HYDE","district":"TAMESIDE","county":"GREATER MANCHESTER","ppdCategoryType":"Standard","recordStatus":"Addition","latitude":53.454538,"longitude":-2.062893,"postcodeStart":"SK14 2","postcode":["SK14","2PR"]}
{"price":29500,"dateOfTransfer":"1995-04-27T00:00:00","postcodeFull":"SK14 2LJ","propertyType":"Terraced","oldOrNew":"Established","duration":"Freehold","paon":"110","saon":"","street":"CLARENDON ROAD","locality":"HYDE","townOrCity":"HYDE","district":"TAMESIDE","county":"GREATER MANCHESTER","ppdCategoryType":"Standard","recordStatus":"Addition","latitude":53.455688,"longitude":-2.07568,"postcodeStart":"SK14 2","postcode":["SK14","2LJ"]}
{"price":60000,"dateOfTransfer":"1995-03-24T00:00:00","postcodeFull":"SK14 2SP","propertyType":"Semi-detached","oldOrNew":"Established","duration":"Freehold","paon":"37","saon":"","street":"ST PAULS HILL ROAD","locality":"HYDE","townOrCity":"HYDE","district":"TAMESIDE","county":"GREATER MANCHESTER","ppdCategoryType":"Standard","recordStatus":"Addition","latitude":53.450647,"longitude":-2.06224,"postcodeStart":"SK14 2","postcode":["SK14","2SP"]}
{"price":25000,"dateOfTransfer":"1995-07-21T00:00:00","postcodeFull":"SK14 2LD","propertyType":"Terraced","oldOrNew":"Established","duration":"Leasehold","paon":"34","saon":"","street":"CORONA AVENUE","locality":"HYDE","townOrCity":"HYDE","district":"TAMESIDE","county":"GREATER MANCHESTER","ppdCategoryType":"Standard","recordStatus":"Addition","latitude":53.455818,"longitude":-2.072322,"postcodeStart":"SK14 2","postcode":["SK14","2LD"]}
{"price":57000,"dateOfTransfer":"1995-04-27T00:00:00","postcodeFull":"SK14 2NX","propertyType":"Terraced","oldOrNew":"Established","duration":"Freehold","paon":"163","saon":"","street":"MOTTRAM ROAD","locality":"HYDE","townOrCity":"HYDE","district":"TAMESIDE","county":"GREATER MANCHESTER","ppdCategoryType":"Standard","recordStatus":"Addition","latitude":53.451884,"longitude":-2.067783,"postcodeStart":"SK14 2","postcode":["SK14","2NX"]}
{"price":38750,"dateOfTransfer":"1995-02-03T00:00:00","postcodeFull":"SK14 2PL","propertyType":"Terraced","oldOrNew":"Established","duration":"Leasehold","paon":"81","saon":"","street":"SHEFFIELD ROAD","locality":"HYDE","townOrCity":"HYDE","district":"TAMESIDE","county":"GREATER MANCHESTER","ppdCategoryType":"Standard","recordStatus":"Addition","latitude":53.453694,"longitude":-2.061145,"postcodeStart":"SK14 2","postcode":["SK14","2PL"]}
{"price":18000,"dateOfTransfer":"1995-12-28T00:00:00","postcodeFull":"SK14 2RT","propertyType":"Terraced","oldOrNew":"Established","duration":"Leasehold","paon":"37","saon":"","street":"BOSTON STREET","locality":"HYDE","townOrCity":"HYDE","district":"TAMESIDE","county":"GREATER MANCHESTER","ppdCategoryType":"Standard","recordStatus":"Addition","latitude":53.451514,"longitude":-2.070869,"postcodeStart":"SK14 2","postcode":["SK14","2RT"]}
{"price":20000,"dateOfTransfer":"1995-10-17T00:00:00","postcodeFull":"SK14 2PZ","propertyType":"Terraced","oldOrNew":"Established","duration":"Freehold","paon":"14","saon":"","street":"SIDLEY STREET","locality":"HYDE","townOrCity":"HYDE","district":"TAMESIDE","county":"GREATER MANCHESTER","ppdCategoryType":"Standard","recordStatus":"Addition","latitude":53.453845,"longitude":-2.065617,"postcodeStart":"SK14 2","postcode":["SK14","2PZ"]}
{"price":28000,"dateOfTransfer":"1995-03-31T00:00:00","postcodeFull":"SK14 2RN","propertyType":"Terraced","oldOrNew":"Established","duration":"Freehold","paon":"25","saon":"","street":"TOM SHEPLEY STREET","locality":"HYDE","townOrCity":"HYDE","district":"TAMESIDE","county":"GREATER MANCHESTER","ppdCategoryType":"Standard","recordStatus":"Addition","latitude":53.450462,"longitude":-2.07156,"postcodeStart":"SK14 2","postcode":["SK14","2RN"]}
{"price":30000,"dateOfTransfer":"1995-08-04T00:00:00","postcodeFull":"SK14 2SE","propertyType":"Terraced","oldOrNew":"Established","duration":"Leasehold","paon":"24","saon":"","street":"GRANGE ROAD NORTH","locality":"HYDE","townOrCity":"HYDE","district":"TAMESIDE","county":"GREATER MANCHESTER","ppdCategoryType":"Standard","recordStatus":"Addition","latitude":53.44971,"longitude":-2.065762,"postcodeStart":"SK14 2","postcode":["SK14","2SE"]}
{"price":17500,"dateOfTransfer":"1995-12-12T00:00:00","postcodeFull":"SK14 2NU","propertyType":"Terraced","oldOrNew":"Established","duration":"Freehold","paon":"4","saon":"","street":"STEELES AVENUE","locality":"HYDE","townOrCity":"HYDE","district":"TAMESIDE","county":"GREATER MANCHESTER","ppdCategoryType":"Standard","recordStatus":"Addition","latitude":53.452529,"longitude":-2.070615,"postcodeStart":"SK14 2","postcode":["SK14","2NU"]}
{"price":34000,"dateOfTransfer":"1995-03-02T00:00:00","postcodeFull":"SK14 2SL","propertyType":"Flat/Maisonette/Townhouse","oldOrNew":"Established","duration":"Leasehold","paon":"GODLEY COURT","saon":"FLAT 10","street":"MOTTRAM ROAD","locality":"HYDE","townOrCity":"HYDE","district":"TAMESIDE","county":"GREATER MANCHESTER","ppdCategoryType":"Standard","recordStatus":"Addition","latitude":53.451266,"longitude":-2.063626,"postcodeStart":"SK14 2","postcode":["SK14","2SL"]}
{"price":15000,"dateOfTransfer":"1995-02-28T00:00:00","postcodeFull":"SK14 2RZ","propertyType":"Terraced","oldOrNew":"Established","duration":"Freehold","paon":"176","saon":"","street":"MOTTRAM ROAD","locality":"HYDE","townOrCity":"HYDE","district":"TAMESIDE","county":"GREATER MANCHESTER","ppdCategoryType":"Standard","recordStatus":"Addition","latitude":53.451516,"longitude":-2.067165,"postcodeStart":"SK14 2","postcode":["SK14","2RZ"]}
{"price":43500,"dateOfTransfer":"1995-03-31T00:00:00","postcodeFull":"SK14 2LN","propertyType":"Semi-detached","oldOrNew":"Established","duration":"Leasehold","paon":"2","saon":"","street":"PARK ROAD","locality":"HYDE","townOrCity":"HYDE","district":"TAMESIDE","county":"GREATER MANCHESTER","ppdCategoryType":"Standard","recordStatus":"Addition","latitude":53.455363,"longitude":-2.078314,"postcodeStart":"SK14 2","postcode":["SK14","2LN"]}
{"price":15000,"dateOfTransfer":"1995-08-03T00:00:00","postcodeFull":"SK14 2RG","propertyType":"Terraced","oldOrNew":"Established","duration":"Freehold","paon":"10","saon":"","street":"ORCHARD STREET","locality":"HYDE","townOrCity":"HYDE","district":"TAMESIDE","county":"GREATER MANCHESTER","ppdCategoryType":"Standard","recordStatus":"Addition","latitude":53.450811,"longitude":-2.072735,"postcodeStart":"SK14 2","postcode":["SK14","2RG"]}
{"price":36400,"dateOfTransfer":"1996-10-11T00:00:00","postcodeFull":"SK14 2RT","propertyType":"Terraced","oldOrNew":"Established","duration":"Leasehold","paon":"43","saon":"","street":"BOSTON STREET","locality":"HYDE","townOrCity":"HYDE","district":"TAMESIDE","county":"GREATER MANCHESTER","ppdCategoryType":"Standard","recordStatus":"Addition","latitude":53.451514,"longitude":-2.070869,"postcodeStart":"SK14 2","postcode":["SK14","2RT"]}
{"price":33500,"dateOfTransfer":"1996-04-19T00:00:00","postcodeFull":"SK14 2SL","propertyType":"Flat/Maisonette/Townhouse","oldOrNew":"New build","duration":"Leasehold","paon":"GODLEY COURT","saon":"FLAT 2","street":"MOTTRAM ROAD","locality":"HYDE","townOrCity":"HYDE","district":"TAMESIDE","county":"GREATER MANCHESTER","ppdCategoryType":"Standard","recordStatus":"Addition","latitude":53.451266,"longitude":-2.063626,"postcodeStart":"SK14 2","postcode":["SK14","2SL"]}
{"price":9000,"dateOfTransfer":"1996-09-04T00:00:00","postcodeFull":"SK14 2NX","propertyType":"Terraced","oldOrNew":"Established","duration":"Freehold","paon":"159","saon":"","street":"MOTTRAM ROAD","locality":"HYDE","townOrCity":"HYDE","district":"TAMESIDE","county":"GREATER MANCHESTER","ppdCategoryType":"Standard","recordStatus":"Addition","latitude":53.451884,"longitude":-2.067783,"postcodeStart":"SK14 2","postcode":["SK14","2NX"]}
{"price":40000,"dateOfTransfer":"1996-09-16T00:00:00","postcodeFull":"SK14 2SH","propertyType":"Terraced","oldOrNew":"Established","duration":"Freehold","paon":"8","saon":"","street":"","locality":"RYLEYS LANE","townOrCity":"HYDE","district":"TAMESIDE","county":"GREATER MANCHESTER","ppdCategoryType":"Standard","recordStatus":"Addition","latitude":53.450861,"longitude":-2.065568,"postcodeStart":"SK14 2","postcode":["SK14","2SH"]}
{"price":15000,"dateOfTransfer":"1996-08-28T00:00:00","postcodeFull":"SK14 2BX","propertyType":"Flat/Maisonette/Townhouse","oldOrNew":"Established","duration":"Leasehold","paon":"121","saon":"","street":"MANCHESTER ROAD","locality":"HYDE","townOrCity":"HYDE","district":"TAMESIDE","county":"GREATER MANCHESTER","ppdCategoryType":"Standard","recordStatus":"Addition","latitude":53.453486,"longitude":-2.091111,"postcodeStart":"SK14 2","postcode":["SK14","2BX"]}
{"price":43950,"dateOfTransfer":"1996-07-22T00:00:00","postcodeFull":"SK14 2LB","propertyType":"Terraced","oldOrNew":"Established","duration":"Leasehold","paon":"12","saon":"","street":"BEDFORD AVENUE","locality":"HYDE","townOrCity":"HYDE","district":"TAMESIDE","county":"GREATER MANCHESTER","ppdCategoryType":"Standard","recordStatus":"Addition","latitude":53.45535,"longitude":-2.073134,"postcodeStart":"SK14 2","postcode":["SK14","2LB"]}
{"price":27000,"dateOfTransfer":"1996-03-08T00:00:00","postcodeFull":"SK14 2JY","propertyType":"Terraced","oldOrNew":"Established","duration":"Leasehold","paon":"214","saon":"","street":"CLARENDON ROAD","locality":"HYDE","townOrCity":"HYDE","district":"TAMESIDE","county":"GREATER MANCHESTER","ppdCategoryType":"Standard","recordStatus":"Addition","latitude":53.456159,"longitude":-2.073437,"postcodeStart":"SK14 2","postcode":["SK14","2JY"]}
{"price":27250,"dateOfTransfer":"1996-05-28T00:00:00","postcodeFull":"SK14 2BX","propertyType":"Terraced","oldOrNew":"Established","duration":"Leasehold","paon":"155","saon":"","street":"MANCHESTER ROAD","locality":"HYDE","townOrCity":"HYDE","district":"TAMESIDE","county":"GREATER MANCHESTER","ppdCategoryType":"Standard","recordStatus":"Addition","latitude":53.453486,"longitude":-2.091111,"postcodeStart":"SK14 2","postcode":["SK14","2BX"]}
{"price":40600,"dateOfTransfer":"1996-12-11T00:00:00","postcodeFull":"SK14 2NZ","propertyType":"Terraced","oldOrNew":"Established","duration":"Freehold","paon":"8","saon":"","street":"ALBERT STREET","locality":"HYDE","townOrCity":"HYDE","district":"TAMESIDE","county":"GREATER MANCHESTER","ppdCategoryType":"Standard","recordStatus":"Addition","latitude":53.452081,"longitude":-2.067301,"postcodeStart":"SK14 2","postcode":["SK14","2NZ"]}
{"price":80000,"dateOfTransfer":"1996-04-26T00:00:00","postcodeFull":"SK14 2PL","propertyType":"Semi-detached","oldOrNew":"Established","duration":"Freehold","paon":"109","saon":"","street":"SHEFFIELD ROAD","locality":"HYDE","townOrCity":"HYDE","district":"TAMESIDE","county":"GREATER MANCHESTER","ppdCategoryType":"Standard","recordStatus":"Addition","latitude":53.453694,"longitude":-2.061145,"postcodeStart":"SK14 2","postcode":["SK14","2PL"]}
{"price":49650,"dateOfTransfer":"1996-09-09T00:00:00","postcodeFull":"SK14 2PX","propertyType":"Terraced","oldOrNew":"Established","duration":"Leasehold","paon":"18","saon":"","street":"GREEN HILL ROAD","locality":"HYDE","townOrCity":"HYDE","district":"TAMESIDE","county":"GREATER MANCHESTER","ppdCategoryType":"Standard","recordStatus":"Addition","latitude":53.454198,"longitude":-2.0611,"postcodeStart":"SK14 2","postcode":["SK14","2PX"]}
{"price":60000,"dateOfTransfer":"1996-05-10T00:00:00","postcodeFull":"SK14 2AB","propertyType":"Terraced","oldOrNew":"Established","duration":"Freehold","paon":"55","saon":"","street":"MARKET STREET","locality":"HYDE","townOrCity":"HYDE","district":"TAMESIDE","county":"GREATER MANCHESTER","ppdCategoryType":"Standard","recordStatus":"Addition","latitude":53.451831,"longitude":-2.080206,"postcodeStart":"SK14 2","postcode":["SK14","2AB"]}
{"price":36900,"dateOfTransfer":"1996-11-25T00:00:00","postcodeFull":"SK14 2NU","propertyType":"Terraced","oldOrNew":"Established","duration":"Freehold","paon":"18","saon":"","street":"STEELES AVENUE","locality":"HYDE","townOrCity":"HYDE","district":"TAMESIDE","county":"GREATER MANCHESTER","ppdCategoryType":"Standard","recordStatus":"Addition","latitude":53.452529,"longitude":-2.070615,"postcodeStart":"SK14 2","postcode":["SK14","2NU"]}
{"price":42000,"dateOfTransfer":"1996-08-19T00:00:00","postcodeFull":"SK14 2RL","propertyType":"Terraced","oldOrNew":"Established","duration":"Freehold","paon":"30","saon":"","street":"SHEPLEY STREET","locality":"HYDE","townOrCity":"HYDE","district":"TAMESIDE","county":"GREATER MANCHESTER","ppdCategoryType":"Standard","recordStatus":"Addition","latitude":53.451405,"longitude":-2.072254,"postcodeStart":"SK14 2","postcode":["SK14","2RL"]}
{"price":31000,"dateOfTransfer":"1996-12-20T00:00:00","postcodeFull":"SK14 2SD","propertyType":"Terraced","oldOrNew":"Established","duration":"Leasehold","paon":"13","saon":"","street":"ELM GROVE","locality":"HYDE","townOrCity":"HYDE","district":"TAMESIDE","county":"GREATER MANCHESTER","ppdCategoryType":"Standard","recordStatus":"Addition","latitude":53.450276,"longitude":-2.066907,"postcodeStart":"SK14 2","postcode":["SK14","2SD"]}
{"price":10750,"dateOfTransfer":"1996-03-20T00:00:00","postcodeFull":"SK14 2BX","propertyType":"Terraced","oldOrNew":"Established","duration":"Leasehold","paon":"145","saon":"","street":"MANCHESTER ROAD","locality":"HYDE","townOrCity":"HYDE","district":"TAMESIDE","county":"GREATER MANCHESTER","ppdCategoryType":"Standard","recordStatus":"Addition","latitude":53.453486,"longitude":-2.091111,"postcodeStart":"SK14 2","postcode":["SK14","2BX"]}
{"price":33631,"dateOfTransfer":"1996-09-27T00:00:00","postcodeFull":"SK14 2SD","propertyType":"Terraced","oldOrNew":"Established","duration":"Freehold","paon":"29","saon":"","street":"ELM GROVE","locality":"HYDE","townOrCity":"HYDE","district":"TAMESIDE","county":"GREATER MANCHESTER","ppdCategoryType":"Standard","recordStatus":"Addition","latitude":53.450276,"longitude":-2.066907,"postcodeStart":"SK14 2","postcode":["SK14","2SD"]}
{"price":11500,"dateOfTransfer":"1996-02-23T00:00:00","postcodeFull":"SK14 2PB","propertyType":"Terraced","oldOrNew":"Established","duration":"Freehold","paon":"1","saon":"","street":"TAYLOR STREET","locality":"HYDE","townOrCity":"HYDE","district":"TAMESIDE","county":"GREATER MANCHESTER","ppdCategoryType":"Standard","recordStatus":"Addition","latitude":53.452101,"longitude":-2.066202,"postcodeStart":"SK14 2","postcode":["SK14","2PB"]}
{"price":55750,"dateOfTransfer":"1996-10-10T00:00:00","postcodeFull":"SK14 2SW","propertyType":"Semi-detached","oldOrNew":"Established","duration":"Freehold","paon":"32","saon":"","street":"ST PAULS HILL ROAD","locality":"HYDE","townOrCity":"HYDE","district":"TAMESIDE","county":"GREATER MANCHESTER","ppdCategoryType":"Standard","recordStatus":"Addition","latitude":53.449765,"longitude":-2.062931,"postcodeStart":"SK14 2","postcode":["SK14","2SW"]}
{"price":34500,"dateOfTransfer":"1996-12-18T00:00:00","postcodeFull":"SK14 2JQ","propertyType":"Flat/Maisonette/Townhouse","oldOrNew":"New build","duration":"Leasehold","paon":"ST PAULS GARDENS","saon":"FLAT 9","street":"NEWMAN STREET","locality":"HYDE","townOrCity":"HYDE","district":"TAMESIDE","county":"GREATER MANCHESTER","ppdCategoryType":"Standard","recordStatus":"Addition","latitude":53.455793,"longitude":-2.070003,"postcodeStart":"SK14 2","postcode":["SK14","2JQ"]}
{"price":29000,"dateOfTransfer":"1996-06-07T00:00:00","postcodeFull":"SK14 2RN","propertyType":"Semi-detached","oldOrNew":"Established","duration":"Leasehold","paon":"6","saon":"","street":"TOM SHEPLEY STREET","locality":"HYDE","townOrCity":"HYDE","district":"TAMESIDE","county":"GREATER MANCHESTER","ppdCategoryType":"Standard","recordStatus":"Addition","latitude":53.450462,"longitude":-2.07156,"postcodeStart":"SK14 2","postcode":["SK14","2RN"]}
{"price":16000,"dateOfTransfer":"1996-08-30T00:00:00","postcodeFull":"SK14 2RG","propertyType":"Terraced","oldOrNew":"Established","duration":"Freehold","paon":"6","saon":"","street":"ORCHARD STREET","locality":"HYDE","townOrCity":"HYDE","district":"TAMESIDE","county":"GREATER MANCHESTER","ppdCategoryType":"Standard","recordStatus":"Addition","latitude":53.450811,"longitude":-2.072735,"postcodeStart":"SK14 2","postcode":["SK14","2RG"]}
{"price":37000,"dateOfTransfer":"1996-06-28T00:00:00","postcodeFull":"SK14 2SE","propertyType":"Terraced","oldOrNew":"Established","duration":"Leasehold","paon":"37","saon":"","street":"GRANGE ROAD NORTH","locality":"HYDE","townOrCity":"HYDE","district":"TAMESIDE","county":"GREATER MANCHESTER","ppdCategoryType":"Standard","recordStatus":"Addition","latitude":53.44971,"longitude":-2.065762,"postcodeStart":"SK14 2","postcode":["SK14","2SE"]}
{"price":45950,"dateOfTransfer":"1996-11-01T00:00:00","postcodeFull":"SK14 2PL","propertyType":"Semi-detached","oldOrNew":"Established","duration":"Freehold","paon":"112","saon":"","street":"SHEFFIELD ROAD","locality":"HYDE","townOrCity":"HYDE","district":"TAMESIDE","county":"GREATER MANCHESTER","ppdCategoryType":"Standard","recordStatus":"Addition","latitude":53.453694,"longitude":-2.061145,"postcodeStart":"SK14 2","postcode":["SK14","2PL"]}
{"price":31000,"dateOfTransfer":"1996-09-26T00:00:00","postcodeFull":"SK14 2RT","propertyType":"Terraced","oldOrNew":"Established","duration":"Leasehold","paon":"11","saon":"","street":"BOSTON STREET","locality":"HYDE","townOrCity":"HYDE","district":"TAMESIDE","county":"GREATER MANCHESTER","ppdCategoryType":"Standard","recordStatus":"Addition","latitude":53.451514,"longitude":-2.070869,"postcodeStart":"SK14 2","postcode":["SK14","2RT"]}
{"price":37400,"dateOfTransfer":"1996-10-24T00:00:00","postcodeFull":"SK14 2SH","propertyType":"Terraced","oldOrNew":"Established","duration":"Freehold","paon":"6","saon":"","street":"","locality":"RYLEYS LANE","townOrCity":"HYDE","district":"TAMESIDE","county":"GREATER MANCHESTER","ppdCategoryType":"Standard","recordStatus":"Addition","latitude":53.450861,"longitude":-2.065568,"postcodeStart":"SK14 2","postcode":["SK14","2SH"]}
{"price":29000,"dateOfTransfer":"1996-09-30T00:00:00","postcodeFull":"SK14 2NH","propertyType":"Terraced","oldOrNew":"Established","duration":"Freehold","paon":"8","saon":"","street":"HALTON STREET","locality":"HYDE","townOrCity":"HYDE","district":"TAMESIDE","county":"GREATER MANCHESTER","ppdCategoryType":"Standard","recordStatus":"Addition","latitude":53.452226,"longitude":-2.067798,"postcodeStart":"SK14 2","postcode":["SK14","2NH"]}
{"price":20000,"dateOfTransfer":"1996-08-21T00:00:00","postcodeFull":"SK14 2SD","propertyType":"Terraced","oldOrNew":"Established","duration":"Leasehold","paon":"30","saon":"","street":"ELM GROVE","locality":"HYDE","townOrCity":"HYDE","district":"TAMESIDE","county":"GREATER MANCHESTER","ppdCategoryType":"Standard","recordStatus":"Addition","latitude":53.450276,"longitude":-2.066907,"postcodeStart":"SK14 2","postcode":["SK14","2SD"]}
{"price":45000,"dateOfTransfer":"1996-12-16T00:00:00","postcodeFull":"SK14 2PF","propertyType":"Terraced","oldOrNew":"Established","duration":"Freehold","paon":"2","saon":"","street":"LEECH STREET","locality":"HYDE","townOrCity":"HYDE","district":"TAMESIDE","county":"GREATER MANCHESTER","ppdCategoryType":"Standard","recordStatus":"Addition","latitude":53.451893,"longitude":-2.063943,"postcodeStart":"SK14 2","postcode":["SK14","2PF"]}
{"price":25000,"dateOfTransfer":"1996-09-26T00:00:00","postcodeFull":"SK14 2PR","propertyType":"Terraced","oldOrNew":"Established","duration":"Freehold","paon":"69","saon":"","street":"SHEFFIELD ROAD","locality":"HYDE","townOrCity":"HYDE","district":"TAMESIDE","county":"GREATER MANCHESTER","ppdCategoryType":"Standard","recordStatus":"Addition","latitude":53.454538,"longitude":-2.062893,"postcodeStart":"SK14 2","postcode":["SK14","2PR"]}
{"price":22500,"dateOfTransfer":"1996-05-31T00:00:00","postcodeFull":"SK14 2SD","propertyType":"Terraced","oldOrNew":"Established","duration":"Leasehold","paon":"18","saon":"","street":"ELM GROVE","locality":"HYDE","townOrCity":"HYDE","district":"TAMESIDE","county":"GREATER MANCHESTER","ppdCategoryType":"Standard","recordStatus":"Addition","latitude":53.450276,"longitude":-2.066907,"postcodeStart":"SK14 2","postcode":["SK14","2SD"]}
{"price":29000,"dateOfTransfer":"1996-04-26T00:00:00","postcodeFull":"SK14 2PU","propertyType":"Terraced","oldOrNew":"Established","duration":"Freehold","paon":"22","saon":"","street":"HIGH STREET","locality":"HYDE","townOrCity":"HYDE","district":"TAMESIDE","county":"GREATER MANCHESTER","ppdCategoryType":"Standard","recordStatus":"Addition","latitude":53.45442,"longitude":-2.065287,"postcodeStart":"SK14 2","postcode":["SK14","2PU"]}
{"price":11500,"dateOfTransfer":"1996-09-18T00:00:00","postcodeFull":"SK14 2RW","propertyType":"Terraced","oldOrNew":"Established","duration":"Leasehold","paon":"32","saon":"","street":"LUMN ROAD","locality":"HYDE","townOrCity":"HYDE","district":"TAMESIDE","county":"GREATER MANCHESTER","ppdCategoryType":"Standard","recordStatus":"Addition","latitude":53.450525,"longitude":-2.071184,"postcodeStart":"SK14 2","postcode":["SK14","2RW"]}
{"price":39000,"dateOfTransfer":"1996-10-07T00:00:00","postcodeFull":"SK14 2RN","propertyType":"Terraced","oldOrNew":"Established","duration":"Leasehold","paon":"28","saon":"","street":"TOM SHEPLEY STREET","locality":"HYDE","townOrCity":"HYDE","district":"TAMESIDE","county":"GREATER MANCHESTER","ppdCategoryType":"Standard","recordStatus":"Addition","latitude":53.450462,"longitude":-2.07156,"postcodeStart":"SK14 2","postcode":["SK14","2RN"]}
{"price":32000,"dateOfTransfer":"1996-10-09T00:00:00","postcodeFull":"SK14 2RR","propertyType":"Semi-detached","oldOrNew":"Established","duration":"Freehold","paon":"22","saon":"","street":"LUMN ROAD","locality":"HYDE","townOrCity":"HYDE","district":"TAMESIDE","county":"GREATER MANCHESTER","ppdCategoryType":"Standard","recordStatus":"Addition","latitude":53.451522,"longitude":-2.071291,"postcodeStart":"SK14 2","postcode":["SK14","2RR"]}
{"price":34950,"dateOfTransfer":"1996-02-23T00:00:00","postcodeFull":"SK14 2LE","propertyType":"Terraced","oldOrNew":"Established","duration":"Freehold","paon":"10","saon":"","street":"OAK STREET","locality":"HYDE","townOrCity":"HYDE","district":"TAMESIDE","county":"GREATER MANCHESTER","ppdCategoryType":"Standard","recordStatus":"Addition","latitude":53.45679,"longitude":-2.07145,"postcodeStart":"SK14 2","postcode":["SK14","2LE"]}
{"price":41000,"dateOfTransfer":"1996-12-06T00:00:00","postcodeFull":"SK14 2SY","propertyType":"Flat/Maisonette/Townhouse","oldOrNew":"Established","duration":"Leasehold","paon":"ALVON COURT","saon":"3","street":"MOTTRAM ROAD","locality":"HYDE","townOrCity":"HYDE","district":"TAMESIDE","county":"GREATER MANCHESTER","ppdCategoryType":"Standard","recordStatus":"Addition","latitude":53.451205,"longitude":-2.060509,"postcodeStart":"SK14 2","postcode":["SK14","2SY"]}
{"price":44500,"dateOfTransfer":"1996-06-28T00:00:00","postcodeFull":"SK14 2NX","propertyType":"Terraced","oldOrNew":"Established","duration":"Freehold","paon":"145","saon":"","street":"MOTTRAM ROAD","locality":"HYDE","townOrCity":"HYDE","district":"TAMESIDE","county":"GREATER MANCHESTER","ppdCategoryType":"Standard","recordStatus":"Addition","latitude":53.451884,"longitude":-2.067783,"postcodeStart":"SK14 2","postcode":["SK14","2NX"]}
{"price":36000,"dateOfTransfer":"1996-07-26T00:00:00","postcodeFull":"SK14 2LE","propertyType":"Terraced","oldOrNew":"Established","duration":"Freehold","paon":"28","saon":"","street":"OAK STREET","locality":"HYDE","townOrCity":"HYDE","district":"TAMESIDE","county":"GREATER MANCHESTER","ppdCategoryType":"Standard","recordStatus":"Addition","latitude":53.45679,"longitude":-2.07145,"postcodeStart":"SK14 2","postcode":["SK14","2LE"]}
{"price":32500,"dateOfTransfer":"1996-03-22T00:00:00","postcodeFull":"SK14 2PS","propertyType":"Terraced","oldOrNew":"Established","duration":"Freehold","paon":"51","saon":"","street":"FOUNTAIN STREET","locality":"HYDE","townOrCity":"HYDE","district":"TAMESIDE","county":"GREATER MANCHESTER","ppdCategoryType":"Standard","recordStatus":"Addition","latitude":53.454034,"longitude":-2.064172,"postcodeStart":"SK14 2","postcode":["SK14","2PS"]}
{"price":155000,"dateOfTransfer":"1996-03-01T00:00:00","postcodeFull":"SK14 2PE","propertyType":"Terraced","oldOrNew":"Established","duration":"Freehold","paon":"239","saon":"BROOKBANK NURSERY","street":"MOTTRAM ROAD","locality":"HYDE","townOrCity":"HYDE","district":"TAMESIDE","county":"GREATER MANCHESTER","ppdCategoryType":"Standard","recordStatus":"Addition","latitude":53.451536,"longitude":-2.063701,"postcodeStart":"SK14 2","postcode":["SK14","2PE"]}
{"price":23000,"dateOfTransfer":"1996-10-25T00:00:00","postcodeFull":"SK14 2LB","propertyType":"Terraced","oldOrNew":"Established","duration":"Leasehold","paon":"16","saon":"","street":"BEDFORD AVENUE","locality":"HYDE","townOrCity":"HYDE","district":"TAMESIDE","county":"GREATER MANCHESTER","ppdCategoryType":"Standard","recordStatus":"Addition","latitude":53.45535,"longitude":-2.073134,"postcodeStart":"SK14 2","postcode":["SK14","2LB"]}
{"price":51000,"dateOfTransfer":"1996-02-23T00:00:00","postcodeFull":"SK14 2PN","propertyType":"Semi-detached","oldOrNew":"Established","duration":"Leasehold","paon":"3","saon":"","street":"BROOKSIDE DRIVE","locality":"HYDE","townOrCity":"HYDE","district":"TAMESIDE","county":"GREATER MANCHESTER","ppdCategoryType":"Standard","recordStatus":"Addition","latitude":53.452679,"longitude":-2.06027,"postcodeStart":"SK14 2","postcode":["SK14","2PN"]}
{"price":25500,"dateOfTransfer":"1996-12-20T00:00:00","postcodeFull":"SK14 2PU","propertyType":"Terraced","oldOrNew":"Established","duration":"Freehold","paon":"36","saon":"","street":"HIGH STREET","locality":"HYDE","townOrCity":"HYDE","district":"TAMESIDE","county":"GREATER MANCHESTER","ppdCategoryType":"Standard","recordStatus":"Addition","latitude":53.45442,"longitude":-2.065287,"postcodeStart":"SK14 2","postcode":["SK14","2PU"]}
{"price":29000,"dateOfTransfer":"1996-11-20T00:00:00","postcodeFull":"SK14 2JY","propertyType":"Terraced","oldOrNew":"Established","duration":"Leasehold","paon":"208","saon":"","street":"CLARENDON ROAD","locality":"HYDE","townOrCity":"HYDE","district":"TAMESIDE","county":"GREATER MANCHESTER","ppdCategoryType":"Standard","recordStatus":"Addition","latitude":53.456159,"longitude":-2.073437,"postcodeStart":"SK14 2","postcode":["SK14","2JY"]}
{"price":32000,"dateOfTransfer":"1996-03-15T00:00:00","postcodeFull":"SK14 2LD","propertyType":"Terraced","oldOrNew":"Established","duration":"Leasehold","paon":"30","saon":"","street":"CORONA AVENUE","locality":"HYDE","townOrCity":"HYDE","district":"TAMESIDE","county":"GREATER MANCHESTER","ppdCategoryType":"Standard","recordStatus":"Addition","latitude":53.455818,"longitude":-2.072322,"postcodeStart":"SK14 2","postcode":["SK14","2LD"]}
{"price":38000,"dateOfTransfer":"1996-02-16T00:00:00","postcodeFull":"SK14 2RW","propertyType":"Terraced","oldOrNew":"Established","duration":"Leasehold","paon":"48","saon":"","street":"LUMN ROAD","locality":"HYDE","townOrCity":"HYDE","district":"TAMESIDE","county":"GREATER MANCHESTER","ppdCategoryType":"Standard","recordStatus":"Addition","latitude":53.450525,"longitude":-2.071184,"postcodeStart":"SK14 2","postcode":["SK14","2RW"]}
{"price":26000,"dateOfTransfer":"1996-12-16T00:00:00","postcodeFull":"SK14 2NU","propertyType":"Terraced","oldOrNew":"Established","duration":"Freehold","paon":"6","saon":"","street":"STEELES AVENUE","locality":"HYDE","townOrCity":"HYDE","district":"TAMESIDE","county":"GREATER MANCHESTER","ppdCategoryType":"Standard","recordStatus":"Addition","latitude":53.452529,"longitude":-2.070615,"postcodeStart":"SK14 2","postcode":["SK14","2NU"]}
{"price":40500,"dateOfTransfer":"1996-01-26T00:00:00","postcodeFull":"SK14 2PZ","propertyType":"Terraced","oldOrNew":"Established","duration":"Freehold","paon":"14","saon":"","street":"SIDLEY STREET","locality":"HYDE","townOrCity":"HYDE","district":"TAMESIDE","county":"GREATER MANCHESTER","ppdCategoryType":"Standard","recordStatus":"Addition","latitude":53.453845,"longitude":-2.065617,"postcodeStart":"SK14 2","postcode":["SK14","2PZ"]}
{"price":45500,"dateOfTransfer":"1996-07-16T00:00:00","postcodeFull":"SK14 2PH","propertyType":"Terraced","oldOrNew":"Established","duration":"Freehold","paon":"25","saon":"","street":"VALE AVENUE","locality":"HYDE","townOrCity":"HYDE","district":"TAMESIDE","county":"GREATER MANCHESTER","ppdCategoryType":"Standard","recordStatus":"Addition","latitude":53.45204,"longitude":-2.05923,"postcodeStart":"SK14 2","postcode":["SK14","2PH"]}
{"price":39000,"dateOfTransfer":"1996-07-15T00:00:00","postcodeFull":"SK14 2PS","propertyType":"Terraced","oldOrNew":"Established","duration":"Freehold","paon":"30","saon":"","street":"FOUNTAIN STREET","locality":"HYDE","townOrCity":"HYDE","district":"TAMESIDE","county":"GREATER MANCHESTER","ppdCategoryType":"Standard","recordStatus":"Addition","latitude":53.454034,"longitude":-2.064172,"postcodeStart":"SK14 2","postcode":["SK14","2PS"]}
{"price":55000,"dateOfTransfer":"1996-05-15T00:00:00","postcodeFull":"SK14 2PJ","propertyType":"Detached","oldOrNew":"Established","duration":"Freehold","paon":"123","saon":"","street":"SHEFFIELD ROAD","locality":"HYDE","townOrCity":"HYDE","district":"TAMESIDE","county":"GREATER MANCHESTER","ppdCategoryType":"Standard","recordStatus":"Addition","latitude":53.452599,"longitude":-2.058192,"postcodeStart":"SK14 2","postcode":["SK14","2PJ"]}
{"price":31000,"dateOfTransfer":"1996-05-17T00:00:00","postcodeFull":"SK14 2BX","propertyType":"Terraced","oldOrNew":"Established","duration":"Leasehold","paon":"145","saon":"","street":"MANCHESTER ROAD","locality":"HYDE","townOrCity":"HYDE","district":"TAMESIDE","county":"GREATER MANCHESTER","ppdCategoryType":"Standard","recordStatus":"Addition","latitude":53.453486,"longitude":-2.091111,"postcodeStart":"SK14 2","postcode":["SK14","2BX"]}
{"price":49950,"dateOfTransfer":"1996-09-27T00:00:00","postcodeFull":"SK14 2RX","propertyType":"Terraced","oldOrNew":"Established","duration":"Leasehold","paon":"4","saon":"","street":"PRINCESS STREET","locality":"HYDE","townOrCity":"HYDE","district":"TAMESIDE","county":"GREATER MANCHESTER","ppdCategoryType":"Standard","recordStatus":"Addition","latitude":53.451478,"longitude":-2.069845,"postcodeStart":"SK14 2","postcode":["SK14","2RX"]}
{"price":37000,"dateOfTransfer":"1996-08-15T00:00:00","postcodeFull":"SK14 2NX","propertyType":"Semi-detached","oldOrNew":"Established","duration":"Freehold","paon":"151","saon":"","street":"MOTTRAM ROAD","locality":"HYDE","townOrCity":"HYDE","district":"TAMESIDE","county":"GREATER MANCHESTER","ppdCategoryType":"Standard","recordStatus":"Addition","latitude":53.451884,"longitude":-2.067783,"postcodeStart":"SK14 2","postcode":["SK14","2NX"]}
{"price":36000,"dateOfTransfer":"1996-12-13T00:00:00","postcodeFull":"SK14 2NU","propertyType":"Terraced","oldOrNew":"Established","duration":"Freehold","paon":"4","saon":"","street":"STEELES AVENUE","locality":"HYDE","townOrCity":"HYDE","district":"TAMESIDE","county":"GREATER MANCHESTER","ppdCategoryType":"Standard","recordStatus":"Addition","latitude":53.452529,"longitude":-2.070615,"postcodeStart":"SK14 2","postcode":["SK14","2NU"]}
{"price":12500,"dateOfTransfer":"1996-08-12T00:00:00","postcodeFull":"SK14 2NU","propertyType":"Terraced","oldOrNew":"Established","duration":"Freehold","paon":"18","saon":"","street":"STEELES AVENUE","locality":"HYDE","townOrCity":"HYDE","district":"TAMESIDE","county":"GREATER MANCHESTER","ppdCategoryType":"Standard","recordStatus":"Addition","latitude":53.452529,"longitude":-2.070615,"postcodeStart":"SK14 2","postcode":["SK14","2NU"]}
{"price":34000,"dateOfTransfer":"1996-03-22T00:00:00","postcodeFull":"SK14 2SL","propertyType":"Terraced","oldOrNew":"Established","duration":"Freehold","paon":"224","saon":"","street":"MOTTRAM ROAD","locality":"HYDE","townOrCity":"HYDE","district":"TAMESIDE","county":"GREATER MANCHESTER","ppdCategoryType":"Standard","recordStatus":"Addition","latitude":53.451266,"longitude":-2.063626,"postcodeStart":"SK14 2","postcode":["SK14","2SL"]}
{"price":27000,"dateOfTransfer":"1996-10-24T00:00:00","postcodeFull":"SK14 2PS","propertyType":"Semi-detached","oldOrNew":"Established","duration":"Freehold","paon":"67","saon":"","street":"FOUNTAIN STREET","locality":"HYDE","townOrCity":"HYDE","district":"TAMESIDE","county":"GREATER MANCHESTER","ppdCategoryType":"Standard","recordStatus":"Addition","latitude":53.454034,"longitude":-2.064172,"postcodeStart":"SK14 2","postcode":["SK14","2PS"]}
{"price":25000,"dateOfTransfer":"1996-10-14T00:00:00","postcodeFull":"SK14 2RT","propertyType":"Terraced","oldOrNew":"Established","duration":"Freehold","paon":"42","saon":"","street":"BOSTON STREET","locality":"HYDE","townOrCity":"HYDE","district":"TAMESIDE","county":"GREATER MANCHESTER","ppdCategoryType":"Standard","recordStatus":"Addition","latitude":53.451514,"longitude":-2.070869,"postcodeStart":"SK14 2","postcode":["SK14","2RT"]}
{"price":49000,"dateOfTransfer":"1996-06-18T00:00:00","postcodeFull":"SK14 2PX","propertyType":"Terraced","oldOrNew":"Established","duration":"Leasehold","paon":"8","saon":"","street":"GREEN HILL ROAD","locality":"HYDE","townOrCity":"HYDE","district":"TAMESIDE","county":"GREATER MANCHESTER","ppdCategoryType":"Standard","recordStatus":"Addition","latitude":53.454198,"longitude":-2.0611,"postcodeStart":"SK14 2","postcode":["SK14","2PX"]}
{"price":34750,"dateOfTransfer":"1996-12-16T00:00:00","postcodeFull":"SK14 2RG","propertyType":"Terraced","oldOrNew":"Established","duration":"Freehold","paon":"6","saon":"","street":"ORCHARD STREET","locality":"HYDE","townOrCity":"HYDE","district":"TAMESIDE","county":"GREATER MANCHESTER","ppdCategoryType":"Standard","recordStatus":"Addition","latitude":53.450811,"longitude":-2.072735,"postcodeStart":"SK14 2","postcode":["SK14","2RG"]}
{"price":38000,"dateOfTransfer":"1996-09-27T00:00:00","postcodeFull":"SK14 2SD","propertyType":"Terraced","oldOrNew":"Established","duration":"Leasehold","paon":"2","saon":"","street":"ELM GROVE","locality":"HYDE","townOrCity":"HYDE","district":"TAMESIDE","county":"GREATER MANCHESTER","ppdCategoryType":"Standard","recordStatus":"Addition","latitude":53.450276,"longitude":-2.066907,"postcodeStart":"SK14 2","postcode":["SK14","2SD"]}
{"price":37200,"dateOfTransfer":"1996-01-26T00:00:00","postcodeFull":"SK14 2PS","propertyType":"Terraced","oldOrNew":"Established","duration":"Freehold","paon":"34","saon":"","street":"FOUNTAIN STREET","locality":"HYDE","townOrCity":"HYDE","district":"TAMESIDE","county":"GREATER MANCHESTER","ppdCategoryType":"Standard","recordStatus":"Addition","latitude":53.454034,"longitude":-2.064172,"postcodeStart":"SK14 2","postcode":["SK14","2PS"]}
{"price":28000,"dateOfTransfer":"1996-10-07T00:00:00","postcodeFull":"SK14 2RT","propertyType":"Terraced","oldOrNew":"Established","duration":"Leasehold","paon":"43","saon":"","street":"BOSTON STREET","locality":"HYDE","townOrCity":"HYDE","district":"TAMESIDE","county":"GREATER MANCHESTER","ppdCategoryType":"Standard","recordStatus":"Addition","latitude":53.451514,"longitude":-2.070869,"postcodeStart":"SK14 2","postcode":["SK14","2RT"]}
{"price":68000,"dateOfTransfer":"1996-03-22T00:00:00","postcodeFull":"SK14 2ST","propertyType":"Terraced","oldOrNew":"Established","duration":"Freehold","paon":"37","saon":"","street":"ST GILES DRIVE","locality":"HYDE","townOrCity":"HYDE","district":"TAMESIDE","county":"GREATER MANCHESTER","ppdCategoryType":"Standard","recordStatus":"Addition","latitude":53.448939,"longitude":-2.062433,"postcodeStart":"SK14 2","postcode":["SK14","2ST"]}
{"price":49950,"dateOfTransfer":"1996-12-16T00:00:00","postcodeFull":"SK14 2SQ","propertyType":"Terraced","oldOrNew":"Established","duration":"Leasehold","paon":"18","saon":"","street":"WOODBROOKE AVENUE","locality":"HYDE","townOrCity":"HYDE","district":"TAMESIDE","county":"GREATER MANCHESTER","ppdCategoryType":"Standard","recordStatus":"Addition","latitude":53.450294,"longitude":-2.06522,"postcodeStart":"SK14 2","postcode":["SK14","2SQ"]}
{"price":30000,"dateOfTransfer":"1996-03-20T00:00:00","postcodeFull":"SK14 2SE","propertyType":"Terraced","oldOrNew":"Established","duration":"Leasehold","paon":"20","saon":"","street":"GRANGE ROAD NORTH","locality":"HYDE","townOrCity":"HYDE","district":"TAMESIDE","county":"GREATER MANCHESTER","ppdCategoryType":"Standard","recordStatus":"Addition","latitude":53.44971,"longitude":-2.065762,"postcodeStart":"SK14 2","postcode":["SK14","2SE"]}
{"price":12150,"dateOfTransfer":"1996-10-15T00:00:00","postcodeFull":"SK14 2DL","propertyType":"Terraced","oldOrNew":"Established","duration":"Leasehold","paon":"24","saon":"","street":"MILL LANE","locality":"HYDE","townOrCity":"HYDE","district":"TAMESIDE","county":"GREATER MANCHESTER","ppdCategoryType":"Standard","recordStatus":"Addition","latitude":53.451941,"longitude":-2.090415,"postcodeStart":"SK14 2","postcode":["SK14","2DL"]}
{"price":24250,"dateOfTransfer":"1996-11-21T00:00:00","postcodeFull":"SK14 2NZ","propertyType":"Terraced","oldOrNew":"Established","duration":"Freehold","paon":"8","saon":"","street":"ALBERT STREET","locality":"HYDE","townOrCity":"HYDE","district":"TAMESIDE","county":"GREATER MANCHESTER","ppdCategoryType":"Standard","recordStatus":"Addition","latitude":53.452081,"longitude":-2.067301,"postcodeStart":"SK14 2","postcode":["SK14","2NZ"]}
{"price":34500,"dateOfTransfer":"1996-11-01T00:00:00","postcodeFull":"SK14 2NJ","propertyType":"Terraced","oldOrNew":"Established","duration":"Freehold","paon":"37","saon":"","street":"BROOK STREET","locality":"HYDE","townOrCity":"HYDE","district":"TAMESIDE","county":"GREATER MANCHESTER","ppdCategoryType":"Standard","recordStatus":"Addition","latitude":53.452745,"longitude":-2.071127,"postcodeStart":"SK14 2","postcode":["SK14","2NJ"]}
{"price":32000,"dateOfTransfer":"1996-08-30T00:00:00","postcodeFull":"SK14 2RW","propertyType":"Terraced","oldOrNew":"Established","duration":"Freehold","paon":"61","saon":"","street":"LUMN ROAD","locality":"HYDE","townOrCity":"HYDE","district":"TAMESIDE","county":"GREATER MANCHESTER","ppdCategoryType":"Standard","recordStatus":"Addition","latitude":53.450525,"longitude":-2.071184,"postcodeStart":"SK14 2","postcode":["SK14","2RW"]}
{"price":33000,"dateOfTransfer":"1996-08-30T00:00:00","postcodeFull":"SK14 2NZ","propertyType":"Terraced","oldOrNew":"Established","duration":"Freehold","paon":"4","saon":"","street":"ALBERT STREET","locality":"HYDE","townOrCity":"HYDE","district":"TAMESIDE","county":"GREATER MANCHESTER","ppdCategoryType":"Standard","recordStatus":"Addition","latitude":53.452081,"longitude":-2.067301,"postcodeStart":"SK14 2","postcode":["SK14","2NZ"]}
{"price":43500,"dateOfTransfer":"1996-09-09T00:00:00","postcodeFull":"SK14 2PH","propertyType":"Terraced","oldOrNew":"Established","duration":"Freehold","paon":"5","saon":"","street":"VALE AVENUE","locality":"HYDE","townOrCity":"HYDE","district":"TAMESIDE","county":"GREATER MANCHESTER","ppdCategoryType":"Standard","recordStatus":"Addition","latitude":53.45204,"longitude":-2.05923,"postcodeStart":"SK14 2","postcode":["SK14","2PH"]}
{"price":35950,"dateOfTransfer":"1996-10-04T00:00:00","postcodeFull":"SK14 2SD","propertyType":"Terraced","oldOrNew":"Established","duration":"Freehold","paon":"29","saon":"","street":"ELM GROVE","locality":"HYDE","townOrCity":"HYDE","district":"TAMESIDE","county":"GREATER MANCHESTER","ppdCategoryType":"Standard","recordStatus":"Addition","latitude":53.450276,"longitude":-2.066907,"postcodeStart":"SK14 2","postcode":["SK14","2SD"]}
{"price":26500,"dateOfTransfer":"1996-07-31T00:00:00","postcodeFull":"SK14 2SY","propertyType":"Flat/Maisonette/Townhouse","oldOrNew":"Established","duration":"Leasehold","paon":"ALVON COURT","saon":"8","street":"MOTTRAM ROAD","locality":"HYDE","townOrCity":"HYDE","district":"TAMESIDE","county":"GREATER MANCHESTER","ppdCategoryType":"Standard","recordStatus":"Addition","latitude":53.451205,"longitude":-2.060509,"postcodeStart":"SK14 2","postcode":["SK14","2SY"]}
{"price":30000,"dateOfTransfer":"1996-05-31T00:00:00","postcodeFull":"SK14 2SL","propertyType":"Flat/Maisonette/Townhouse","oldOrNew":"Established","duration":"Leasehold","paon":"GODLEY COURT","saon":"FLAT 1","street":"MOTTRAM ROAD","locality":"HYDE","townOrCity":"HYDE","district":"TAMESIDE","county":"GREATER MANCHESTER","ppdCategoryType":"Standard","recordStatus":"Addition","latitude":53.451266,"longitude":-2.063626,"postcodeStart":"SK14 2","postcode":["SK14","2SL"]}
{"price":39000,"dateOfTransfer":"1996-08-30T00:00:00","postcodeFull":"SK14 2SH","propertyType":"Terraced","oldOrNew":"Established","duration":"Freehold","paon":"12","saon":"","street":"","locality":"RYLEYS LANE","townOrCity":"HYDE","district":"TAMESIDE","county":"GREATER MANCHESTER","ppdCategoryType":"Standard","recordStatus":"Addition","latitude":53.450861,"longitude":-2.065568,"postcodeStart":"SK14 2","postcode":["SK14","2SH"]}
{"price":38500,"dateOfTransfer":"1996-12-06T00:00:00","postcodeFull":"SK14 2RN","propertyType":"Terraced","oldOrNew":"Established","duration":"Freehold","paon":"57","saon":"","street":"TOM SHEPLEY STREET","locality":"HYDE","townOrCity":"HYDE","district":"TAMESIDE","county":"GREATER MANCHESTER","ppdCategoryType":"Standard","recordStatus":"Addition","latitude":53.450462,"longitude":-2.07156,"postcodeStart":"SK14 2","postcode":["SK14","2RN"]}
{"price":33000,"dateOfTransfer":"1996-08-19T00:00:00","postcodeFull":"SK14 2SL","propertyType":"Terraced","oldOrNew":"Established","duration":"Freehold","paon":"222","saon":"","street":"MOTTRAM ROAD","locality":"HYDE","townOrCity":"HYDE","district":"TAMESIDE","county":"GREATER MANCHESTER","ppdCategoryType":"Standard","recordStatus":"Addition","latitude":53.451266,"longitude":-2.063626,"postcodeStart":"SK14 2","postcode":["SK14","2SL"]}
{"price":33950,"dateOfTransfer":"1996-05-10T00:00:00","postcodeFull":"SK14 2RT","propertyType":"Terraced","oldOrNew":"Established","duration":"Leasehold","paon":"37","saon":"","street":"BOSTON STREET","locality":"HYDE","townOrCity":"HYDE","district":"TAMESIDE","county":"GREATER MANCHESTER","ppdCategoryType":"Standard","recordStatus":"Addition","latitude":53.451514,"longitude":-2.070869,"postcodeStart":"SK14 2","postcode":["SK14","2RT"]}
{"price":38500,"dateOfTransfer":"1996-08-29T00:00:00","postcodeFull":"SK14 2SH","propertyType":"Terraced","oldOrNew":"Established","duration":"Freehold","paon":"10","saon":"","street":"","locality":"RYLEYS LANE","townOrCity":"HYDE","district":"TAMESIDE","county":"GREATER MANCHESTER","ppdCategoryType":"Standard","recordStatus":"Addition","latitude":53.450861,"longitude":-2.065568,"postcodeStart":"SK14 2","postcode":["SK14","2SH"]}
{"price":38500,"dateOfTransfer":"1996-12-09T00:00:00","postcodeFull":"SK14 2NX","propertyType":"Terraced","oldOrNew":"Established","duration":"Freehold","paon":"161","saon":"","street":"MOTTRAM ROAD","locality":"HYDE","townOrCity":"HYDE","district":"TAMESIDE","county":"GREATER MANCHESTER","ppdCategoryType":"Standard","recordStatus":"Addition","latitude":53.451884,"longitude":-2.067783,"postcodeStart":"SK14 2","postcode":["SK14","2NX"]}
{"price":47000,"dateOfTransfer":"1996-11-22T00:00:00","postcodeFull":"SK14 2PE","propertyType":"Terraced","oldOrNew":"Established","duration":"Freehold","paon":"193A","saon":"","street":"MOTTRAM ROAD","locality":"HYDE","townOrCity":"HYDE","district":"TAMESIDE","county":"GREATER MANCHESTER","ppdCategoryType":"Standard","recordStatus":"Addition","latitude":53.451536,"longitude":-2.063701,"postcodeStart":"SK14 2","postcode":["SK14","2PE"]}
{"price":39995,"dateOfTransfer":"1996-08-16T00:00:00","postcodeFull":"SK14 2SH","propertyType":"Terraced","oldOrNew":"Established","duration":"Leasehold","paon":"21","saon":"","street":"GRANGE ROAD NORTH","locality":"HYDE","townOrCity":"HYDE","district":"TAMESIDE","county":"GREATER MANCHESTER","ppdCategoryType":"Standard","recordStatus":"Addition","latitude":53.450861,"longitude":-2.065568,"postcodeStart":"SK14 2","postcode":["SK14","2SH"]}
{"price":39950,"dateOfTransfer":"1996-05-31T00:00:00","postcodeFull":"SK14 2LE","propertyType":"Semi-detached","oldOrNew":"Established","duration":"Freehold","paon":"14","saon":"","street":"OAK STREET","locality":"HYDE","townOrCity":"HYDE","district":"TAMESIDE","county":"GREATER MANCHESTER","ppdCategoryType":"Standard","recordStatus":"Addition","latitude":53.45679,"longitude":-2.07145,"postcodeStart":"SK14 2","postcode":["SK14","2LE"]}
{"price":35500,"dateOfTransfer":"1996-11-29T00:00:00","postcodeFull":"SK14 2RG","propertyType":"Terraced","oldOrNew":"Established","duration":"Freehold","paon":"8","saon":"","street":"ORCHARD STREET","locality":"HYDE","townOrCity":"HYDE","district":"TAMESIDE","county":"GREATER MANCHESTER","ppdCategoryType":"Standard","recordStatus":"Addition","latitude":53.450811,"longitude":-2.072735,"postcodeStart":"SK14 2","postcode":["SK14","2RG"]}
{"price":24000,"dateOfTransfer":"1996-07-26T00:00:00","postcodeFull":"SK14 2RS","propertyType":"Terraced","oldOrNew":"Established","duration":"Freehold","paon":"110","saon":"","street":"MOTTRAM ROAD","locality":"HYDE","townOrCity":"HYDE","district":"TAMESIDE","county":"GREATER MANCHESTER","ppdCategoryType":"Standard","recordStatus":"Addition","latitude":53.452053,"longitude":-2.070659,"postcodeStart":"SK14 2","postcode":["SK14","2RS"]}
{"price":26950,"dateOfTransfer":"1996-05-17T00:00:00","postcodeFull":"SK14 2DL","propertyType":"Terraced","oldOrNew":"Established","duration":"Leasehold","paon":"22","saon":"","street":"MILL LANE","locality":"HYDE","townOrCity":"HYDE","district":"TAMESIDE","county":"GREATER MANCHESTER","ppdCategoryType":"Standard","recordStatus":"Addition","latitude":53.451941,"longitude":-2.090415,"postcodeStart":"SK14 2","postcode":["SK14","2DL"]}
{"price":39950,"dateOfTransfer":"1996-09-06T00:00:00","postcodeFull":"SK14 2PS","propertyType":"Terraced","oldOrNew":"Established","duration":"Freehold","paon":"37","saon":"","street":"FOUNTAIN STREET","locality":"HYDE","townOrCity":"HYDE","district":"TAMESIDE","county":"GREATER MANCHESTER","ppdCategoryType":"Standard","recordStatus":"Addition","latitude":53.454034,"longitude":-2.064172,"postcodeStart":"SK14 2","postcode":["SK14","2PS"]}
{"price":34500,"dateOfTransfer":"1996-10-11T00:00:00","postcodeFull":"SK14 2PR","propertyType":"Terraced","oldOrNew":"Established","duration":"Freehold","paon":"53","saon":"","street":"SHEFFIELD ROAD","locality":"HYDE","townOrCity":"HYDE","district":"TAMESIDE","county":"GREATER MANCHESTER","ppdCategoryType":"Standard","recordStatus":"Addition","latitude":53.454538,"longitude":-2.062893,"postcodeStart":"SK14 2","postcode":["SK14","2PR"]}
{"price":43750,"dateOfTransfer":"1996-12-20T00:00:00","postcodeFull":"SK14 2PE","propertyType":"Semi-detached","oldOrNew":"Established","duration":"Freehold","paon":"201","saon":"","street":"MOTTRAM ROAD","locality":"HYDE","townOrCity":"HYDE","district":"TAMESIDE","county":"GREATER MANCHESTER","ppdCategoryType":"Standard","recordStatus":"Addition","latitude":53.451536,"longitude":-2.063701,"postcodeStart":"SK14 2","postcode":["SK14","2PE"]}
{"price":38500,"dateOfTransfer":"1996-11-01T00:00:00","postcodeFull":"SK14 2SE","propertyType":"Terraced","oldOrNew":"Established","duration":"Leasehold","paon":"47","saon":"","street":"GRANGE ROAD NORTH","locality":"HYDE","townOrCity":"HYDE","district":"TAMESIDE","county":"GREATER MANCHESTER","ppdCategoryType":"Standard","recordStatus":"Addition","latitude":53.44971,"longitude":-2.065762,"postcodeStart":"SK14 2","postcode":["SK14","2SE"]}
{"price":33000,"dateOfTransfer":"1996-09-30T00:00:00","postcodeFull":"SK14 2DB","propertyType":"Semi-detached","oldOrNew":"Established","duration":"Freehold","paon":"12","saon":"","street":"KINGSTON GARDENS","locality":"HYDE","townOrCity":"HYDE","district":"TAMESIDE","county":"GREATER MANCHESTER","ppdCategoryType":"Standard","recordStatus":"Addition","latitude":53.455166,"longitude":-2.092244,"postcodeStart":"SK14 2","postcode":["SK14","2DB"]}
{"price":44500,"dateOfTransfer":"1996-07-26T00:00:00","postcodeFull":"SK14 2SE","propertyType":"Terraced","oldOrNew":"Established","duration":"Leasehold","paon":"20","saon":"","street":"GRANGE ROAD NORTH","locality":"HYDE","townOrCity":"HYDE","district":"TAMESIDE","county":"GREATER MANCHESTER","ppdCategoryType":"Standard","recordStatus":"Addition","latitude":53.44971,"longitude":-2.065762,"postcodeStart":"SK14 2","postcode":["SK14","2SE"]}
{"price":58000,"dateOfTransfer":"1996-05-03T00:00:00","postcodeFull":"SK14 2SP","propertyType":"Semi-detached","oldOrNew":"Established","duration":"Freehold","paon":"45","saon":"","street":"ST PAULS HILL ROAD","locality":"HYDE","townOrCity":"HYDE","district":"TAMESIDE","county":"GREATER MANCHESTER","ppdCategoryType":"Standard","recordStatus":"Addition","latitude":53.450647,"longitude":-2.06224,"postcodeStart":"SK14 2","postcode":["SK14","2SP"]}
{"price":24000,"dateOfTransfer":"1996-07-18T00:00:00","postcodeFull":"SK14 2PW","propertyType":"Semi-detached","oldOrNew":"Established","duration":"Freehold","paon":"1","saon":"","street":"CARLTON ROAD","locality":"HYDE","townOrCity":"HYDE","district":"TAMESIDE","county":"GREATER MANCHESTER","ppdCategoryType":"Standard","recordStatus":"Addition","latitude":53.452975,"longitude":-2.061445,"postcodeStart":"SK14 2","postcode":["SK14","2PW"]}
{"price":35000,"dateOfTransfer":"1996-06-26T00:00:00","postcodeFull":"SK14 2RH","propertyType":"Flat/Maisonette/Townhouse","oldOrNew":"Established","duration":"Leasehold","paon":"15","saon":"","street":"VICARAGE GARDENS","locality":"HYDE","townOrCity":"HYDE","district":"TAMESIDE","county":"GREATER MANCHESTER","ppdCategoryType":"Standard","recordStatus":"Addition","latitude":53.451263,"longitude":-2.069107,"postcodeStart":"SK14 2","postcode":["SK14","2RH"]}
{"price":38000,"dateOfTransfer":"1997-04-24T00:00:00","postcodeFull":"SK14 2PU","propertyType":"Terraced","oldOrNew":"Established","duration":"Freehold","paon":"88","saon":"","street":"HIGH STREET","locality":"HYDE","townOrCity":"HYDE","district":"TAMESIDE","county":"GREATER MANCHESTER","ppdCategoryType":"Standard","recordStatus":"Addition","latitude":53.45442,"longitude":-2.065287,"postcodeStart":"SK14 2","postcode":["SK14","2PU"]}
{"price":39000,"dateOfTransfer":"1997-09-22T00:00:00","postcodeFull":"SK14 2PR","propertyType":"Terraced","oldOrNew":"Established","duration":"Freehold","paon":"57","saon":"","street":"SHEFFIELD ROAD","locality":"HYDE","townOrCity":"HYDE","district":"TAMESIDE","county":"GREATER MANCHESTER","ppdCategoryType":"Standard","recordStatus":"Addition","latitude":53.454538,"longitude":-2.062893,"postcodeStart":"SK14 2","postcode":["SK14","2PR"]}
{"price":32950,"dateOfTransfer":"1997-07-18T00:00:00","postcodeFull":"SK14 2NU","propertyType":"Terraced","oldOrNew":"Established","duration":"Freehold","paon":"8","saon":"","street":"STEELES AVENUE","locality":"HYDE","townOrCity":"HYDE","district":"TAMESIDE","county":"GREATER MANCHESTER","ppdCategoryType":"Standard","recordStatus":"Addition","latitude":53.452529,"longitude":-2.070615,"postcodeStart":"SK14 2","postcode":["SK14","2NU"]}
{"price":40000,"dateOfTransfer":"1997-01-31T00:00:00","postcodeFull":"SK14 2PU","propertyType":"Terraced","oldOrNew":"Established","duration":"Freehold","paon":"36","saon":"","street":"HIGH STREET","locality":"HYDE","townOrCity":"HYDE","district":"TAMESIDE","county":"GREATER MANCHESTER","ppdCategoryType":"Standard","recordStatus":"Addition","latitude":53.45442,"longitude":-2.065287,"postcodeStart":"SK14 2","postcode":["SK14","2PU"]}
{"price":47000,"dateOfTransfer":"1997-10-20T00:00:00","postcodeFull":"SK14 2SX","propertyType":"Semi-detached","oldOrNew":"Established","duration":"Freehold","paon":"17","saon":"","street":"ST MICHAELS ROAD","locality":"HYDE","townOrCity":"HYDE","district":"TAMESIDE","county":"GREATER MANCHESTER","ppdCategoryType":"Standard","recordStatus":"Addition","latitude":53.45009,"longitude":-2.061034,"postcodeStart":"SK14 2","postcode":["SK14","2SX"]}
{"price":46000,"dateOfTransfer":"1997-07-08T00:00:00","postcodeFull":"SK14 2SH","propertyType":"Terraced","oldOrNew":"Established","duration":"Freehold","paon":"16","saon":"","street":"","locality":"RYLEYS LANE","townOrCity":"HYDE","district":"TAMESIDE","county":"GREATER MANCHESTER","ppdCategoryType":"Standard","recordStatus":"Addition","latitude":53.450861,"longitude":-2.065568,"postcodeStart":"SK14 2","postcode":["SK14","2SH"]}
{"price":30408,"dateOfTransfer":"1997-11-14T00:00:00","postcodeFull":"SK14 2PS","propertyType":"Terraced","oldOrNew":"Established","duration":"Leasehold","paon":"41","saon":"","street":"FOUNTAIN STREET","locality":"HYDE","townOrCity":"HYDE","district":"TAMESIDE","county":"GREATER MANCHESTER","ppdCategoryType":"Standard","recordStatus":"Addition","latitude":53.454034,"longitude":-2.064172,"postcodeStart":"SK14 2","postcode":["SK14","2PS"]}
{"price":53000,"dateOfTransfer":"1997-09-26T00:00:00","postcodeFull":"SK14 2SX","propertyType":"Semi-detached","oldOrNew":"Established","duration":"Freehold","paon":"24","saon":"","street":"ST MICHAELS ROAD","locality":"HYDE","townOrCity":"HYDE","district":"TAMESIDE","county":"GREATER MANCHESTER","ppdCategoryType":"Standard","recordStatus":"Addition","latitude":53.45009,"longitude":-2.061034,"postcodeStart":"SK14 2","postcode":["SK14","2SX"]}
{"price":40950,"dateOfTransfer":"1997-06-20T00:00:00","postcodeFull":"SK14 2SY","propertyType":"Flat/Maisonette/Townhouse","oldOrNew":"Established","duration":"Leasehold","paon":"ALVON COURT","saon":"1","street":"MOTTRAM ROAD","locality":"HYDE","townOrCity":"HYDE","district":"TAMESIDE","county":"GREATER MANCHESTER","ppdCategoryType":"Standard","recordStatus":"Addition","latitude":53.451205,"longitude":-2.060509,"postcodeStart":"SK14 2","postcode":["SK14","2SY"]}
{"price":45000,"dateOfTransfer":"1997-10-31T00:00:00","postcodeFull":"SK14 2DB","propertyType":"Semi-detached","oldOrNew":"Established","duration":"Freehold","paon":"11","saon":"","street":"KINGSTON GARDENS","locality":"HYDE","townOrCity":"HYDE","district":"TAMESIDE","county":"GREATER MANCHESTER","ppdCategoryType":"Standard","recordStatus":"Addition","latitude":53.455166,"longitude":-2.092244,"postcodeStart":"SK14 2","postcode":["SK14","2DB"]}
{"price":55500,"dateOfTransfer":"1997-11-07T00:00:00","postcodeFull":"SK14 2SW","propertyType":"Semi-detached","oldOrNew":"Established","duration":"Freehold","paon":"10","saon":"","street":"ST PAULS HILL ROAD","locality":"HYDE","townOrCity":"HYDE","district":"TAMESIDE","county":"GREATER MANCHESTER","ppdCategoryType":"Standard","recordStatus":"Addition","latitude":53.449765,"longitude":-2.062931,"postcodeStart":"SK14 2","postcode":["SK14","2SW"]}
{"price":22000,"dateOfTransfer":"1997-06-27T00:00:00","postcodeFull":"SK14 2PU","propertyType":"Terraced","oldOrNew":"Established","duration":"Freehold","paon":"64","saon":"","street":"HIGH STREET","locality":"HYDE","townOrCity":"HYDE","district":"TAMESIDE","county":"GREATER MANCHESTER","ppdCategoryType":"Standard","recordStatus":"Addition","latitude":53.45442,"longitude":-2.065287,"postcodeStart":"SK14 2","postcode":["SK14","2PU"]}
{"price":40500,"dateOfTransfer":"1997-08-29T00:00:00","postcodeFull":"SK14 2RZ","propertyType":"Terraced","oldOrNew":"Established","duration":"Freehold","paon":"156","saon":"","street":"MOTTRAM ROAD","locality":"HYDE","townOrCity":"HYDE","district":"TAMESIDE","county":"GREATER MANCHESTER","ppdCategoryType":"Standard","recordStatus":"Addition","latitude":53.451516,"longitude":-2.067165,"postcodeStart":"SK14 2","postcode":["SK14","2RZ"]}
{"price":35950,"dateOfTransfer":"1997-10-24T00:00:00","postcodeFull":"SK14 2RL","propertyType":"Terraced","oldOrNew":"Established","duration":"Freehold","paon":"32","saon":"","street":"SHEPLEY STREET","locality":"HYDE","townOrCity":"HYDE","district":"TAMESIDE","county":"GREATER MANCHESTER","ppdCategoryType":"Standard","recordStatus":"Addition","latitude":53.451405,"longitude":-2.072254,"postcodeStart":"SK14 2","postcode":["SK14","2RL"]}
{"price":50000,"dateOfTransfer":"1997-02-21T00:00:00","postcodeFull":"SK14 2QQ","propertyType":"Terraced","oldOrNew":"Established","duration":"Freehold","paon":"14","saon":"","street":"BROOKSIDE CLOSE","locality":"HYDE","townOrCity":"HYDE","district":"TAMESIDE","county":"GREATER MANCHESTER","ppdCategoryType":"Standard","recordStatus":"Addition","latitude":53.45196,"longitude":-2.06063,"postcodeStart":"SK14 2","postcode":["SK14","2QQ"]}
{"price":33000,"dateOfTransfer":"1997-12-18T00:00:00","postcodeFull":"SK14 2SD","propertyType":"Terraced","oldOrNew":"Established","duration":"Freehold","paon":"35","saon":"","street":"ELM GROVE","locality":"HYDE","townOrCity":"HYDE","district":"TAMESIDE","county":"GREATER MANCHESTER","ppdCategoryType":"Standard","recordStatus":"Addition","latitude":53.450276,"longitude":-2.066907,"postcodeStart":"SK14 2","postcode":["SK14","2SD"]}
{"price":30000,"dateOfTransfer":"1997-05-14T00:00:00","postcodeFull":"SK14 2LG","propertyType":"Semi-detached","oldOrNew":"Established","duration":"Freehold","paon":"33","saon":"","street":"REPTON AVENUE","locality":"HYDE","townOrCity":"HYDE","district":"TAMESIDE","county":"GREATER MANCHESTER","ppdCategoryType":"Standard","recordStatus":"Addition","latitude":53.455044,"longitude":-2.073661,"postcodeStart":"SK14 2","postcode":["SK14","2LG"]}
{"price":44950,"dateOfTransfer":"1997-12-19T00:00:00","postcodeFull":"SK14 2PU","propertyType":"Terraced","oldOrNew":"Established","duration":"Freehold","paon":"84","saon":"","street":"HIGH STREET","locality":"HYDE","townOrCity":"HYDE","district":"TAMESIDE","county":"GREATER MANCHESTER","ppdCategoryType":"Standard","recordStatus":"Addition","latitude":53.45442,"longitude":-2.065287,"postcodeStart":"SK14 2","postcode":["SK14","2PU"]}
{"price":24000,"dateOfTransfer":"1997-01-22T00:00:00","postcodeFull":"SK14 2NX","propertyType":"Terraced","oldOrNew":"Established","duration":"Freehold","paon":"113","saon":"","street":"MOTTRAM ROAD","locality":"HYDE","townOrCity":"HYDE","district":"TAMESIDE","county":"GREATER MANCHESTER","ppdCategoryType":"Standard","recordStatus":"Addition","latitude":53.451884,"longitude":-2.067783,"postcodeStart":"SK14 2","postcode":["SK14","2NX"]}
{"price":44500,"dateOfTransfer":"1997-06-13T00:00:00","postcodeFull":"SK14 2JY","propertyType":"Terraced","oldOrNew":"Established","duration":"Leasehold","paon":"168","saon":"","street":"CLARENDON ROAD","locality":"HYDE","townOrCity":"HYDE","district":"TAMESIDE","county":"GREATER MANCHESTER","ppdCategoryType":"Standard","recordStatus":"Addition","latitude":53.456159,"longitude":-2.073437,"postcodeStart":"SK14 2","postcode":["SK14","2JY"]}
{"price":35000,"dateOfTransfer":"1997-05-02T00:00:00","postcodeFull":"SK14 2SL","propertyType":"Terraced","oldOrNew":"Established","duration":"Freehold","paon":"240","saon":"","street":"MOTTRAM ROAD","locality":"HYDE","townOrCity":"HYDE","district":"TAMESIDE","county":"GREATER MANCHESTER","ppdCategoryType":"Standard","recordStatus":"Addition","latitude":53.451266,"longitude":-2.063626,"postcodeStart":"SK14 2","postcode":["SK14","2SL"]}
{"price":43995,"dateOfTransfer":"1997-06-27T00:00:00","postcodeFull":"SK14 2PN","propertyType":"Semi-detached","oldOrNew":"Established","duration":"Freehold","paon":"12","saon":"","street":"BROOKSIDE DRIVE","locality":"HYDE","townOrCity":"HYDE","district":"TAMESIDE","county":"GREATER MANCHESTER","ppdCategoryType":"Standard","recordStatus":"Addition","latitude":53.452679,"longitude":-2.06027,"postcodeStart":"SK14 2","postcode":["SK14","2PN"]}
{"price":42300,"dateOfTransfer":"1997-11-07T00:00:00","postcodeFull":"SK14 2SL","propertyType":"Terraced","oldOrNew":"Established","duration":"Freehold","paon":"200","saon":"","street":"MOTTRAM ROAD","locality":"HYDE","townOrCity":"HYDE","district":"TAMESIDE","county":"GREATER MANCHESTER","ppdCategoryType":"Standard","recordStatus":"Addition","latitude":53.451266,"longitude":-2.063626,"postcodeStart":"SK14 2","postcode":["SK14","2SL"]}
{"price":59612,"dateOfTransfer":"1997-04-25T00:00:00","postcodeFull":"SK14 2PJ","propertyType":"Semi-detached","oldOrNew":"Established","duration":"Freehold","paon":"156","saon":"","street":"SHEFFIELD ROAD","locality":"HYDE","townOrCity":"HYDE","district":"TAMESIDE","county":"GREATER MANCHESTER","ppdCategoryType":"Standard","recordStatus":"Addition","latitude":53.452599,"longitude":-2.058192,"postcodeStart":"SK14 2","postcode":["SK14","2PJ"]}
{"price":72750,"dateOfTransfer":"1997-03-21T00:00:00","postcodeFull":"SK14 2SR","propertyType":"Semi-detached","oldOrNew":"Established","duration":"Freehold","paon":"4","saon":"","street":"ST PETERS DRIVE","locality":"HYDE","townOrCity":"HYDE","district":"TAMESIDE","county":"GREATER MANCHESTER","ppdCategoryType":"Standard","recordStatus":"Addition","latitude":53.450305,"longitude":-2.062284,"postcodeStart":"SK14 2","postcode":["SK14","2SR"]}
{"price":28500,"dateOfTransfer":"1997-12-11T00:00:00","postcodeFull":"SK14 2SL","propertyType":"Flat/Maisonette/Townhouse","oldOrNew":"New build","duration":"Leasehold","paon":"GODLEY COURT","saon":"FLAT 6","street":"MOTTRAM ROAD","locality":"HYDE","townOrCity":"HYDE","district":"TAMESIDE","county":"GREATER MANCHESTER","ppdCategoryType":"Standard","recordStatus":"Addition","latitude":53.451266,"longitude":-2.063626,"postcodeStart":"SK14 2","postcode":["SK14","2SL"]}
{"price":35000,"dateOfTransfer":"1997-10-28T00:00:00","postcodeFull":"SK14 2RG","propertyType":"Terraced","oldOrNew":"Established","duration":"Freehold","paon":"18","saon":"","street":"ORCHARD STREET","locality":"HYDE","townOrCity":"HYDE","district":"TAMESIDE","county":"GREATER MANCHESTER","ppdCategoryType":"Standard","recordStatus":"Addition","latitude":53.450811,"longitude":-2.072735,"postcodeStart":"SK14 2","postcode":["SK14","2RG"]}
{"price":35500,"dateOfTransfer":"1997-06-13T00:00:00","postcodeFull":"SK14 2RZ","propertyType":"Terraced","oldOrNew":"Established","duration":"Freehold","paon":"162","saon":"","street":"MOTTRAM ROAD","locality":"HYDE","townOrCity":"HYDE","district":"TAMESIDE","county":"GREATER MANCHESTER","ppdCategoryType":"Standard","recordStatus":"Addition","latitude":53.451516,"longitude":-2.067165,"postcodeStart":"SK14 2","postcode":["SK14","2RZ"]}
{"price":38750,"dateOfTransfer":"1997-03-27T00:00:00","postcodeFull":"SK14 2SL","propertyType":"Terraced","oldOrNew":"Established","duration":"Freehold","paon":"236","saon":"","street":"MOTTRAM ROAD","locality":"HYDE","townOrCity":"HYDE","district":"TAMESIDE","county":"GREATER MANCHESTER","ppdCategoryType":"Standard","recordStatus":"Addition","latitude":53.451266,"longitude":-2.063626,"postcodeStart":"SK14 2","postcode":["SK14","2SL"]}
{"price":30500,"dateOfTransfer":"1997-05-30T00:00:00","postcodeFull":"SK14 2PE","propertyType":"Terraced","oldOrNew":"Established","duration":"Freehold","paon":"229","saon":"","street":"MOTTRAM ROAD","locality":"HYDE","townOrCity":"HYDE","district":"TAMESIDE","county":"GREATER MANCHESTER","ppdCategoryType":"Standard","recordStatus":"Addition","latitude":53.451536,"longitude":-2.063701,"postcodeStart":"SK14 2","postcode":["SK14","2PE"]}
{"price":29000,"dateOfTransfer":"1997-06-20T00:00:00","postcodeFull":"SK14 2NH","propertyType":"Terraced","oldOrNew":"Established","duration":"Freehold","paon":"14","saon":"","street":"HALTON STREET","locality":"HYDE","townOrCity":"HYDE","district":"TAMESIDE","county":"GREATER MANCHESTER","ppdCategoryType":"Standard","recordStatus":"Addition","latitude":53.452226,"longitude":-2.067798,"postcodeStart":"SK14 2","postcode":["SK14","2NH"]}
{"price":29250,"dateOfTransfer":"1997-02-11T00:00:00","postcodeFull":"SK14 2RU","propertyType":"Terraced","oldOrNew":"Established","duration":"Leasehold","paon":"6","saon":"","street":"RICHMOND STREET","locality":"HYDE","townOrCity":"HYDE","district":"TAMESIDE","county":"GREATER MANCHESTER","ppdCategoryType":"Standard","recordStatus":"Addition","latitude":53.451703,"longitude":-2.070101,"postcodeStart":"SK14 2","postcode":["SK14","2RU"]}
{"price":32700,"dateOfTransfer":"1997-04-15T00:00:00","postcodeFull":"SK14 2DL","propertyType":"Terraced","oldOrNew":"Established","duration":"Leasehold","paon":"24","saon":"","street":"MILL LANE","locality":"HYDE","townOrCity":"HYDE","district":"TAMESIDE","county":"GREATER MANCHESTER","ppdCategoryType":"Standard","recordStatus":"Addition","latitude":53.451941,"longitude":-2.090415,"postcodeStart":"SK14 2","postcode":["SK14","2DL"]}
{"price":39000,"dateOfTransfer":"1997-05-30T00:00:00","postcodeFull":"SK14 2SL","propertyType":"Terraced","oldOrNew":"Established","duration":"Freehold","paon":"220","saon":"","street":"MOTTRAM ROAD","locality":"HYDE","townOrCity":"HYDE","district":"TAMESIDE","county":"GREATER MANCHESTER","ppdCategoryType":"Standard","recordStatus":"Addition","latitude":53.451266,"longitude":-2.063626,"postcodeStart":"SK14 2","postcode":["SK14","2SL"]}
{"price":42500,"dateOfTransfer":"1997-06-03T00:00:00","postcodeFull":"SK14 2SD","propertyType":"Terraced","oldOrNew":"Established","duration":"Leasehold","paon":"1","saon":"","street":"ELM GROVE","locality":"HYDE","townOrCity":"HYDE","district":"TAMESIDE","county":"GREATER MANCHESTER","ppdCategoryType":"Standard","recordStatus":"Addition","latitude":53.450276,"longitude":-2.066907,"postcodeStart":"SK14 2","postcode":["SK14","2SD"]}
{"price":45500,"dateOfTransfer":"1997-03-27T00:00:00","postcodeFull":"SK14 2LB","propertyType":"Terraced","oldOrNew":"Established","duration":"Leasehold","paon":"16","saon":"","street":"BEDFORD AVENUE","locality":"HYDE","townOrCity":"HYDE","district":"TAMESIDE","county":"GREATER MANCHESTER","ppdCategoryType":"Standard","recordStatus":"Addition","latitude":53.45535,"longitude":-2.073134,"postcodeStart":"SK14 2","postcode":["SK14","2LB"]}
{"price":33000,"dateOfTransfer":"1997-09-12T00:00:00","postcodeFull":"SK14 2RH","propertyType":"Flat/Maisonette/Townhouse","oldOrNew":"Established","duration":"Leasehold","paon":"10","saon":"","street":"VICARAGE GARDENS","locality":"HYDE","townOrCity":"HYDE","district":"TAMESIDE","county":"GREATER MANCHESTER","ppdCategoryType":"Standard","recordStatus":"Addition","latitude":53.451263,"longitude":-2.069107,"postcodeStart":"SK14 2","postcode":["SK14","2RH"]}
{"price":89950,"dateOfTransfer":"1997-08-15T00:00:00","postcodeFull":"SK14 2PL","propertyType":"Semi-detached","oldOrNew":"Established","duration":"Freehold","paon":"111","saon":"","street":"SHEFFIELD ROAD","locality":"HYDE","townOrCity":"HYDE","district":"TAMESIDE","county":"GREATER MANCHESTER","ppdCategoryType":"Standard","recordStatus":"Addition","latitude":53.453694,"longitude":-2.061145,"postcodeStart":"SK14 2","postcode":["SK14","2PL"]}
{"price":34000,"dateOfTransfer":"1997-11-21T00:00:00","postcodeFull":"SK14 2SE","propertyType":"Semi-detached","oldOrNew":"Established","duration":"Freehold","paon":"89","saon":"","street":"GRANGE ROAD NORTH","locality":"HYDE","townOrCity":"HYDE","district":"TAMESIDE","county":"GREATER MANCHESTER","ppdCategoryType":"Standard","recordStatus":"Addition","latitude":53.44971,"longitude":-2.065762,"postcodeStart":"SK14 2","postcode":["SK14","2SE"]}
{"price":19000,"dateOfTransfer":"1997-01-10T00:00:00","postcodeFull":"SK14 2RU","propertyType":"Terraced","oldOrNew":"Established","duration":"Leasehold","paon":"3","saon":"","street":"RICHMOND STREET","locality":"HYDE","townOrCity":"HYDE","district":"TAMESIDE","county":"GREATER MANCHESTER","ppdCategoryType":"Standard","recordStatus":"Addition","latitude":53.451703,"longitude":-2.070101,"postcodeStart":"SK14 2","postcode":["SK14","2RU"]}
{"price":39500,"dateOfTransfer":"1997-06-20T00:00:00","postcodeFull":"SK14 2PG","propertyType":"Terraced","oldOrNew":"Established","duration":"Freehold","paon":"14","saon":"","street":"CALLAND AVENUE","locality":"HYDE","townOrCity":"HYDE","district":"TAMESIDE","county":"GREATER MANCHESTER","ppdCategoryType":"Standard","recordStatus":"Addition","latitude":53.451859,"longitude":-2.063431,"postcodeStart":"SK14 2","postcode":["SK14","2PG"]}
{"price":50000,"dateOfTransfer":"1997-10-06T00:00:00","postcodeFull":"SK14 2PW","propertyType":"Semi-detached","oldOrNew":"Established","duration":"Freehold","paon":"30","saon":"","street":"CARLTON ROAD","locality":"HYDE","townOrCity":"HYDE","district":"TAMESIDE","county":"GREATER MANCHESTER","ppdCategoryType":"Standard","recordStatus":"Addition","latitude":53.452975,"longitude":-2.061445,"postcodeStart":"SK14 2","postcode":["SK14","2PW"]}
{"price":31000,"dateOfTransfer":"1997-05-23T00:00:00","postcodeFull":"SK14 2PL","propertyType":"Terraced","oldOrNew":"Established","duration":"Leasehold","paon":"85","saon":"","street":"SHEFFIELD ROAD","locality":"HYDE","townOrCity":"HYDE","district":"TAMESIDE","county":"GREATER MANCHESTER","ppdCategoryType":"Standard","recordStatus":"Addition","latitude":53.453694,"longitude":-2.061145,"postcodeStart":"SK14 2","postcode":["SK14","2PL"]}
{"price":40000,"dateOfTransfer":"1997-12-05T00:00:00","postcodeFull":"SK14 2JY","propertyType":"Terraced","oldOrNew":"Established","duration":"Leasehold","paon":"208","saon":"","street":"CLARENDON ROAD","locality":"HYDE","townOrCity":"HYDE","district":"TAMESIDE","county":"GREATER MANCHESTER","ppdCategoryType":"Standard","recordStatus":"Addition","latitude":53.456159,"longitude":-2.073437,"postcodeStart":"SK14 2","postcode":["SK14","2JY"]}
{"price":20000,"dateOfTransfer":"1997-03-14T00:00:00","postcodeFull":"SK14 2DL","propertyType":"Terraced","oldOrNew":"Established","duration":"Leasehold","paon":"42","saon":"","street":"MILL LANE","locality":"HYDE","townOrCity":"HYDE","district":"TAMESIDE","county":"GREATER MANCHESTER","ppdCategoryType":"Standard","recordStatus":"Addition","latitude":53.451941,"longitude":-2.090415,"postcodeStart":"SK14 2","postcode":["SK14","2DL"]}
{"price":38000,"dateOfTransfer":"1997-03-17T00:00:00","postcodeFull":"SK14 2PS","propertyType":"Terraced","oldOrNew":"Established","duration":"Freehold","paon":"55","saon":"","street":"FOUNTAIN STREET","locality":"HYDE","townOrCity":"HYDE","district":"TAMESIDE","county":"GREATER MANCHESTER","ppdCategoryType":"Standard","recordStatus":"Addition","latitude":53.454034,"longitude":-2.064172,"postcodeStart":"SK14 2","postcode":["SK14","2PS"]}
{"price":46950,"dateOfTransfer":"1997-06-20T00:00:00","postcodeFull":"SK14 2LG","propertyType":"Terraced","oldOrNew":"Established","duration":"Leasehold","paon":"19","saon":"","street":"REPTON AVENUE","locality":"HYDE","townOrCity":"HYDE","district":"TAMESIDE","county":"GREATER MANCHESTER","ppdCategoryType":"Standard","recordStatus":"Addition","latitude":53.455044,"longitude":-2.073661,"postcodeStart":"SK14 2","postcode":["SK14","2LG"]}
{"price":40000,"dateOfTransfer":"1997-08-08T00:00:00","postcodeFull":"SK14 2DB","propertyType":"Semi-detached","oldOrNew":"Established","duration":"Freehold","paon":"13","saon":"","street":"KINGSTON GARDENS","locality":"HYDE","townOrCity":"HYDE","district":"TAMESIDE","county":"GREATER MANCHESTER","ppdCategoryType":"Standard","recordStatus":"Addition","latitude":53.455166,"longitude":-2.092244,"postcodeStart":"SK14 2","postcode":["SK14","2DB"]}
{"price":46000,"dateOfTransfer":"1997-06-27T00:00:00","postcodeFull":"SK14 2PE","propertyType":"Terraced","oldOrNew":"Established","duration":"Freehold","paon":"245","saon":"","street":"MOTTRAM ROAD","locality":"HYDE","townOrCity":"HYDE","district":"TAMESIDE","county":"GREATER MANCHESTER","ppdCategoryType":"Standard","recordStatus":"Addition","latitude":53.451536,"longitude":-2.063701,"postcodeStart":"SK14 2","postcode":["SK14","2PE"]}
