{"price":67000,"dateOfTransfer":"1995-12-05T00:00:00","postcodeFull":"SL4 5LW","propertyType":"Semi-detached","oldOrNew":"Established","duration":"Freehold","paon":"28","saon":"","street":"GREENACRE","locality":"WINDSOR","townOrCity":"WINDSOR","district":"WINDSOR AND MAIDENHEAD","county":"WINDSOR AND MAIDENHEAD","ppdCategoryType":"Standard","recordStatus":"Addition","latitude":51.47722,"longitude":-0.641523,"postcodeStart":"SL4 5","postcode":["SL4","5LW"]}
{"price":112000,"dateOfTransfer":"1995-12-04T00:00:00","postcodeFull":"SL4 5PP","propertyType":"Semi-detached","oldOrNew":"Established","duration":"Freehold","paon":"23","saon":"","street":"ASTON MEAD","locality":"","townOrCity":"WINDSOR","district":"WINDSOR AND MAIDENHEAD","county":"WINDSOR AND MAIDENHEAD","ppdCategoryType":"Standard","recordStatus":"Addition","latitude":51.48402,"longitude":-0.646186,"postcodeStart":"SL4 5","postcode":["SL4","5PP"]}
{"price":105000,"dateOfTransfer":"1995-08-02T00:00:00","postcodeFull":"SL4 5BT","propertyType":"Terraced","oldOrNew":"Established","duration":"Freehold","paon":"47","saon":"","street":"ALBERT STREET","locality":"WINDSOR","townOrCity":"WINDSOR","district":"WINDSOR AND MAIDENHEAD","county":"WINDSOR AND MAIDENHEAD","ppdCategoryType":"Standard","recordStatus":"Addition","latitude":51.481118,"longitude":-0.621102,"postcodeStart":"SL4 5","postcode":["SL4","5BT"]}
{"price":52750,"dateOfTransfer":"1995-08-09T00:00:00","postcodeFull":"SL4 5BQ","propertyType":"Flat/Maisonette/Townhouse","oldOrNew":"Established","duration":"Leasehold","paon":"ST CATHERINES COURT","saon":"FLAT 6","street":"CLARENCE ROAD","locality":"WINDSOR","townOrCity":"WINDSOR","district":"WINDSOR AND MAIDENHEAD","county":"WINDSOR AND MAIDENHEAD","ppdCategoryType":"Standard","recordStatus":"Addition","latitude":51.479312,"longitude":-0.628918,"postcodeStart":"SL4 5","postcode":["SL4","5BQ"]}
{"price":85000,"dateOfTransfer":"1995-03-24T00:00:00","postcodeFull":"SL4 5LZ","propertyType":"Semi-detached","oldOrNew":"Established","duration":"Freehold","paon":"32","saon":"","street":"HARCOURT ROAD","locality":"WINDSOR","townOrCity":"WINDSOR","district":"WINDSOR AND MAIDENHEAD","county":"WINDSOR AND MAIDENHEAD","ppdCategoryType":"Standard","recordStatus":"Addition","latitude":51.48196,"longitude":-0.639352,"postcodeStart":"SL4 5","postcode":["SL4","5LZ"]}
{"price":73000,"dateOfTransfer":"1995-11-10T00:00:00","postcodeFull":"SL4 5BW","propertyType":"Terraced","oldOrNew":"Established","duration":"Freehold","paon":"19","saon":"","street":"CLEWER FIELDS","locality":"WINDSOR","townOrCity":"WINDSOR","district":"WINDSOR AND MAIDENHEAD","county":"WINDSOR AND MAIDENHEAD","ppdCategoryType":"Standard","recordStatus":"Addition","latitude":51.481915,"longitude":-0.617017,"postcodeStart":"SL4 5","postcode":["SL4","5BW"]}
{"price":87000,"dateOfTransfer":"1995-08-25T00:00:00","postcodeFull":"SL4 5JD","propertyType":"Terraced","oldOrNew":"Established","duration":"Freehold","paon":"5","saon":"","street":"CLEWER COURT ROAD","locality":"WINDSOR","townOrCity":"WINDSOR","district":"WINDSOR AND MAIDENHEAD","county":"WINDSOR AND MAIDENHEAD","ppdCategoryType":"Standard","recordStatus":"Addition","latitude":51.485388,"longitude":-0.624099,"postcodeStart":"SL4 5","postcode":["SL4","5JD"]}
{"price":60000,"dateOfTransfer":"1995-03-21T00:00:00","postcodeFull":"SL4 5BT","propertyType":"Terraced","oldOrNew":"Established","duration":"Freehold","paon":"47","saon":"","street":"ALBERT STREET","locality":"WINDSOR","townOrCity":"WINDSOR","district":"WINDSOR AND MAIDENHEAD","county":"WINDSOR AND MAIDENHEAD","ppdCategoryType":"Standard","recordStatus":"Addition","latitude":51.481118,"longitude":-0.621102,"postcodeStart":"SL4 5","postcode":["SL4","5BT"]}
{"price":55000,"dateOfTransfer":"1995-11-17T00:00:00","postcodeFull":"SL4 5JZ","propertyType":"Semi-detached","oldOrNew":"Established","duration":"Freehold","paon":"21","saon":"","street":"VALE ROAD","locality":"WINDSOR","townOrCity":"WINDSOR","district":"WINDSOR AND MAIDENHEAD","county":"WINDSOR AND MAIDENHEAD","ppdCategoryType":"Standard","recordStatus":"Addition","latitude":51.480186,"longitude":-0.635243,"postcodeStart":"SL4 5","postcode":["SL4","5JZ"]}
{"price":88500,"dateOfTransfer":"1995-11-24T00:00:00","postcodeFull":"SL4 5RG","propertyType":"Semi-detached","oldOrNew":"Established","duration":"Freehold","paon":"2","saon":"","street":"HOMERS ROAD","locality":"WINDSOR","townOrCity":"WINDSOR","district":"WINDSOR AND MAIDENHEAD","county":"WINDSOR AND MAIDENHEAD","ppdCategoryType":"Standard","recordStatus":"Addition","latitude":51.480237,"longitude":-0.651929,"postcodeStart":"SL4 5","postcode":["SL4","5RG"]}
{"price":91000,"dateOfTransfer":"1995-12-15T00:00:00","postcodeFull":"SL4 5HS","propertyType":"Terraced","oldOrNew":"Established","duration":"Freehold","paon":"PETWORTH COURT","saon":"21","street":"HELSTON LANE","locality":"WINDSOR","townOrCity":"WINDSOR","district":"WINDSOR AND MAIDENHEAD","county":"WINDSOR AND MAIDENHEAD","ppdCategoryType":"Standard","recordStatus":"Addition","latitude":51.480938,"longitude":-0.625673,"postcodeStart":"SL4 5","postcode":["SL4","5HS"]}
{"price":90000,"dateOfTransfer":"1995-10-23T00:00:00","postcodeFull":"SL4 5JS","propertyType":"Semi-detached","oldOrNew":"Established","duration":"Freehold","paon":"18","saon":"","street":"BUCKLAND CRESCENT","locality":"WINDSOR","townOrCity":"WINDSOR","district":"WINDSOR AND MAIDENHEAD","county":"WINDSOR AND MAIDENHEAD","ppdCategoryType":"Standard","recordStatus":"Addition","latitude":51.483312,"longitude":-0.636518,"postcodeStart":"SL4 5","postcode":["SL4","5JS"]}
{"price":59950,"dateOfTransfer":"1995-12-07T00:00:00","postcodeFull":"SL4 5BW","propertyType":"Semi-detached","oldOrNew":"Established","duration":"Freehold","paon":"3","saon":"","street":"CLEWER FIELDS","locality":"WINDSOR","townOrCity":"WINDSOR","district":"WINDSOR AND MAIDENHEAD","county":"WINDSOR AND MAIDENHEAD","ppdCategoryType":"Standard","recordStatus":"Addition","latitude":51.481915,"longitude":-0.617017,"postcodeStart":"SL4 5","postcode":["SL4","5BW"]}
{"price":80000,"dateOfTransfer":"1995-05-31T00:00:00","postcodeFull":"SL4 5TY","propertyType":"Detached","oldOrNew":"Established","duration":"Freehold","paon":"3","saon":"","street":"DAIRY COTTAGES","locality":"WINDSOR","townOrCity":"WINDSOR","district":"WINDSOR AND MAIDENHEAD","county":"WINDSOR AND MAIDENHEAD","ppdCategoryType":"Standard","recordStatus":"Addition","latitude":51.485866,"longitude":-0.659903,"postcodeStart":"SL4 5","postcode":["SL4","5TY"]}
{"price":111950,"dateOfTransfer":"1995-10-20T00:00:00","postcodeFull":"SL4 5JD","propertyType":"Semi-detached","oldOrNew":"Established","duration":"Freehold","paon":"9","saon":"","street":"CLEWER COURT ROAD","locality":"WINDSOR","townOrCity":"WINDSOR","district":"WINDSOR AND MAIDENHEAD","county":"WINDSOR AND MAIDENHEAD","ppdCategoryType":"Standard","recordStatus":"Addition","latitude":51.485388,"longitude":-0.624099,"postcodeStart":"SL4 5","postcode":["SL4","5JD"]}
{"price":107500,"dateOfTransfer":"1995-02-01T00:00:00","postcodeFull":"SL4 5SS","propertyType":"Semi-detached","oldOrNew":"Established","duration":"Freehold","paon":"50","saon":"","street":"REDFORD ROAD","locality":"WINDSOR","townOrCity":"WINDSOR","district":"WINDSOR AND MAIDENHEAD","county":"WINDSOR AND MAIDENHEAD","ppdCategoryType":"Standard","recordStatus":"Addition","latitude":51.482984,"longitude":-0.653248,"postcodeStart":"SL4 5","postcode":["SL4","5SS"]}
{"price":105000,"dateOfTransfer":"1995-04-21T00:00:00","postcodeFull":"SL4 5BD","propertyType":"Semi-detached","oldOrNew":"Established","duration":"Freehold","paon":"120","saon":"","street":"DEDWORTH ROAD","locality":"WINDSOR","townOrCity":"WINDSOR","district":"WINDSOR AND MAIDENHEAD","county":"WINDSOR AND MAIDENHEAD","ppdCategoryType":"Standard","recordStatus":"Addition","latitude":51.478616,"longitude":-0.637119,"postcodeStart":"SL4 5","postcode":["SL4","5BD"]}
{"price":94500,"dateOfTransfer":"1995-10-27T00:00:00","postcodeFull":"SL4 5PU","propertyType":"Semi-detached","oldOrNew":"Established","duration":"Freehold","paon":"26","saon":"","street":"CAWCOTT DRIVE","locality":"WINDSOR","townOrCity":"WINDSOR","district":"WINDSOR AND MAIDENHEAD","county":"WINDSOR AND MAIDENHEAD","ppdCategoryType":"Standard","recordStatus":"Addition","latitude":51.482908,"longitude":-0.64507,"postcodeStart":"SL4 5","postcode":["SL4","5PU"]}
{"price":66500,"dateOfTransfer":"1995-09-15T00:00:00","postcodeFull":"SL4 5NB","propertyType":"Flat/Maisonette/Townhouse","oldOrNew":"Established","duration":"Leasehold","paon":"10","saon":"","street":"HARCOURT ROAD","locality":"WINDSOR","townOrCity":"WINDSOR","district":"WINDSOR AND MAIDENHEAD","county":"WINDSOR AND MAIDENHEAD","ppdCategoryType":"Standard","recordStatus":"Addition","latitude":51.482299,"longitude":-0.640652,"postcodeStart":"SL4 5","postcode":["SL4","5NB"]}
{"price":42471,"dateOfTransfer":"1995-11-01T00:00:00","postcodeFull":"SL4 5LW","propertyType":"Semi-detached","oldOrNew":"Established","duration":"Freehold","paon":"32","saon":"","street":"GREENACRE","locality":"WINDSOR","townOrCity":"WINDSOR","district":"WINDSOR AND MAIDENHEAD","county":"WINDSOR AND MAIDENHEAD","ppdCategoryType":"Standard","recordStatus":"Addition","latitude":51.47722,"longitude":-0.641523,"postcodeStart":"SL4 5","postcode":["SL4","5LW"]}
{"price":59995,"dateOfTransfer":"1995-08-10T00:00:00","postcodeFull":"SL4 5LE","propertyType":"Semi-detached","oldOrNew":"Established","duration":"Freehold","paon":"47","saon":"","street":"WEST CRESCENT","locality":"WINDSOR","townOrCity":"WINDSOR","district":"WINDSOR AND MAIDENHEAD","county":"WINDSOR AND MAIDENHEAD","ppdCategoryType":"Standard","recordStatus":"Addition","latitude":51.480204,"longitude":-0.63602,"postcodeStart":"SL4 5","postcode":["SL4","5LE"]}
{"price":44520,"dateOfTransfer":"1995-10-30T00:00:00","postcodeFull":"SL4 5RF","propertyType":"Terraced","oldOrNew":"Established","duration":"Freehold","paon":"62","saon":"","street":"PIERSON ROAD","locality":"WINDSOR","townOrCity":"WINDSOR","district":"WINDSOR AND MAIDENHEAD","county":"WINDSOR AND MAIDENHEAD","ppdCategoryType":"Standard","recordStatus":"Addition","latitude":51.478939,"longitude":-0.651005,"postcodeStart":"SL4 5","postcode":["SL4","5RF"]}
{"price":75000,"dateOfTransfer":"1995-06-30T00:00:00","postcodeFull":"SL4 5EU","propertyType":"Terraced","oldOrNew":"Established","duration":"Freehold","paon":"6","saon":"","street":"OAK LANE","locality":"WINDSOR","townOrCity":"WINDSOR","district":"WINDSOR AND MAIDENHEAD","county":"WINDSOR AND MAIDENHEAD","ppdCategoryType":"Standard","recordStatus":"Addition","latitude":51.479755,"longitude":-0.630529,"postcodeStart":"SL4 5","postcode":["SL4","5EU"]}
{"price":74000,"dateOfTransfer":"1995-06-19T00:00:00","postcodeFull":"SL4 5PY","propertyType":"Semi-detached","oldOrNew":"Established","duration":"Freehold","paon":"1","saon":"","street":"GWYNNE CLOSE","locality":"WINDSOR","townOrCity":"WINDSOR","district":"WINDSOR AND MAIDENHEAD","county":"WINDSOR AND MAIDENHEAD","ppdCategoryType":"Standard","recordStatus":"Addition","latitude":51.482495,"longitude":-0.645881,"postcodeStart":"SL4 5","postcode":["SL4","5PY"]}
{"price":100000,"dateOfTransfer":"1995-03-17T00:00:00","postcodeFull":"SL4 5BU","propertyType":"Terraced","oldOrNew":"Established","duration":"Freehold","paon":"42","saon":"","street":"ALBERT STREET","locality":"WINDSOR","townOrCity":"WINDSOR","district":"WINDSOR AND MAIDENHEAD","county":"WINDSOR AND MAIDENHEAD","ppdCategoryType":"Standard","recordStatus":"Addition","latitude":51.48128,"longitude":-0.62186,"postcodeStart":"SL4 5","postcode":["SL4","5BU"]}
{"price":107000,"dateOfTransfer":"1995-07-31T00:00:00","postcodeFull":"SL4 5RS","propertyType":"Semi-detached","oldOrNew":"Established","duration":"Freehold","paon":"14","saon":"","street":"COPPER BEECH CLOSE","locality":"WINDSOR","townOrCity":"WINDSOR","district":"WINDSOR AND MAIDENHEAD","county":"WINDSOR AND MAIDENHEAD","ppdCategoryType":"Standard","recordStatus":"Addition","latitude":51.481181,"longitude":-0.653661,"postcodeStart":"SL4 5","postcode":["SL4","5RS"]}
{"price":45000,"dateOfTransfer":"1995-03-31T00:00:00","postcodeFull":"SL4 5LE","propertyType":"Semi-detached","oldOrNew":"New build","duration":"Freehold","paon":"63","saon":"","street":"WEST CRESCENT","locality":"WINDSOR","townOrCity":"WINDSOR","district":"WINDSOR AND MAIDENHEAD","county":"WINDSOR AND MAIDENHEAD","ppdCategoryType":"Standard","recordStatus":"Addition","latitude":51.480204,"longitude":-0.63602,"postcodeStart":"SL4 5","postcode":["SL4","5LE"]}
{"price":106000,"dateOfTransfer":"1995-10-12T00:00:00","postcodeFull":"SL4 5SZ","propertyType":"Semi-detached","oldOrNew":"Established","duration":"Freehold","paon":"16","saon":"","street":"HAYSE HILL","locality":"WINDSOR","townOrCity":"WINDSOR","district":"WINDSOR AND MAIDENHEAD","county":"WINDSOR AND MAIDENHEAD","ppdCategoryType":"Standard","recordStatus":"Addition","latitude":51.483934,"longitude":-0.650628,"postcodeStart":"SL4 5","postcode":["SL4","5SZ"]}
{"price":60000,"dateOfTransfer":"1995-11-20T00:00:00","postcodeFull":"SL4 5BZ","propertyType":"Detached","oldOrNew":"Established","duration":"Freehold","paon":"7","saon":"","street":"VANSITTART ROAD","locality":"WINDSOR","townOrCity":"WINDSOR","district":"WINDSOR AND MAIDENHEAD","county":"WINDSOR AND MAIDENHEAD","ppdCategoryType":"Standard","recordStatus":"Addition","latitude":51.484742,"longitude":-0.61961,"postcodeStart":"SL4 5","postcode":["SL4","5BZ"]}
{"price":85000,"dateOfTransfer":"1995-06-09T00:00:00","postcodeFull":"SL4 5PT","propertyType":"Semi-detached","oldOrNew":"Established","duration":"Freehold","paon":"14","saon":"","street":"JACOB CLOSE","locality":"WINDSOR","townOrCity":"WINDSOR","district":"WINDSOR AND MAIDENHEAD","county":"WINDSOR AND MAIDENHEAD","ppdCategoryType":"Standard","recordStatus":"Addition","latitude":51.483316,"longitude":-0.643834,"postcodeStart":"SL4 5","postcode":["SL4","5PT"]}
{"price":112000,"dateOfTransfer":"1995-08-31T00:00:00","postcodeFull":"SL4 5QW","propertyType":"Detached","oldOrNew":"Established","duration":"Freehold","paon":"91","saon":"","street":"GALLYS ROAD","locality":"WINDSOR","townOrCity":"WINDSOR","district":"WINDSOR AND MAIDENHEAD","county":"WINDSOR AND MAIDENHEAD","ppdCategoryType":"Standard","recordStatus":"Addition","latitude":51.478826,"longitude":-0.648978,"postcodeStart":"SL4 5","postcode":["SL4","5QW"]}
{"price":62950,"dateOfTransfer":"1995-11-03T00:00:00","postcodeFull":"SL4 5LE","propertyType":"Semi-detached","oldOrNew":"Established","duration":"Freehold","paon":"23","saon":"","street":"WEST CRESCENT","locality":"WINDSOR","townOrCity":"WINDSOR","district":"WINDSOR AND MAIDENHEAD","county":"WINDSOR AND MAIDENHEAD","ppdCategoryType":"Standard","recordStatus":"Addition","latitude":51.480204,"longitude":-0.63602,"postcodeStart":"SL4 5","postcode":["SL4","5LE"]}
{"price":65000,"dateOfTransfer":"1995-07-12T00:00:00","postcodeFull":"SL4 5EP","propertyType":"Flat/Maisonette/Townhouse","oldOrNew":"Established","duration":"Leasehold","paon":"25","saon":"","street":"CHANTRY CLOSE","locality":"WINDSOR","townOrCity":"WINDSOR","district":"WINDSOR AND MAIDENHEAD","county":"WINDSOR AND MAIDENHEAD","ppdCategoryType":"Standard","recordStatus":"Addition","latitude":51.481645,"longitude":-0.627682,"postcodeStart":"SL4 5","postcode":["SL4","5EP"]}
{"price":142500,"dateOfTransfer":"1995-05-31T00:00:00","postcodeFull":"SL4 5TP","propertyType":"Flat/Maisonette/Townhouse","oldOrNew":"Established","duration":"Freehold","paon":"1","saon":"","street":"THE WILLOWS","locality":"WINDSOR","townOrCity":"WINDSOR","district":"WINDSOR AND MAIDENHEAD","county":"WINDSOR AND MAIDENHEAD","ppdCategoryType":"Standard","recordStatus":"Addition","latitude":51.48502,"longitude":-0.654179,"postcodeStart":"SL4 5","postcode":["SL4","5TP"]}
{"price":90000,"dateOfTransfer":"1995-07-28T00:00:00","postcodeFull":"SL4 5JN","propertyType":"Detached","oldOrNew":"Established","duration":"Freehold","paon":"150","saon":"","street":"VALE ROAD","locality":"WINDSOR","townOrCity":"WINDSOR","district":"WINDSOR AND MAIDENHEAD","county":"WINDSOR AND MAIDENHEAD","ppdCategoryType":"Standard","recordStatus":"Addition","latitude":51.48356,"longitude":-0.634638,"postcodeStart":"SL4 5","postcode":["SL4","5JN"]}
{"price":68000,"dateOfTransfer":"1995-04-20T00:00:00","postcodeFull":"SL4 5LP","propertyType":"Semi-detached","oldOrNew":"Established","duration":"Freehold","paon":"11","saon":"","street":"MANOR ROAD","locality":"WINDSOR","townOrCity":"WINDSOR","district":"WINDSOR AND MAIDENHEAD","county":"WINDSOR AND MAIDENHEAD","ppdCategoryType":"Standard","recordStatus":"Addition","latitude":51.478539,"longitude":-0.642838,"postcodeStart":"SL4 5","postcode":["SL4","5LP"]}
{"price":40000,"dateOfTransfer":"1995-08-07T00:00:00","postcodeFull":"SL4 5NH","propertyType":"Semi-detached","oldOrNew":"Established","duration":"Freehold","paon":"5","saon":"","street":"LORING ROAD","locality":"WINDSOR","townOrCity":"WINDSOR","district":"WINDSOR AND MAIDENHEAD","county":"WINDSOR AND MAIDENHEAD","ppdCategoryType":"Standard","recordStatus":"Addition","latitude":51.480975,"longitude":-0.638157,"postcodeStart":"SL4 5","postcode":["SL4","5NH"]}
{"price":65000,"dateOfTransfer":"1995-08-11T00:00:00","postcodeFull":"SL4 5LB","propertyType":"Semi-detached","oldOrNew":"Established","duration":"Freehold","paon":"20","saon":"","street":"VALE ROAD","locality":"WINDSOR","townOrCity":"WINDSOR","district":"WINDSOR AND MAIDENHEAD","county":"WINDSOR AND MAIDENHEAD","ppdCategoryType":"Standard","recordStatus":"Addition","latitude":51.480108,"longitude":-0.634741,"postcodeStart":"SL4 5","postcode":["SL4","5LB"]}
{"price":81000,"dateOfTransfer":"1995-10-26T00:00:00","postcodeFull":"SL4 5DB","propertyType":"Flat/Maisonette/Townhouse","oldOrNew":"Established","duration":"Leasehold","paon":"71","saon":"FLAT","street":"","locality":"KINGS ROAD","townOrCity":"WINDSOR","district":"WINDSOR AND MAIDENHEAD","county":"WINDSOR AND MAIDENHEAD","ppdCategoryType":"Standard","recordStatus":"Addition","latitude":51.482578,"longitude":-0.619877,"postcodeStart":"SL4 5","postcode":["SL4","5DB"]}
{"price":95000,"dateOfTransfer":"1995-12-21T00:00:00","postcodeFull":"SL4 5BP","propertyType":"Terraced","oldOrNew":"Established","duration":"Freehold","paon":"27","saon":"","street":"BEXLEY STREET","locality":"WINDSOR","townOrCity":"WINDSOR","district":"WINDSOR AND MAIDENHEAD","county":"WINDSOR AND MAIDENHEAD","ppdCategoryType":"Standard","recordStatus":"Addition","latitude":51.481464,"longitude":-0.617693,"postcodeStart":"SL4 5","postcode":["SL4","5BP"]}
{"price":63500,"dateOfTransfer":"1995-06-12T00:00:00","postcodeFull":"SL4 5LD","propertyType":"Semi-detached","oldOrNew":"Established","duration":"Freehold","paon":"15","saon":"","street":"EAST CRESCENT","locality":"WINDSOR","townOrCity":"WINDSOR","district":"WINDSOR AND MAIDENHEAD","county":"WINDSOR AND MAIDENHEAD","ppdCategoryType":"Standard","recordStatus":"Addition","latitude":51.480439,"longitude":-0.633781,"postcodeStart":"SL4 5","postcode":["SL4","5LD"]}
{"price":80000,"dateOfTransfer":"1995-01-04T00:00:00","postcodeFull":"SL4 5BU","propertyType":"Terraced","oldOrNew":"Established","duration":"Freehold","paon":"40","saon":"","street":"ALBERT STREET","locality":"WINDSOR","townOrCity":"WINDSOR","district":"WINDSOR AND MAIDENHEAD","county":"WINDSOR AND MAIDENHEAD","ppdCategoryType":"Standard","recordStatus":"Addition","latitude":51.48128,"longitude":-0.62186,"postcodeStart":"SL4 5","postcode":["SL4","5BU"]}
{"price":98500,"dateOfTransfer":"1995-10-11T00:00:00","postcodeFull":"SL4 5BX","propertyType":"Terraced","oldOrNew":"Established","duration":"Freehold","paon":"64","saon":"","street":"BEXLEY STREET","locality":"WINDSOR","townOrCity":"WINDSOR","district":"WINDSOR AND MAIDENHEAD","county":"WINDSOR AND MAIDENHEAD","ppdCategoryType":"Standard","recordStatus":"Addition","latitude":51.481222,"longitude":-0.617729,"postcodeStart":"SL4 5","postcode":["SL4","5BX"]}
{"price":85000,"dateOfTransfer":"1995-01-16T00:00:00","postcodeFull":"SL4 5AU","propertyType":"Flat/Maisonette/Townhouse","oldOrNew":"Established","duration":"Leasehold","paon":"34","saon":"FLAT 2","street":"CLARENCE ROAD","locality":"","townOrCity":"WINDSOR","district":"WINDSOR AND MAIDENHEAD","county":"WINDSOR AND MAIDENHEAD","ppdCategoryType":"Standard","recordStatus":"Addition","latitude":51.480241,"longitude":-0.617687,"postcodeStart":"SL4 5","postcode":["SL4","5AU"]}
{"price":185000,"dateOfTransfer":"1995-11-20T00:00:00","postcodeFull":"SL4 5EW","propertyType":"Detached","oldOrNew":"Established","duration":"Freehold","paon":"43","saon":"","street":"PARSONAGE LANE","locality":"WINDSOR","townOrCity":"WINDSOR","district":"WINDSOR AND MAIDENHEAD","county":"WINDSOR AND MAIDENHEAD","ppdCategoryType":"Standard","recordStatus":"Addition","latitude":51.481132,"longitude":-0.627551,"postcodeStart":"SL4 5","postcode":["SL4","5EW"]}
{"price":75000,"dateOfTransfer":"1995-02-03T00:00:00","postcodeFull":"SL4 5AU","propertyType":"Flat/Maisonette/Townhouse","oldOrNew":"Established","duration":"Leasehold","paon":"34","saon":"FLAT 3","street":"CLARENCE ROAD","locality":"WINDSOR","townOrCity":"WINDSOR","district":"WINDSOR AND MAIDENHEAD","county":"WINDSOR AND MAIDENHEAD","ppdCategoryType":"Standard","recordStatus":"Addition","latitude":51.480241,"longitude":-0.617687,"postcodeStart":"SL4 5","postcode":["SL4","5AU"]}
{"price":84000,"dateOfTransfer":"1995-10-06T00:00:00","postcodeFull":"SL4 5JR","propertyType":"Semi-detached","oldOrNew":"Established","duration":"Freehold","paon":"115","saon":"","street":"VALE ROAD","locality":"WINDSOR","townOrCity":"WINDSOR","district":"WINDSOR AND MAIDENHEAD","county":"WINDSOR AND MAIDENHEAD","ppdCategoryType":"Standard","recordStatus":"Addition","latitude":51.483548,"longitude":-0.635157,"postcodeStart":"SL4 5","postcode":["SL4","5JR"]}
{"price":64650,"dateOfTransfer":"1995-06-19T00:00:00","postcodeFull":"SL4 5DU","propertyType":"Flat/Maisonette/Townhouse","oldOrNew":"Established","duration":"Leasehold","paon":"138","saon":"1ST FLOOR FLAT","street":"OXFORD ROAD","locality":"WINDSOR","townOrCity":"WINDSOR","district":"WINDSOR AND MAIDENHEAD","county":"WINDSOR AND MAIDENHEAD","ppdCategoryType":"Standard","recordStatus":"Addition","latitude":51.482422,"longitude":-0.617333,"postcodeStart":"SL4 5","postcode":["SL4","5DU"]}
{"price":77000,"dateOfTransfer":"1995-12-11T00:00:00","postcodeFull":"SL4 5LW","propertyType":"Semi-detached","oldOrNew":"Established","duration":"Freehold","paon":"2","saon":"","street":"GREENACRE","locality":"WINDSOR","townOrCity":"WINDSOR","district":"WINDSOR AND MAIDENHEAD","county":"WINDSOR AND MAIDENHEAD","ppdCategoryType":"Standard","recordStatus":"Addition","latitude":51.47722,"longitude":-0.641523,"postcodeStart":"SL4 5","postcode":["SL4","5LW"]}
{"price":88250,"dateOfTransfer":"1995-05-01T00:00:00","postcodeFull":"SL4 5BX","propertyType":"Semi-detached","oldOrNew":"Established","duration":"Freehold","paon":"65","saon":"","street":"BEXLEY STREET","locality":"WINDSOR","townOrCity":"WINDSOR","district":"VALE OF WHITE HORSE","county":"OXFORDSHIRE","ppdCategoryType":"Standard","recordStatus":"Addition","latitude":51.481222,"longitude":-0.617729,"postcodeStart":"SL4 5","postcode":["SL4","5BX"]}
{"price":109000,"dateOfTransfer":"1995-07-07T00:00:00","postcodeFull":"SL4 5BT","propertyType":"Terraced","oldOrNew":"Established","duration":"Freehold","paon":"15","saon":"","street":"ALBERT STREET","locality":"WINDSOR","townOrCity":"WINDSOR","district":"WINDSOR AND MAIDENHEAD","county":"WINDSOR AND MAIDENHEAD","ppdCategoryType":"Standard","recordStatus":"Addition","latitude":51.481118,"longitude":-0.621102,"postcodeStart":"SL4 5","postcode":["SL4","5BT"]}
{"price":84000,"dateOfTransfer":"1995-06-16T00:00:00","postcodeFull":"SL4 5HG","propertyType":"Terraced","oldOrNew":"Established","duration":"Freehold","paon":"2","saon":"","street":"RAYS AVENUE","locality":"WINDSOR","townOrCity":"WINDSOR","district":"WINDSOR AND MAIDENHEAD","county":"WINDSOR AND MAIDENHEAD","ppdCategoryType":"Standard","recordStatus":"Addition","latitude":51.484402,"longitude":-0.636687,"postcodeStart":"SL4 5","postcode":["SL4","5HG"]}
{"price":90000,"dateOfTransfer":"1995-09-14T00:00:00","postcodeFull":"SL4 5BU","propertyType":"Terraced","oldOrNew":"Established","duration":"Freehold","paon":"8","saon":"","street":"ALBERT STREET","locality":"WINDSOR","townOrCity":"WINDSOR","district":"WINDSOR AND MAIDENHEAD","county":"WINDSOR AND MAIDENHEAD","ppdCategoryType":"Standard","recordStatus":"Addition","latitude":51.48128,"longitude":-0.62186,"postcodeStart":"SL4 5","postcode":["SL4","5BU"]}
{"price":95000,"dateOfTransfer":"1995-10-06T00:00:00","postcodeFull":"SL4 5DG","propertyType":"Terraced","oldOrNew":"Established","duration":"Freehold","paon":"119","saon":"","street":"VANSITTART ROAD","locality":"WINDSOR","townOrCity":"WINDSOR","district":"WINDSOR AND MAIDENHEAD","county":"WINDSOR AND MAIDENHEAD","ppdCategoryType":"Standard","recordStatus":"Addition","latitude":51.481046,"longitude":-0.619549,"postcodeStart":"SL4 5","postcode":["SL4","5DG"]}
{"price":40000,"dateOfTransfer":"1995-11-10T00:00:00","postcodeFull":"SL4 5TP","propertyType":"Semi-detached","oldOrNew":"Established","duration":"Freehold","paon":"16","saon":"","street":"THE WILLOWS","locality":"WINDSOR","townOrCity":"WINDSOR","district":"WINDSOR AND MAIDENHEAD","county":"WINDSOR AND MAIDENHEAD","ppdCategoryType":"Standard","recordStatus":"Addition","latitude":51.48502,"longitude":-0.654179,"postcodeStart":"SL4 5","postcode":["SL4","5TP"]}
{"price":157500,"dateOfTransfer":"1995-03-17T00:00:00","postcodeFull":"SL4 5SN","propertyType":"Detached","oldOrNew":"Established","duration":"Freehold","paon":"15","saon":"","street":"NEWBERRY CRESCENT","locality":"WINDSOR","townOrCity":"WINDSOR","district":"WINDSOR AND MAIDENHEAD","county":"WINDSOR AND MAIDENHEAD","ppdCategoryType":"Standard","recordStatus":"Addition","latitude":51.479251,"longitude":-0.654697,"postcodeStart":"SL4 5","postcode":["SL4","5SN"]}
{"price":103000,"dateOfTransfer":"1995-02-27T00:00:00","postcodeFull":"SL4 5QS","propertyType":"Semi-detached","oldOrNew":"Established","duration":"Freehold","paon":"77","saon":"","street":"GALLYS ROAD","locality":"WINDSOR","townOrCity":"WINDSOR","district":"WINDSOR AND MAIDENHEAD","county":"WINDSOR AND MAIDENHEAD","ppdCategoryType":"Standard","recordStatus":"Addition","latitude":51.48109,"longitude":-0.648105,"postcodeStart":"SL4 5","postcode":["SL4","5QS"]}
{"price":88250,"dateOfTransfer":"1995-09-15T00:00:00","postcodeFull":"SL4 5BB","propertyType":"Semi-detached","oldOrNew":"Established","duration":"Freehold","paon":"97","saon":"","street":"DEDWORTH ROAD","locality":"WINDSOR","townOrCity":"WINDSOR","district":"WINDSOR AND MAIDENHEAD","county":"WINDSOR AND MAIDENHEAD","ppdCategoryType":"Standard","recordStatus":"Addition","latitude":51.478336,"longitude":-0.63606,"postcodeStart":"SL4 5","postcode":["SL4","5BB"]}
{"price":132500,"dateOfTransfer":"1995-05-12T00:00:00","postcodeFull":"SL4 5QW","propertyType":"Detached","oldOrNew":"Established","duration":"Freehold","paon":"93","saon":"","street":"GALLYS ROAD","locality":"WINDSOR","townOrCity":"WINDSOR","district":"WINDSOR AND MAIDENHEAD","county":"WINDSOR AND MAIDENHEAD","ppdCategoryType":"Standard","recordStatus":"Addition","latitude":51.478826,"longitude":-0.648978,"postcodeStart":"SL4 5","postcode":["SL4","5QW"]}
{"price":137500,"dateOfTransfer":"1995-04-26T00:00:00","postcodeFull":"SL4 5AP","propertyType":"Detached","oldOrNew":"Established","duration":"Freehold","paon":"169","saon":"","street":"CLARENCE ROAD","locality":"WINDSOR","townOrCity":"WINDSOR","district":"WINDSOR AND MAIDENHEAD","county":"WINDSOR AND MAIDENHEAD","ppdCategoryType":"Standard","recordStatus":"Addition","latitude":51.479919,"longitude":-0.626104,"postcodeStart":"SL4 5","postcode":["SL4","5AP"]}
{"price":95750,"dateOfTransfer":"1995-01-20T00:00:00","postcodeFull":"SL4 5EU","propertyType":"Terraced","oldOrNew":"Established","duration":"Freehold","paon":"27","saon":"","street":"OAK LANE","locality":"WINDSOR","townOrCity":"WINDSOR","district":"WINDSOR AND MAIDENHEAD","county":"WINDSOR AND MAIDENHEAD","ppdCategoryType":"Standard","recordStatus":"Addition","latitude":51.479755,"longitude":-0.630529,"postcodeStart":"SL4 5","postcode":["SL4","5EU"]}
{"price":105750,"dateOfTransfer":"1995-06-01T00:00:00","postcodeFull":"SL4 5RP","propertyType":"Semi-detached","oldOrNew":"Established","duration":"Freehold","paon":"80","saon":"","street":"TESTWOOD ROAD","locality":"WINDSOR","townOrCity":"WINDSOR","district":"WINDSOR AND MAIDENHEAD","county":"WINDSOR AND MAIDENHEAD","ppdCategoryType":"Standard","recordStatus":"Addition","latitude":51.481922,"longitude":-0.653913,"postcodeStart":"SL4 5","postcode":["SL4","5RP"]}
{"price":73000,"dateOfTransfer":"1995-03-31T00:00:00","postcodeFull":"SL4 5LG","propertyType":"Terraced","oldOrNew":"Established","duration":"Freehold","paon":"26","saon":"","street":"STEPHENSON DRIVE","locality":"WINDSOR","townOrCity":"WINDSOR","district":"WINDSOR AND MAIDENHEAD","county":"WINDSOR AND MAIDENHEAD","ppdCategoryType":"Standard","recordStatus":"Addition","latitude":51.484265,"longitude":-0.624924,"postcodeStart":"SL4 5","postcode":["SL4","5LG"]}
{"price":112000,"dateOfTransfer":"1995-07-31T00:00:00","postcodeFull":"SL4 5RQ","propertyType":"Semi-detached","oldOrNew":"Established","duration":"Freehold","paon":"28","saon":"","street":"PIERSON ROAD","locality":"WINDSOR","townOrCity":"WINDSOR","district":"WINDSOR AND MAIDENHEAD","county":"WINDSOR AND MAIDENHEAD","ppdCategoryType":"Standard","recordStatus":"Addition","latitude":51.481135,"longitude":-0.650523,"postcodeStart":"SL4 5","postcode":["SL4","5RQ"]}
{"price":65000,"dateOfTransfer":"1995-11-09T00:00:00","postcodeFull":"SL4 5ED","propertyType":"Flat/Maisonette/Townhouse","oldOrNew":"Established","duration":"Leasehold","paon":"VILLIERS COURT","saon":"FLAT 11","street":"MAIDENHEAD ROAD","locality":"WINDSOR","townOrCity":"WINDSOR","district":"WINDSOR AND MAIDENHEAD","county":"WINDSOR AND MAIDENHEAD","ppdCategoryType":"Standard","recordStatus":"Addition","latitude":51.483928,"longitude":-0.626116,"postcodeStart":"SL4 5","postcode":["SL4","5ED"]}
{"price":67500,"dateOfTransfer":"1995-12-15T00:00:00","postcodeFull":"SL4 5JZ","propertyType":"Terraced","oldOrNew":"Established","duration":"Freehold","paon":"41","saon":"","street":"VALE ROAD","locality":"WINDSOR","townOrCity":"WINDSOR","district":"WINDSOR AND MAIDENHEAD","county":"WINDSOR AND MAIDENHEAD","ppdCategoryType":"Standard","recordStatus":"Addition","latitude":51.480186,"longitude":-0.635243,"postcodeStart":"SL4 5","postcode":["SL4","5JZ"]}
{"price":104500,"dateOfTransfer":"1995-08-25T00:00:00","postcodeFull":"SL4 5SY","propertyType":"Semi-detached","oldOrNew":"Established","duration":"Freehold","paon":"8","saon":"","street":"CLIFTON RISE","locality":"WINDSOR","townOrCity":"WINDSOR","district":"WINDSOR AND MAIDENHEAD","county":"WINDSOR AND MAIDENHEAD","ppdCategoryType":"Standard","recordStatus":"Addition","latitude":51.483274,"longitude":-0.648717,"postcodeStart":"SL4 5","postcode":["SL4","5SY"]}
{"price":112000,"dateOfTransfer":"1995-10-02T00:00:00","postcodeFull":"SL4 5QY","propertyType":"Semi-detached","oldOrNew":"Established","duration":"Freehold","paon":"30","saon":"","street":"GALLYS ROAD","locality":"WINDSOR","townOrCity":"WINDSOR","district":"WINDSOR AND MAIDENHEAD","county":"WINDSOR AND MAIDENHEAD","ppdCategoryType":"Standard","recordStatus":"Addition","latitude":51.483537,"longitude":-0.648148,"postcodeStart":"SL4 5","postcode":["SL4","5QY"]}
{"price":112000,"dateOfTransfer":"1995-02-27T00:00:00","postcodeFull":"SL4 5PF","propertyType":"Semi-detached","oldOrNew":"Established","duration":"Freehold","paon":"123","saon":"","street":"SMITHS LANE","locality":"WINDSOR","townOrCity":"WINDSOR","district":"WINDSOR AND MAIDENHEAD","county":"WINDSOR AND MAIDENHEAD","ppdCategoryType":"Standard","recordStatus":"Addition","latitude":51.483113,"longitude":-0.641838,"postcodeStart":"SL4 5","postcode":["SL4","5PF"]}
{"price":96500,"dateOfTransfer":"1995-11-20T00:00:00","postcodeFull":"SL4 5DU","propertyType":"Terraced","oldOrNew":"Established","duration":"Freehold","paon":"156","saon":"","street":"OXFORD ROAD","locality":"WINDSOR","townOrCity":"WINDSOR","district":"WINDSOR AND MAIDENHEAD","county":"WINDSOR AND MAIDENHEAD","ppdCategoryType":"Standard","recordStatus":"Addition","latitude":51.482422,"longitude":-0.617333,"postcodeStart":"SL4 5","postcode":["SL4","5DU"]}
{"price":97000,"dateOfTransfer":"1995-04-20T00:00:00","postcodeFull":"SL4 5BP","propertyType":"Terraced","oldOrNew":"Established","duration":"Freehold","paon":"24","saon":"","street":"BEXLEY STREET","locality":"WINDSOR","townOrCity":"WINDSOR","district":"WINDSOR AND MAIDENHEAD","county":"WINDSOR AND MAIDENHEAD","ppdCategoryType":"Standard","recordStatus":"Addition","latitude":51.481464,"longitude":-0.617693,"postcodeStart":"SL4 5","postcode":["SL4","5BP"]}
{"price":85000,"dateOfTransfer":"1995-12-15T00:00:00","postcodeFull":"SL4 5SQ","propertyType":"Detached","oldOrNew":"Established","duration":"Freehold","paon":"4","saon":"","street":"RUDDLESWAY","locality":"WINDSOR","townOrCity":"WINDSOR","district":"WINDSOR AND MAIDENHEAD","county":"WINDSOR AND MAIDENHEAD","ppdCategoryType":"Standard","recordStatus":"Addition","latitude":51.482286,"longitude":-0.655069,"postcodeStart":"SL4 5","postcode":["SL4","5SQ"]}
{"price":85000,"dateOfTransfer":"1995-05-19T00:00:00","postcodeFull":"SL4 5JN","propertyType":"Semi-detached","oldOrNew":"Established","duration":"Freehold","paon":"108","saon":"","street":"VALE ROAD","locality":"WINDSOR","townOrCity":"WINDSOR","district":"WINDSOR AND MAIDENHEAD","county":"WINDSOR AND MAIDENHEAD","ppdCategoryType":"Standard","recordStatus":"Addition","latitude":51.48356,"longitude":-0.634638,"postcodeStart":"SL4 5","postcode":["SL4","5JN"]}
{"price":103000,"dateOfTransfer":"1995-06-21T00:00:00","postcodeFull":"SL4 5QU","propertyType":"Semi-detached","oldOrNew":"Established","duration":"Freehold","paon":"35","saon":"","street":"GALLYS ROAD","locality":"WINDSOR","townOrCity":"WINDSOR","district":"WINDSOR AND MAIDENHEAD","county":"WINDSOR AND MAIDENHEAD","ppdCategoryType":"Standard","recordStatus":"Addition","latitude":51.483071,"longitude":-0.647514,"postcodeStart":"SL4 5","postcode":["SL4","5QU"]}
{"price":44000,"dateOfTransfer":"1995-12-21T00:00:00","postcodeFull":"SL4 5HN","propertyType":"Flat/Maisonette/Townhouse","oldOrNew":"Established","duration":"Leasehold","paon":"WINWOOD","saon":"37","street":"SAWYERS CLOSE","locality":"WINDSOR","townOrCity":"WINDSOR","district":"WINDSOR AND MAIDENHEAD","county":"WINDSOR AND MAIDENHEAD","ppdCategoryType":"Standard","recordStatus":"Addition","latitude":51.483485,"longitude":-0.639767,"postcodeStart":"SL4 5","postcode":["SL4","5HN"]}
{"price":71500,"dateOfTransfer":"1995-06-16T00:00:00","postcodeFull":"SL4 5PQ","propertyType":"Terraced","oldOrNew":"Established","duration":"Freehold","paon":"21","saon":"","street":"ST GEORGES CLOSE","locality":"WINDSOR","townOrCity":"WINDSOR","district":"WINDSOR AND MAIDENHEAD","county":"WINDSOR AND MAIDENHEAD","ppdCategoryType":"Standard","recordStatus":"Addition","latitude":51.480051,"longitude":-0.642188,"postcodeStart":"SL4 5","postcode":["SL4","5PQ"]}
{"price":87500,"dateOfTransfer":"1995-03-21T00:00:00","postcodeFull":"SL4 5DU","propertyType":"Terraced","oldOrNew":"Established","duration":"Freehold","paon":"102","saon":"","street":"OXFORD ROAD","locality":"WINDSOR","townOrCity":"WINDSOR","district":"WINDSOR AND MAIDENHEAD","county":"WINDSOR AND MAIDENHEAD","ppdCategoryType":"Standard","recordStatus":"Addition","latitude":51.482422,"longitude":-0.617333,"postcodeStart":"SL4 5","postcode":["SL4","5DU"]}
{"price":67000,"dateOfTransfer":"1995-01-09T00:00:00","postcodeFull":"SL4 5EQ","propertyType":"Semi-detached","oldOrNew":"Established","duration":"Leasehold","paon":"4","saon":"MIDDLE FLAT","street":"MAIDENHEAD ROAD","locality":"WINDSOR","townOrCity":"WINDSOR","district":"WINDSOR AND MAIDENHEAD","county":"WINDSOR AND MAIDENHEAD","ppdCategoryType":"Standard","recordStatus":"Addition","latitude":51.483405,"longitude":-0.62063,"postcodeStart":"SL4 5","postcode":["SL4","5EQ"]}
{"price":128000,"dateOfTransfer":"1995-10-06T00:00:00","postcodeFull":"SL4 5ES","propertyType":"Semi-detached","oldOrNew":"Established","duration":"Freehold","paon":"16","saon":"","street":"HASLEMERE ROAD","locality":"WINDSOR","townOrCity":"WINDSOR","district":"WINDSOR AND MAIDENHEAD","county":"WINDSOR AND MAIDENHEAD","ppdCategoryType":"Standard","recordStatus":"Addition","latitude":51.480696,"longitude":-0.630375,"postcodeStart":"SL4 5","postcode":["SL4","5ES"]}
{"price":120000,"dateOfTransfer":"1995-05-01T00:00:00","postcodeFull":"SL4 5RN","propertyType":"Semi-detached","oldOrNew":"Established","duration":"Freehold","paon":"10","saon":"","street":"ANDERMANS","locality":"WINDSOR","townOrCity":"WINDSOR","district":"WINDSOR AND MAIDENHEAD","county":"WINDSOR AND MAIDENHEAD","ppdCategoryType":"Standard","recordStatus":"Addition","latitude":51.481718,"longitude":-0.649526,"postcodeStart":"SL4 5","postcode":["SL4","5RN"]}
{"price":96950,"dateOfTransfer":"1995-04-27T00:00:00","postcodeFull":"SL4 5BP","propertyType":"Terraced","oldOrNew":"Established","duration":"Freehold","paon":"25","saon":"","street":"BEXLEY STREET","locality":"WINDSOR","townOrCity":"WINDSOR","district":"WINDSOR AND MAIDENHEAD","county":"WINDSOR AND MAIDENHEAD","ppdCategoryType":"Standard","recordStatus":"Addition","latitude":51.481464,"longitude":-0.617693,"postcodeStart":"SL4 5","postcode":["SL4","5BP"]}
{"price":85500,"dateOfTransfer":"1995-09-01T00:00:00","postcodeFull":"SL4 5RF","propertyType":"Terraced","oldOrNew":"Established","duration":"Freehold","paon":"68","saon":"","street":"PIERSON ROAD","locality":"WINDSOR","townOrCity":"WINDSOR","district":"WINDSOR AND MAIDENHEAD","county":"WINDSOR AND MAIDENHEAD","ppdCategoryType":"Standard","recordStatus":"Addition","latitude":51.478939,"longitude":-0.651005,"postcodeStart":"SL4 5","postcode":["SL4","5RF"]}
{"price":122000,"dateOfTransfer":"1995-09-15T00:00:00","postcodeFull":"SL4 5DD","propertyType":"Semi-detached","oldOrNew":"Established","duration":"Freehold","paon":"85","saon":"","street":"VANSITTART ROAD","locality":"WINDSOR","townOrCity":"WINDSOR","district":"WINDSOR AND MAIDENHEAD","county":"WINDSOR AND MAIDENHEAD","ppdCategoryType":"Standard","recordStatus":"Addition","latitude":51.481965,"longitude":-0.619766,"postcodeStart":"SL4 5","postcode":["SL4","5DD"]}
{"price":36000,"dateOfTransfer":"1995-05-26T00:00:00","postcodeFull":"SL4 5NG","propertyType":"Semi-detached","oldOrNew":"Established","duration":"Leasehold","paon":"4A","saon":"","street":"SURLY HALL WALK","locality":"WINDSOR","townOrCity":"WINDSOR","district":"WINDSOR AND MAIDENHEAD","county":"WINDSOR AND MAIDENHEAD","ppdCategoryType":"Standard","recordStatus":"Addition","latitude":51.48112,"longitude":-0.638959,"postcodeStart":"SL4 5","postcode":["SL4","5NG"]}
{"price":850000,"dateOfTransfer":"1995-11-15T00:00:00","postcodeFull":"SL4 5JQ","propertyType":"Detached","oldOrNew":"Established","duration":"Freehold","paon":"CAINES HOUSE","saon":"","street":"MILL LANE","locality":"WINDSOR","townOrCity":"WINDSOR","district":"WINDSOR AND MAIDENHEAD","county":"WINDSOR AND MAIDENHEAD","ppdCategoryType":"Standard","recordStatus":"Addition","latitude":51.486159,"longitude":-0.626942,"postcodeStart":"SL4 5","postcode":["SL4","5JQ"]}
{"price":51500,"dateOfTransfer":"1995-03-17T00:00:00","postcodeFull":"SL4 5NF","propertyType":"Flat/Maisonette/Townhouse","oldOrNew":"Established","duration":"Leasehold","paon":"DEDWORTH MANOR","saon":"3","street":"THAMES MEAD","locality":"WINDSOR","townOrCity":"WINDSOR","district":"WINDSOR AND MAIDENHEAD","county":"WINDSOR AND MAIDENHEAD","ppdCategoryType":"Standard","recordStatus":"Addition","latitude":51.482902,"longitude":-0.639871,"postcodeStart":"SL4 5","postcode":["SL4","5NF"]}
{"price":93500,"dateOfTransfer":"1995-02-24T00:00:00","postcodeFull":"SL4 5SL","propertyType":"Semi-detached","oldOrNew":"Established","duration":"Freehold","paon":"12","saon":"","street":"HOLLY CRESCENT","locality":"WINDSOR","townOrCity":"WINDSOR","district":"WINDSOR AND MAIDENHEAD","county":"WINDSOR AND MAIDENHEAD","ppdCategoryType":"Standard","recordStatus":"Addition","latitude":51.479396,"longitude":-0.652461,"postcodeStart":"SL4 5","postcode":["SL4","5SL"]}
{"price":170000,"dateOfTransfer":"1995-10-02T00:00:00","postcodeFull":"SL4 5SE","propertyType":"Detached","oldOrNew":"Established","duration":"Freehold","paon":"345","saon":"","street":"MAIDENHEAD ROAD","locality":"WINDSOR","townOrCity":"WINDSOR","district":"WINDSOR AND MAIDENHEAD","county":"WINDSOR AND MAIDENHEAD","ppdCategoryType":"Standard","recordStatus":"Addition","latitude":51.484366,"longitude":-0.650658,"postcodeStart":"SL4 5","postcode":["SL4","5SE"]}
{"price":33000,"dateOfTransfer":"1995-04-11T00:00:00","postcodeFull":"SL4 5BD","propertyType":"Flat/Maisonette/Townhouse","oldOrNew":"Established","duration":"Leasehold","paon":"122A","saon":"","street":"DEDWORTH ROAD","locality":"WINDSOR","townOrCity":"WINDSOR","district":"WINDSOR AND MAIDENHEAD","county":"WINDSOR AND MAIDENHEAD","ppdCategoryType":"Standard","recordStatus":"Addition","latitude":51.478616,"longitude":-0.637119,"postcodeStart":"SL4 5","postcode":["SL4","5BD"]}
{"price":95000,"dateOfTransfer":"1995-10-16T00:00:00","postcodeFull":"SL4 5RJ","propertyType":"Semi-detached","oldOrNew":"Established","duration":"Freehold","paon":"19","saon":"","street":"PIERSON ROAD","locality":"WINDSOR","townOrCity":"WINDSOR","district":"WINDSOR AND MAIDENHEAD","county":"WINDSOR AND MAIDENHEAD","ppdCategoryType":"Standard","recordStatus":"Addition","latitude":51.481247,"longitude":-0.65003,"postcodeStart":"SL4 5","postcode":["SL4","5RJ"]}
{"price":122000,"dateOfTransfer":"1995-01-17T00:00:00","postcodeFull":"SL4 5QD","propertyType":"Semi-detached","oldOrNew":"Established","duration":"Freehold","paon":"13","saon":"","street":"NEEDHAM CLOSE","locality":"WINDSOR","townOrCity":"WINDSOR","district":"WINDSOR AND MAIDENHEAD","county":"WINDSOR AND MAIDENHEAD","ppdCategoryType":"Standard","recordStatus":"Addition","latitude":51.48238,"longitude":-0.644553,"postcodeStart":"SL4 5","postcode":["SL4","5QD"]}
{"price":113000,"dateOfTransfer":"1995-07-18T00:00:00","postcodeFull":"SL4 5SP","propertyType":"Terraced","oldOrNew":"Established","duration":"Freehold","paon":"1","saon":"","street":"MARTIN CLOSE","locality":"WINDSOR","townOrCity":"WINDSOR","district":"WINDSOR AND MAIDENHEAD","county":"WINDSOR AND MAIDENHEAD","ppdCategoryType":"Standard","recordStatus":"Addition","latitude":51.480303,"longitude":-0.654724,"postcodeStart":"SL4 5","postcode":["SL4","5SP"]}
{"price":87650,"dateOfTransfer":"1995-07-18T00:00:00","postcodeFull":"SL4 5ST","propertyType":"Semi-detached","oldOrNew":"Established","duration":"Freehold","paon":"31","saon":"","street":"REDFORD ROAD","locality":"WINDSOR","townOrCity":"WINDSOR","district":"WINDSOR AND MAIDENHEAD","county":"WINDSOR AND MAIDENHEAD","ppdCategoryType":"Standard","recordStatus":"Addition","latitude":51.482978,"longitude":-0.652715,"postcodeStart":"SL4 5","postcode":["SL4","5ST"]}
{"price":65000,"dateOfTransfer":"1995-07-31T00:00:00","postcodeFull":"SL4 5NB","propertyType":"Flat/Maisonette/Townhouse","oldOrNew":"Established","duration":"Leasehold","paon":"12A","saon":"","street":"HARCOURT ROAD","locality":"WINDSOR","townOrCity":"WINDSOR","district":"WINDSOR AND MAIDENHEAD","county":"WINDSOR AND MAIDENHEAD","ppdCategoryType":"Standard","recordStatus":"Addition","latitude":51.482299,"longitude":-0.640652,"postcodeStart":"SL4 5","postcode":["SL4","5NB"]}
{"price":62500,"dateOfTransfer":"1995-04-24T00:00:00","postcodeFull":"SL4 5LD","propertyType":"Semi-detached","oldOrNew":"Established","duration":"Freehold","paon":"44","saon":"","street":"EAST CRESCENT","locality":"WINDSOR","townOrCity":"WINDSOR","district":"WINDSOR AND MAIDENHEAD","county":"WINDSOR AND MAIDENHEAD","ppdCategoryType":"Standard","recordStatus":"Addition","latitude":51.480439,"longitude":-0.633781,"postcodeStart":"SL4 5","postcode":["SL4","5LD"]}
{"price":110000,"dateOfTransfer":"1995-10-05T00:00:00","postcodeFull":"SL4 5EU","propertyType":"Terraced","oldOrNew":"Established","duration":"Freehold","paon":"21","saon":"","street":"OAK LANE","locality":"WINDSOR","townOrCity":"WINDSOR","district":"WINDSOR AND MAIDENHEAD","county":"WINDSOR AND MAIDENHEAD","ppdCategoryType":"Standard","recordStatus":"Addition","latitude":51.479755,"longitude":-0.630529,"postcodeStart":"SL4 5","postcode":["SL4","5EU"]}
{"price":110000,"dateOfTransfer":"1995-07-26T00:00:00","postcodeFull":"SL4 5PZ","propertyType":"Semi-detached","oldOrNew":"Established","duration":"Freehold","paon":"55","saon":"","street":"LONGMEAD","locality":"WINDSOR","townOrCity":"WINDSOR","district":"WINDSOR AND MAIDENHEAD","county":"WINDSOR AND MAIDENHEAD","ppdCategoryType":"Standard","recordStatus":"Addition","latitude":51.482098,"longitude":-0.646549,"postcodeStart":"SL4 5","postcode":["SL4","5PZ"]}
{"price":75000,"dateOfTransfer":"1995-02-27T00:00:00","postcodeFull":"SL4 5LA","propertyType":"Terraced","oldOrNew":"Established","duration":"Freehold","paon":"48","saon":"","street":"VALE ROAD","locality":"WINDSOR","townOrCity":"WINDSOR","district":"WINDSOR AND MAIDENHEAD","county":"WINDSOR AND MAIDENHEAD","ppdCategoryType":"Standard","recordStatus":"Addition","latitude":51.481297,"longitude":-0.634907,"postcodeStart":"SL4 5","postcode":["SL4","5LA"]}
{"price":75050,"dateOfTransfer":"1995-02-01T00:00:00","postcodeFull":"SL4 5LE","propertyType":"Semi-detached","oldOrNew":"Established","duration":"Freehold","paon":"37","saon":"","street":"WEST CRESCENT","locality":"WINDSOR","townOrCity":"WINDSOR","district":"WINDSOR AND MAIDENHEAD","county":"WINDSOR AND MAIDENHEAD","ppdCategoryType":"Standard","recordStatus":"Addition","latitude":51.480204,"longitude":-0.63602,"postcodeStart":"SL4 5","postcode":["SL4","5LE"]}
{"price":86000,"dateOfTransfer":"1995-09-20T00:00:00","postcodeFull":"SL4 5HF","propertyType":"Terraced","oldOrNew":"Established","duration":"Freehold","paon":"263","saon":"","street":"MAIDENHEAD ROAD","locality":"WINDSOR","townOrCity":"WINDSOR","district":"WINDSOR AND MAIDENHEAD","county":"WINDSOR AND MAIDENHEAD","ppdCategoryType":"Standard","recordStatus":"Addition","latitude":51.484871,"longitude":-0.635996,"postcodeStart":"SL4 5","postcode":["SL4","5HF"]}
{"price":68000,"dateOfTransfer":"1995-06-30T00:00:00","postcodeFull":"SL4 5DX","propertyType":"Terraced","oldOrNew":"Established","duration":"Freehold","paon":"165","saon":"","street":"OXFORD ROAD","locality":"WINDSOR","townOrCity":"WINDSOR","district":"WINDSOR AND MAIDENHEAD","county":"WINDSOR AND MAIDENHEAD","ppdCategoryType":"Standard","recordStatus":"Addition","latitude":51.482205,"longitude":-0.617196,"postcodeStart":"SL4 5","postcode":["SL4","5DX"]}
{"price":83000,"dateOfTransfer":"1995-03-24T00:00:00","postcodeFull":"SL4 5DX","propertyType":"Terraced","oldOrNew":"Established","duration":"Freehold","paon":"103","saon":"","street":"OXFORD ROAD","locality":"WINDSOR","townOrCity":"WINDSOR","district":"WINDSOR AND MAIDENHEAD","county":"WINDSOR AND MAIDENHEAD","ppdCategoryType":"Standard","recordStatus":"Addition","latitude":51.482205,"longitude":-0.617196,"postcodeStart":"SL4 5","postcode":["SL4","5DX"]}
{"price":114000,"dateOfTransfer":"1995-09-29T00:00:00","postcodeFull":"SL4 5RH","propertyType":"Semi-detached","oldOrNew":"Established","duration":"Freehold","paon":"6","saon":"","street":"KINGSFIELD","locality":"WINDSOR","townOrCity":"WINDSOR","district":"WINDSOR AND MAIDENHEAD","county":"WINDSOR AND MAIDENHEAD","ppdCategoryType":"Standard","recordStatus":"Addition","latitude":51.480284,"longitude":-0.649871,"postcodeStart":"SL4 5","postcode":["SL4","5RH"]}
{"price":83000,"dateOfTransfer":"1995-12-18T00:00:00","postcodeFull":"SL4 5JT","propertyType":"Semi-detached","oldOrNew":"Established","duration":"Freehold","paon":"23","saon":"","street":"BUCKLAND CRESCENT","locality":"WINDSOR","townOrCity":"WINDSOR","district":"WINDSOR AND MAIDENHEAD","county":"WINDSOR AND MAIDENHEAD","ppdCategoryType":"Standard","recordStatus":"Addition","latitude":51.483496,"longitude":-0.636109,"postcodeStart":"SL4 5","postcode":["SL4","5JT"]}
{"price":57000,"dateOfTransfer":"1995-07-28T00:00:00","postcodeFull":"SL4 5BY","propertyType":"Terraced","oldOrNew":"Established","duration":"Freehold","paon":"44","saon":"","street":"VANSITTART ROAD","locality":"WINDSOR","townOrCity":"WINDSOR","district":"WINDSOR AND MAIDENHEAD","county":"WINDSOR AND MAIDENHEAD","ppdCategoryType":"Standard","recordStatus":"Addition","latitude":51.483859,"longitude":-0.619435,"postcodeStart":"SL4 5","postcode":["SL4","5BY"]}
{"price":81500,"dateOfTransfer":"1995-01-25T00:00:00","postcodeFull":"SL4 5AY","propertyType":"Terraced","oldOrNew":"Established","duration":"Freehold","paon":"60","saon":"","street":"DEDWORTH ROAD","locality":"WINDSOR","townOrCity":"WINDSOR","district":"WINDSOR AND MAIDENHEAD","county":"WINDSOR AND MAIDENHEAD","ppdCategoryType":"Standard","recordStatus":"Addition","latitude":51.479304,"longitude":-0.631641,"postcodeStart":"SL4 5","postcode":["SL4","5AY"]}
{"price":102500,"dateOfTransfer":"1995-05-31T00:00:00","postcodeFull":"SL4 5BP","propertyType":"Terraced","oldOrNew":"Established","duration":"Freehold","paon":"21","saon":"","street":"BEXLEY STREET","locality":"WINDSOR","townOrCity":"WINDSOR","district":"WINDSOR AND MAIDENHEAD","county":"WINDSOR AND MAIDENHEAD","ppdCategoryType":"Standard","recordStatus":"Addition","latitude":51.481464,"longitude":-0.617693,"postcodeStart":"SL4 5","postcode":["SL4","5BP"]}
{"price":76000,"dateOfTransfer":"1995-09-29T00:00:00","postcodeFull":"SL4 5RE","propertyType":"Terraced","oldOrNew":"Established","duration":"Freehold","paon":"37","saon":"","street":"PIERSON ROAD","locality":"WINDSOR","townOrCity":"WINDSOR","district":"WINDSOR AND MAIDENHEAD","county":"WINDSOR AND MAIDENHEAD","ppdCategoryType":"Standard","recordStatus":"Addition","latitude":51.479284,"longitude":-0.650506,"postcodeStart":"SL4 5","postcode":["SL4","5RE"]}
{"price":60000,"dateOfTransfer":"1995-07-07T00:00:00","postcodeFull":"SL4 5DJ","propertyType":"Flat/Maisonette/Townhouse","oldOrNew":"Established","duration":"Leasehold","paon":"CHILTERN COURT","saon":"12","street":"FAWCETT ROAD","locality":"WINDSOR","townOrCity":"WINDSOR","district":"WINDSOR AND MAIDENHEAD","county":"WINDSOR AND MAIDENHEAD","ppdCategoryType":"Standard","recordStatus":"Addition","latitude":51.479609,"longitude":-0.620456,"postcodeStart":"SL4 5","postcode":["SL4","5DJ"]}
{"price":125000,"dateOfTransfer":"1995-08-18T00:00:00","postcodeFull":"SL4 5AX","propertyType":"Semi-detached","oldOrNew":"Established","duration":"Freehold","paon":"31","saon":"","street":"CLARENCE ROAD","locality":"WINDSOR","townOrCity":"WINDSOR","district":"WINDSOR AND MAIDENHEAD","county":"WINDSOR AND MAIDENHEAD","ppdCategoryType":"Standard","recordStatus":"Addition","latitude":51.480564,"longitude":-0.617576,"postcodeStart":"SL4 5","postcode":["SL4","5AX"]}
{"price":100000,"dateOfTransfer":"1995-09-29T00:00:00","postcodeFull":"SL4 5AY","propertyType":"Terraced","oldOrNew":"Established","duration":"Freehold","paon":"48","saon":"","street":"DEDWORTH ROAD","locality":"WINDSOR","townOrCity":"WINDSOR","district":"WINDSOR AND MAIDENHEAD","county":"WINDSOR AND MAIDENHEAD","ppdCategoryType":"Standard","recordStatus":"Addition","latitude":51.479304,"longitude":-0.631641,"postcodeStart":"SL4 5","postcode":["SL4","5AY"]}
{"price":92500,"dateOfTransfer":"1995-02-10T00:00:00","postcodeFull":"SL4 5RT","propertyType":"Semi-detached","oldOrNew":"Established","duration":"Freehold","paon":"30","saon":"","street":"BIRCH GROVE","locality":"WINDSOR","townOrCity":"WINDSOR","district":"WINDSOR AND MAIDENHEAD","county":"WINDSOR AND MAIDENHEAD","ppdCategoryType":"Standard","recordStatus":"Addition","latitude":51.481044,"longitude":-0.6527,"postcodeStart":"SL4 5","postcode":["SL4","5RT"]}
{"price":69000,"dateOfTransfer":"1995-06-28T00:00:00","postcodeFull":"SL4 5BW","propertyType":"Terraced","oldOrNew":"Established","duration":"Freehold","paon":"10","saon":"","street":"CLEWER FIELDS","locality":"WINDSOR","townOrCity":"WINDSOR","district":"WINDSOR AND MAIDENHEAD","county":"WINDSOR AND MAIDENHEAD","ppdCategoryType":"Standard","recordStatus":"Addition","latitude":51.481915,"longitude":-0.617017,"postcodeStart":"SL4 5","postcode":["SL4","5BW"]}
{"price":53500,"dateOfTransfer":"1995-03-03T00:00:00","postcodeFull":"SL4 5HF","propertyType":"Terraced","oldOrNew":"Established","duration":"Freehold","paon":"263","saon":"","street":"MAIDENHEAD ROAD","locality":"WINDSOR","townOrCity":"WINDSOR","district":"WINDSOR AND MAIDENHEAD","county":"WINDSOR AND MAIDENHEAD","ppdCategoryType":"Standard","recordStatus":"Addition","latitude":51.484871,"longitude":-0.635996,"postcodeStart":"SL4 5","postcode":["SL4","5HF"]}
{"price":88000,"dateOfTransfer":"1995-08-23T00:00:00","postcodeFull":"SL4 5RS","propertyType":"Terraced","oldOrNew":"Established","duration":"Freehold","paon":"9","saon":"","street":"COPPER BEECH CLOSE","locality":"WINDSOR","townOrCity":"WINDSOR","district":"WINDSOR AND MAIDENHEAD","county":"WINDSOR AND MAIDENHEAD","ppdCategoryType":"Standard","recordStatus":"Addition","latitude":51.481181,"longitude":-0.653661,"postcodeStart":"SL4 5","postcode":["SL4","5RS"]}
{"price":49000,"dateOfTransfer":"1995-08-30T00:00:00","postcodeFull":"SL4 5BQ","propertyType":"Flat/Maisonette/Townhouse","oldOrNew":"Established","duration":"Leasehold","paon":"ST CATHERINES COURT","saon":"FLAT 5","street":"CLARENCE ROAD","locality":"WINDSOR","townOrCity":"WINDSOR","district":"WINDSOR AND MAIDENHEAD","county":"WINDSOR AND MAIDENHEAD","ppdCategoryType":"Standard","recordStatus":"Addition","latitude":51.479312,"longitude":-0.628918,"postcodeStart":"SL4 5","postcode":["SL4","5BQ"]}
{"price":108000,"dateOfTransfer":"1995-07-07T00:00:00","postcodeFull":"SL4 5DX","propertyType":"Terraced","oldOrNew":"Established","duration":"Freehold","paon":"153","saon":"","street":"OXFORD ROAD","locality":"WINDSOR","townOrCity":"WINDSOR","district":"WINDSOR AND MAIDENHEAD","county":"WINDSOR AND MAIDENHEAD","ppdCategoryType":"Standard","recordStatus":"Addition","latitude":51.482205,"longitude":-0.617196,"postcodeStart":"SL4 5","postcode":["SL4","5DX"]}
{"price":86500,"dateOfTransfer":"1995-09-29T00:00:00","postcodeFull":"SL4 5ST","propertyType":"Semi-detached","oldOrNew":"Established","duration":"Freehold","paon":"3","saon":"","street":"REDFORD ROAD","locality":"WINDSOR","townOrCity":"WINDSOR","district":"WINDSOR AND MAIDENHEAD","county":"WINDSOR AND MAIDENHEAD","ppdCategoryType":"Standard","recordStatus":"Addition","latitude":51.482978,"longitude":-0.652715,"postcodeStart":"SL4 5","postcode":["SL4","5ST"]}
{"price":68000,"dateOfTransfer":"1995-09-29T00:00:00","postcodeFull":"SL4 5EQ","propertyType":"Flat/Maisonette/Townhouse","oldOrNew":"Established","duration":"Leasehold","paon":"8","saon":"","street":"MAIDENHEAD ROAD","locality":"WINDSOR","townOrCity":"WINDSOR","district":"WINDSOR AND MAIDENHEAD","county":"WINDSOR AND MAIDENHEAD","ppdCategoryType":"Standard","recordStatus":"Addition","latitude":51.483405,"longitude":-0.62063,"postcodeStart":"SL4 5","postcode":["SL4","5EQ"]}
{"price":67000,"dateOfTransfer":"1995-02-24T00:00:00","postcodeFull":"SL4 5DU","propertyType":"Terraced","oldOrNew":"Established","duration":"Freehold","paon":"198","saon":"","street":"OXFORD ROAD","locality":"WINDSOR","townOrCity":"WINDSOR","district":"WINDSOR AND MAIDENHEAD","county":"WINDSOR AND MAIDENHEAD","ppdCategoryType":"Standard","recordStatus":"Addition","latitude":51.482422,"longitude":-0.617333,"postcodeStart":"SL4 5","postcode":["SL4","5DU"]}
{"price":71500,"dateOfTransfer":"1995-08-15T00:00:00","postcodeFull":"SL4 5JS","propertyType":"Semi-detached","oldOrNew":"Established","duration":"Freehold","paon":"56","saon":"","street":"BUCKLAND CRESCENT","locality":"WINDSOR","townOrCity":"WINDSOR","district":"WINDSOR AND MAIDENHEAD","county":"WINDSOR AND MAIDENHEAD","ppdCategoryType":"Standard","recordStatus":"Addition","latitude":51.483312,"longitude":-0.636518,"postcodeStart":"SL4 5","postcode":["SL4","5JS"]}
{"price":112000,"dateOfTransfer":"1995-09-18T00:00:00","postcodeFull":"SL4 5JQ","propertyType":"Semi-detached","oldOrNew":"Established","duration":"Freehold","paon":"51","saon":"","street":"MILL LANE","locality":"WINDSOR","townOrCity":"WINDSOR","district":"WINDSOR AND MAIDENHEAD","county":"WINDSOR AND MAIDENHEAD","ppdCategoryType":"Standard","recordStatus":"Addition","latitude":51.486159,"longitude":-0.626942,"postcodeStart":"SL4 5","postcode":["SL4","5JQ"]}
{"price":109950,"dateOfTransfer":"1995-07-28T00:00:00","postcodeFull":"SL4 5EZ","propertyType":"Semi-detached","oldOrNew":"Established","duration":"Freehold","paon":"139","saon":"","street":"MAIDENHEAD ROAD","locality":"WINDSOR","townOrCity":"WINDSOR","district":"WINDSOR AND MAIDENHEAD","county":"WINDSOR AND MAIDENHEAD","ppdCategoryType":"Standard","recordStatus":"Addition","latitude":51.484419,"longitude":-0.631963,"postcodeStart":"SL4 5","postcode":["SL4","5EZ"]}
{"price":84000,"dateOfTransfer":"1995-06-30T00:00:00","postcodeFull":"SL4 5BU","propertyType":"Terraced","oldOrNew":"Established","duration":"Freehold","paon":"80","saon":"","street":"ALBERT STREET","locality":"WINDSOR","townOrCity":"WINDSOR","district":"WINDSOR AND MAIDENHEAD","county":"WINDSOR AND MAIDENHEAD","ppdCategoryType":"Standard","recordStatus":"Addition","latitude":51.48128,"longitude":-0.62186,"postcodeStart":"SL4 5","postcode":["SL4","5BU"]}
{"price":118500,"dateOfTransfer":"1995-01-12T00:00:00","postcodeFull":"SL4 5SN","propertyType":"Detached","oldOrNew":"Established","duration":"Freehold","paon":"18","saon":"","street":"NEWBERRY CRESCENT","locality":"WINDSOR","townOrCity":"WINDSOR","district":"WINDSOR AND MAIDENHEAD","county":"WINDSOR AND MAIDENHEAD","ppdCategoryType":"Standard","recordStatus":"Addition","latitude":51.479251,"longitude":-0.654697,"postcodeStart":"SL4 5","postcode":["SL4","5SN"]}
{"price":91500,"dateOfTransfer":"1995-04-13T00:00:00","postcodeFull":"SL4 5NB","propertyType":"Semi-detached","oldOrNew":"Established","duration":"Freehold","paon":"26","saon":"","street":"HARCOURT ROAD","locality":"WINDSOR","townOrCity":"WINDSOR","district":"WINDSOR AND MAIDENHEAD","county":"WINDSOR AND MAIDENHEAD","ppdCategoryType":"Standard","recordStatus":"Addition","latitude":51.482299,"longitude":-0.640652,"postcodeStart":"SL4 5","postcode":["SL4","5NB"]}
{"price":105050,"dateOfTransfer":"1995-11-03T00:00:00","postcodeFull":"SL4 5BX","propertyType":"Terraced","oldOrNew":"Established","duration":"Freehold","paon":"93","saon":"","street":"BEXLEY STREET","locality":"WINDSOR","townOrCity":"WINDSOR","district":"WINDSOR AND MAIDENHEAD","county":"WINDSOR AND MAIDENHEAD","ppdCategoryType":"Standard","recordStatus":"Addition","latitude":51.481222,"longitude":-0.617729,"postcodeStart":"SL4 5","postcode":["SL4","5BX"]}
{"price":94950,"dateOfTransfer":"1995-07-27T00:00:00","postcodeFull":"SL4 5HS","propertyType":"Terraced","oldOrNew":"Established","duration":"Freehold","paon":"PETWORTH COURT","saon":"5","street":"HELSTON LANE","locality":"WINDSOR","townOrCity":"WINDSOR","district":"WINDSOR AND MAIDENHEAD","county":"WINDSOR AND MAIDENHEAD","ppdCategoryType":"Standard","recordStatus":"Addition","latitude":51.480938,"longitude":-0.625673,"postcodeStart":"SL4 5","postcode":["SL4","5HS"]}
{"price":93000,"dateOfTransfer":"1995-03-10T00:00:00","postcodeFull":"SL4 5HS","propertyType":"Terraced","oldOrNew":"Established","duration":"Freehold","paon":"PETWORTH COURT","saon":"17","street":"HELSTON LANE","locality":"WINDSOR","townOrCity":"WINDSOR","district":"WINDSOR AND MAIDENHEAD","county":"WINDSOR AND MAIDENHEAD","ppdCategoryType":"Standard","recordStatus":"Addition","latitude":51.480938,"longitude":-0.625673,"postcodeStart":"SL4 5","postcode":["SL4","5HS"]}
{"price":63000,"dateOfTransfer":"1995-05-12T00:00:00","postcodeFull":"SL4 5JS","propertyType":"Semi-detached","oldOrNew":"Established","duration":"Freehold","paon":"50","saon":"","street":"BUCKLAND CRESCENT","locality":"WINDSOR","townOrCity":"WINDSOR","district":"WINDSOR AND MAIDENHEAD","county":"WINDSOR AND MAIDENHEAD","ppdCategoryType":"Standard","recordStatus":"Addition","latitude":51.483312,"longitude":-0.636518,"postcodeStart":"SL4 5","postcode":["SL4","5JS"]}
{"price":86500,"dateOfTransfer":"1995-07-28T00:00:00","postcodeFull":"SL4 5HF","propertyType":"Terraced","oldOrNew":"Established","duration":"Freehold","paon":"259","saon":"","street":"MAIDENHEAD ROAD","locality":"WINDSOR","townOrCity":"WINDSOR","district":"WINDSOR AND MAIDENHEAD","county":"WINDSOR AND MAIDENHEAD","ppdCategoryType":"Standard","recordStatus":"Addition","latitude":51.484871,"longitude":-0.635996,"postcodeStart":"SL4 5","postcode":["SL4","5HF"]}
{"price":120000,"dateOfTransfer":"1995-04-03T00:00:00","postcodeFull":"SL4 5RW","propertyType":"Semi-detached","oldOrNew":"Established","duration":"Freehold","paon":"44","saon":"","street":"TESTWOOD ROAD","locality":"WINDSOR","townOrCity":"WINDSOR","district":"WINDSOR AND MAIDENHEAD","county":"WINDSOR AND MAIDENHEAD","ppdCategoryType":"Standard","recordStatus":"Addition","latitude":51.482143,"longitude":-0.650479,"postcodeStart":"SL4 5","postcode":["SL4","5RW"]}
{"price":130000,"dateOfTransfer":"1995-06-30T00:00:00","postcodeFull":"SL4 5ER","propertyType":"Terraced","oldOrNew":"Established","duration":"Freehold","paon":"2","saon":"","street":"RECTORY CLOSE","locality":"WINDSOR","townOrCity":"WINDSOR","district":"WINDSOR AND MAIDENHEAD","county":"WINDSOR AND MAIDENHEAD","ppdCategoryType":"Standard","recordStatus":"Addition","latitude":51.481478,"longitude":-0.626492,"postcodeStart":"SL4 5","postcode":["SL4","5ER"]}
{"price":91000,"dateOfTransfer":"1995-11-17T00:00:00","postcodeFull":"SL4 5EU","propertyType":"Terraced","oldOrNew":"Established","duration":"Freehold","paon":"15","saon":"","street":"OAK LANE","locality":"WINDSOR","townOrCity":"WINDSOR","district":"WINDSOR AND MAIDENHEAD","county":"WINDSOR AND MAIDENHEAD","ppdCategoryType":"Standard","recordStatus":"Addition","latitude":51.479755,"longitude":-0.630529,"postcodeStart":"SL4 5","postcode":["SL4","5EU"]}
{"price":52500,"dateOfTransfer":"1995-11-24T00:00:00","postcodeFull":"SL4 5AQ","propertyType":"Flat/Maisonette/Townhouse","oldOrNew":"Established","duration":"Leasehold","paon":"24","saon":"FLAT 2","street":"CLARENCE ROAD","locality":"WINDSOR","townOrCity":"WINDSOR","district":"WINDSOR AND MAIDENHEAD","county":"WINDSOR AND MAIDENHEAD","ppdCategoryType":"Standard","recordStatus":"Addition","latitude":51.480141,"longitude":-0.615299,"postcodeStart":"SL4 5","postcode":["SL4","5AQ"]}
{"price":75000,"dateOfTransfer":"1995-12-07T00:00:00","postcodeFull":"SL4 5DX","propertyType":"Semi-detached","oldOrNew":"Established","duration":"Freehold","paon":"179","saon":"","street":"OXFORD ROAD","locality":"WINDSOR","townOrCity":"WINDSOR","district":"WINDSOR AND MAIDENHEAD","county":"WINDSOR AND MAIDENHEAD","ppdCategoryType":"Standard","recordStatus":"Addition","latitude":51.482205,"longitude":-0.617196,"postcodeStart":"SL4 5","postcode":["SL4","5DX"]}
{"price":72000,"dateOfTransfer":"1995-06-21T00:00:00","postcodeFull":"SL4 5BT","propertyType":"Terraced","oldOrNew":"Established","duration":"Freehold","paon":"7","saon":"","street":"ALBERT STREET","locality":"WINDSOR","townOrCity":"WINDSOR","district":"WINDSOR AND MAIDENHEAD","county":"WINDSOR AND MAIDENHEAD","ppdCategoryType":"Standard","recordStatus":"Addition","latitude":51.481118,"longitude":-0.621102,"postcodeStart":"SL4 5","postcode":["SL4","5BT"]}
{"price":70500,"dateOfTransfer":"1995-02-24T00:00:00","postcodeFull":"SL4 5LD","propertyType":"Semi-detached","oldOrNew":"Established","duration":"Freehold","paon":"7","saon":"","street":"EAST CRESCENT","locality":"WINDSOR","townOrCity":"WINDSOR","district":"WINDSOR AND MAIDENHEAD","county":"WINDSOR AND MAIDENHEAD","ppdCategoryType":"Standard","recordStatus":"Addition","latitude":51.480439,"longitude":-0.633781,"postcodeStart":"SL4 5","postcode":["SL4","5LD"]}
{"price":73500,"dateOfTransfer":"1995-07-31T00:00:00","postcodeFull":"SL4 5EZ","propertyType":"Terraced","oldOrNew":"Established","duration":"Freehold","paon":"199","saon":"","street":"MAIDENHEAD ROAD","locality":"WINDSOR","townOrCity":"WINDSOR","district":"WINDSOR AND MAIDENHEAD","county":"WINDSOR AND MAIDENHEAD","ppdCategoryType":"Standard","recordStatus":"Addition","latitude":51.484419,"longitude":-0.631963,"postcodeStart":"SL4 5","postcode":["SL4","5EZ"]}
{"price":88750,"dateOfTransfer":"1995-12-21T00:00:00","postcodeFull":"SL4 5LG","propertyType":"Semi-detached","oldOrNew":"Established","duration":"Freehold","paon":"20","saon":"","street":"STEPHENSON DRIVE","locality":"WINDSOR","townOrCity":"WINDSOR","district":"WINDSOR AND MAIDENHEAD","county":"WINDSOR AND MAIDENHEAD","ppdCategoryType":"Standard","recordStatus":"Addition","latitude":51.484265,"longitude":-0.624924,"postcodeStart":"SL4 5","postcode":["SL4","5LG"]}
{"price":92000,"dateOfTransfer":"1995-05-31T00:00:00","postcodeFull":"SL4 5PP","propertyType":"Semi-detached","oldOrNew":"Established","duration":"Freehold","paon":"111","saon":"","street":"ASTON MEAD","locality":"WINDSOR","townOrCity":"WINDSOR","district":"WINDSOR AND MAIDENHEAD","county":"WINDSOR AND MAIDENHEAD","ppdCategoryType":"Standard","recordStatus":"Addition","latitude":51.48402,"longitude":-0.646186,"postcodeStart":"SL4 5","postcode":["SL4","5PP"]}
{"price":85000,"dateOfTransfer":"1995-04-20T00:00:00","postcodeFull":"SL4 5PG","propertyType":"Semi-detached","oldOrNew":"Established","duration":"Freehold","paon":"54","saon":"","street":"SMITHS LANE","locality":"WINDSOR","townOrCity":"WINDSOR","district":"WINDSOR AND MAIDENHEAD","county":"WINDSOR AND MAIDENHEAD","ppdCategoryType":"Standard","recordStatus":"Addition","latitude":51.482358,"longitude":-0.641685,"postcodeStart":"SL4 5","postcode":["SL4","5PG"]}
{"price":118500,"dateOfTransfer":"1995-08-25T00:00:00","postcodeFull":"SL4 5SN","propertyType":"Detached","oldOrNew":"Established","duration":"Freehold","paon":"5","saon":"","street":"NEWBERRY CRESCENT","locality":"WINDSOR","townOrCity":"WINDSOR","district":"WINDSOR AND MAIDENHEAD","county":"WINDSOR AND MAIDENHEAD","ppdCategoryType":"Standard","recordStatus":"Addition","latitude":51.479251,"longitude":-0.654697,"postcodeStart":"SL4 5","postcode":["SL4","5SN"]}
{"price":80500,"dateOfTransfer":"1995-07-20T00:00:00","postcodeFull":"SL4 5JS","propertyType":"Semi-detached","oldOrNew":"Established","duration":"Freehold","paon":"12","saon":"","street":"BUCKLAND CRESCENT","locality":"WINDSOR","townOrCity":"WINDSOR","district":"WINDSOR AND MAIDENHEAD","county":"WINDSOR AND MAIDENHEAD","ppdCategoryType":"Standard","recordStatus":"Addition","latitude":51.483312,"longitude":-0.636518,"postcodeStart":"SL4 5","postcode":["SL4","5JS"]}
{"price":68500,"dateOfTransfer":"1995-04-05T00:00:00","postcodeFull":"SL4 5BG","propertyType":"Flat/Maisonette/Townhouse","oldOrNew":"Established","duration":"Leasehold","paon":"MAYNARD COURT","saon":"FLAT 9","street":"CLARENCE ROAD","locality":"WINDSOR","townOrCity":"WINDSOR","district":"WINDSOR AND MAIDENHEAD","county":"WINDSOR AND MAIDENHEAD","ppdCategoryType":"Standard","recordStatus":"Addition","latitude":51.479752,"longitude":-0.627909,"postcodeStart":"SL4 5","postcode":["SL4","5BG"]}
{"price":85000,"dateOfTransfer":"1995-07-18T00:00:00","postcodeFull":"SL4 5PJ","propertyType":"Semi-detached","oldOrNew":"Established","duration":"Freehold","paon":"27","saon":"","street":"WHITELEY","locality":"WINDSOR","townOrCity":"WINDSOR","district":"WINDSOR AND MAIDENHEAD","county":"WINDSOR AND MAIDENHEAD","ppdCategoryType":"Standard","recordStatus":"Addition","latitude":51.484438,"longitude":-0.644463,"postcodeStart":"SL4 5","postcode":["SL4","5PJ"]}
{"price":45000,"dateOfTransfer":"1995-04-28T00:00:00","postcodeFull":"SL4 5JS","propertyType":"Semi-detached","oldOrNew":"Established","duration":"Freehold","paon":"72","saon":"","street":"BUCKLAND CRESCENT","locality":"WINDSOR","townOrCity":"WINDSOR","district":"WINDSOR AND MAIDENHEAD","county":"WINDSOR AND MAIDENHEAD","ppdCategoryType":"Standard","recordStatus":"Addition","latitude":51.483312,"longitude":-0.636518,"postcodeStart":"SL4 5","postcode":["SL4","5JS"]}
{"price":149950,"dateOfTransfer":"1995-10-23T00:00:00","postcodeFull":"SL4 5RD","propertyType":"Detached","oldOrNew":"Established","duration":"Freehold","paon":"9","saon":"","street":"BUTLERS CLOSE","locality":"WINDSOR","townOrCity":"WINDSOR","district":"WINDSOR AND MAIDENHEAD","county":"WINDSOR AND MAIDENHEAD","ppdCategoryType":"Standard","recordStatus":"Addition","latitude":51.479934,"longitude":-0.649939,"postcodeStart":"SL4 5","postcode":["SL4","5RD"]}
{"price":88000,"dateOfTransfer":"1995-02-10T00:00:00","postcodeFull":"SL4 5SF","propertyType":"Terraced","oldOrNew":"Established","duration":"Freehold","paon":"31","saon":"","street":"RUDDLESWAY","locality":"WINDSOR","townOrCity":"WINDSOR","district":"WINDSOR AND MAIDENHEAD","county":"WINDSOR AND MAIDENHEAD","ppdCategoryType":"Standard","recordStatus":"Addition","latitude":51.483224,"longitude":-0.653817,"postcodeStart":"SL4 5","postcode":["SL4","5SF"]}
{"price":75000,"dateOfTransfer":"1995-11-24T00:00:00","postcodeFull":"SL4 5PD","propertyType":"Semi-detached","oldOrNew":"Established","duration":"Freehold","paon":"8","saon":"","street":"SMITHS LANE","locality":"WINDSOR","townOrCity":"WINDSOR","district":"WINDSOR AND MAIDENHEAD","county":"WINDSOR AND MAIDENHEAD","ppdCategoryType":"Standard","recordStatus":"Addition","latitude":51.478249,"longitude":-0.644229,"postcodeStart":"SL4 5","postcode":["SL4","5PD"]}
{"price":75752,"dateOfTransfer":"1995-12-07T00:00:00","postcodeFull":"SL4 5BU","propertyType":"Terraced","oldOrNew":"Established","duration":"Freehold","paon":"14","saon":"","street":"ALBERT STREET","locality":"WINDSOR","townOrCity":"WINDSOR","district":"WINDSOR AND MAIDENHEAD","county":"WINDSOR AND MAIDENHEAD","ppdCategoryType":"Standard","recordStatus":"Addition","latitude":51.48128,"longitude":-0.62186,"postcodeStart":"SL4 5","postcode":["SL4","5BU"]}
{"price":80000,"dateOfTransfer":"1996-01-18T00:00:00","postcodeFull":"SL4 5RQ","propertyType":"Semi-detached","oldOrNew":"Established","duration":"Freehold","paon":"14","saon":"","street":"PIERSON ROAD","locality":"WINDSOR","townOrCity":"WINDSOR","district":"WINDSOR AND MAIDENHEAD","county":"WINDSOR AND MAIDENHEAD","ppdCategoryType":"Standard","recordStatus":"Addition","latitude":51.481135,"longitude":-0.650523,"postcodeStart":"SL4 5","postcode":["SL4","5RQ"]}
{"price":83500,"dateOfTransfer":"1996-09-04T00:00:00","postcodeFull":"SL4 5QR","propertyType":"Terraced","oldOrNew":"Established","duration":"Freehold","paon":"24","saon":"","street":"KNIGHTS CLOSE","locality":"WINDSOR","townOrCity":"WINDSOR","district":"WINDSOR AND MAIDENHEAD","county":"WINDSOR AND MAIDENHEAD","ppdCategoryType":"Standard","recordStatus":"Addition","latitude":51.480238,"longitude":-0.648231,"postcodeStart":"SL4 5","postcode":["SL4","5QR"]}
{"price":84950,"dateOfTransfer":"1996-01-16T00:00:00","postcodeFull":"SL4 5EU","propertyType":"Terraced","oldOrNew":"Established","duration":"Freehold","paon":"5","saon":"","street":"OAK LANE","locality":"WINDSOR","townOrCity":"WINDSOR","district":"WINDSOR AND MAIDENHEAD","county":"WINDSOR AND MAIDENHEAD","ppdCategoryType":"Standard","recordStatus":"Addition","latitude":51.479755,"longitude":-0.630529,"postcodeStart":"SL4 5","postcode":["SL4","5EU"]}
{"price":75000,"dateOfTransfer":"1996-04-30T00:00:00","postcodeFull":"SL4 5BP","propertyType":"Terraced","oldOrNew":"Established","duration":"Freehold","paon":"45","saon":"","street":"BEXLEY STREET","locality":"WINDSOR","townOrCity":"WINDSOR","district":"WINDSOR AND MAIDENHEAD","county":"WINDSOR AND MAIDENHEAD","ppdCategoryType":"Standard","recordStatus":"Addition","latitude":51.481464,"longitude":-0.617693,"postcodeStart":"SL4 5","postcode":["SL4","5BP"]}
{"price":38760,"dateOfTransfer":"1996-05-20T00:00:00","postcodeFull":"SL4 5LD","propertyType":"Semi-detached","oldOrNew":"New build","duration":"Freehold","paon":"24","saon":"","street":"EAST CRESCENT","locality":"WINDSOR","townOrCity":"WINDSOR","district":"WINDSOR AND MAIDENHEAD","county":"WINDSOR AND MAIDENHEAD","ppdCategoryType":"Standard","recordStatus":"Addition","latitude":51.480439,"longitude":-0.633781,"postcodeStart":"SL4 5","postcode":["SL4","5LD"]}
{"price":87000,"dateOfTransfer":"1996-08-27T00:00:00","postcodeFull":"SL4 5LT","propertyType":"Semi-detached","oldOrNew":"Established","duration":"Freehold","paon":"21","saon":"","street":"TUDOR WAY","locality":"WINDSOR","townOrCity":"WINDSOR","district":"WINDSOR AND MAIDENHEAD","county":"WINDSOR AND MAIDENHEAD","ppdCategoryType":"Standard","recordStatus":"Addition","latitude":51.481383,"longitude":-0.641501,"postcodeStart":"SL4 5","postcode":["SL4","5LT"]}
{"price":86000,"dateOfTransfer":"1996-10-11T00:00:00","postcodeFull":"SL4 5TP","propertyType":"Terraced","oldOrNew":"Established","duration":"Freehold","paon":"3","saon":"","street":"THE WILLOWS","locality":"WINDSOR","townOrCity":"WINDSOR","district":"WINDSOR AND MAIDENHEAD","county":"WINDSOR AND MAIDENHEAD","ppdCategoryType":"Standard","recordStatus":"Addition","latitude":51.48502,"longitude":-0.654179,"postcodeStart":"SL4 5","postcode":["SL4","5TP"]}
{"price":58000,"dateOfTransfer":"1996-09-20T00:00:00","postcodeFull":"SL4 5DX","propertyType":"Flat/Maisonette/Townhouse","oldOrNew":"Established","duration":"Leasehold","paon":"163A","saon":"","street":"OXFORD ROAD","locality":"WINDSOR","townOrCity":"WINDSOR","district":"WINDSOR AND MAIDENHEAD","county":"WINDSOR AND MAIDENHEAD","ppdCategoryType":"Standard","recordStatus":"Addition","latitude":51.482205,"longitude":-0.617196,"postcodeStart":"SL4 5","postcode":["SL4","5DX"]}
{"price":90000,"dateOfTransfer":"1996-11-06T00:00:00","postcodeFull":"SL4 5PN","propertyType":"Semi-detached","oldOrNew":"Established","duration":"Freehold","paon":"10","saon":"","street":"BURNETTS ROAD","locality":"WINDSOR","townOrCity":"WINDSOR","district":"WINDSOR AND MAIDENHEAD","county":"WINDSOR AND MAIDENHEAD","ppdCategoryType":"Standard","recordStatus":"Addition","latitude":51.482801,"longitude":-0.642827,"postcodeStart":"SL4 5","postcode":["SL4","5PN"]}
{"price":82000,"dateOfTransfer":"1996-03-04T00:00:00","postcodeFull":"SL4 5LG","propertyType":"Terraced","oldOrNew":"Established","duration":"Freehold","paon":"22","saon":"","street":"STEPHENSON DRIVE","locality":"WINDSOR","townOrCity":"WINDSOR","district":"WINDSOR AND MAIDENHEAD","county":"WINDSOR AND MAIDENHEAD","ppdCategoryType":"Standard","recordStatus":"Addition","latitude":51.484265,"longitude":-0.624924,"postcodeStart":"SL4 5","postcode":["SL4","5LG"]}
{"price":90000,"dateOfTransfer":"1996-06-28T00:00:00","postcodeFull":"SL4 5JS","propertyType":"Semi-detached","oldOrNew":"Established","duration":"Freehold","paon":"38","saon":"","street":"BUCKLAND CRESCENT","locality":"WINDSOR","townOrCity":"WINDSOR","district":"WINDSOR AND MAIDENHEAD","county":"WINDSOR AND MAIDENHEAD","ppdCategoryType":"Standard","recordStatus":"Addition","latitude":51.483312,"longitude":-0.636518,"postcodeStart":"SL4 5","postcode":["SL4","5JS"]}
{"price":107000,"dateOfTransfer":"1996-05-23T00:00:00","postcodeFull":"SL4 5EU","propertyType":"Terraced","oldOrNew":"Established","duration":"Freehold","paon":"9","saon":"","street":"OAK LANE","locality":"WINDSOR","townOrCity":"WINDSOR","district":"WINDSOR AND MAIDENHEAD","county":"WINDSOR AND MAIDENHEAD","ppdCategoryType":"Standard","recordStatus":"Addition","latitude":51.479755,"longitude":-0.630529,"postcodeStart":"SL4 5","postcode":["SL4","5EU"]}
{"price":120000,"dateOfTransfer":"1996-09-03T00:00:00","postcodeFull":"SL4 5RB","propertyType":"Terraced","oldOrNew":"Established","duration":"Freehold","paon":"8","saon":"","street":"MARBECK CLOSE","locality":"WINDSOR","townOrCity":"WINDSOR","district":"WINDSOR AND MAIDENHEAD","county":"WINDSOR AND MAIDENHEAD","ppdCategoryType":"Standard","recordStatus":"Addition","latitude":51.48078,"longitude":-0.649252,"postcodeStart":"SL4 5","postcode":["SL4","5RB"]}
{"price":62000,"dateOfTransfer":"1996-03-15T00:00:00","postcodeFull":"SL4 5BB","propertyType":"Terraced","oldOrNew":"Established","duration":"Freehold","paon":"91","saon":"","street":"DEDWORTH ROAD","locality":"","townOrCity":"WINDSOR","district":"WINDSOR AND MAIDENHEAD","county":"WINDSOR AND MAIDENHEAD","ppdCategoryType":"Standard","recordStatus":"Addition","latitude":51.478336,"longitude":-0.63606,"postcodeStart":"SL4 5","postcode":["SL4","5BB"]}
{"price":80000,"dateOfTransfer":"1996-11-22T00:00:00","postcodeFull":"SL4 5BB","propertyType":"Detached","oldOrNew":"Established","duration":"Freehold","paon":"117A","saon":"","street":"DEDWORTH ROAD","locality":"","townOrCity":"WINDSOR","district":"WOKINGHAM","county":"WOKINGHAM","ppdCategoryType":"Standard","recordStatus":"Addition","latitude":51.478336,"longitude":-0.63606,"postcodeStart":"SL4 5","postcode":["SL4","5BB"]}
{"price":84000,"dateOfTransfer":"1996-05-31T00:00:00","postcodeFull":"SL4 5SF","propertyType":"Terraced","oldOrNew":"Established","duration":"Freehold","paon":"25","saon":"","street":"RUDDLESWAY","locality":"WINDSOR","townOrCity":"WINDSOR","district":"WINDSOR AND MAIDENHEAD","county":"WINDSOR AND MAIDENHEAD","ppdCategoryType":"Standard","recordStatus":"Addition","latitude":51.483224,"longitude":-0.653817,"postcodeStart":"SL4 5","postcode":["SL4","5SF"]}
{"price":84000,"dateOfTransfer":"1996-09-12T00:00:00","postcodeFull":"SL4 5BY","propertyType":"Terraced","oldOrNew":"Established","duration":"Freehold","paon":"64","saon":"","street":"VANSITTART ROAD","locality":"WINDSOR","townOrCity":"WINDSOR","district":"WINDSOR AND MAIDENHEAD","county":"WINDSOR AND MAIDENHEAD","ppdCategoryType":"Standard","recordStatus":"Addition","latitude":51.483859,"longitude":-0.619435,"postcodeStart":"SL4 5","postcode":["SL4","5BY"]}
{"price":96000,"dateOfTransfer":"1996-08-14T00:00:00","postcodeFull":"SL4 5TY","propertyType":"Semi-detached","oldOrNew":"Established","duration":"Freehold","paon":"1","saon":"","street":"DAIRY COTTAGES","locality":"WINDSOR","townOrCity":"WINDSOR","district":"WINDSOR AND MAIDENHEAD","county":"WINDSOR AND MAIDENHEAD","ppdCategoryType":"Standard","recordStatus":"Addition","latitude":51.485866,"longitude":-0.659903,"postcodeStart":"SL4 5","postcode":["SL4","5TY"]}
{"price":58500,"dateOfTransfer":"1996-03-29T00:00:00","postcodeFull":"SL4 5JZ","propertyType":"Semi-detached","oldOrNew":"Established","duration":"Freehold","paon":"23","saon":"","street":"VALE ROAD","locality":"WINDSOR","townOrCity":"WINDSOR","district":"WINDSOR AND MAIDENHEAD","county":"WINDSOR AND MAIDENHEAD","ppdCategoryType":"Standard","recordStatus":"Addition","latitude":51.480186,"longitude":-0.635243,"postcodeStart":"SL4 5","postcode":["SL4","5JZ"]}
{"price":225000,"dateOfTransfer":"1996-02-23T00:00:00","postcodeFull":"SL4 5AX","propertyType":"Semi-detached","oldOrNew":"Established","duration":"Freehold","paon":"31","saon":"","street":"CLARENCE ROAD","locality":"WINDSOR","townOrCity":"WINDSOR","district":"WINDSOR AND MAIDENHEAD","county":"WINDSOR AND MAIDENHEAD","ppdCategoryType":"Standard","recordStatus":"Addition","latitude":51.480564,"longitude":-0.617576,"postcodeStart":"SL4 5","postcode":["SL4","5AX"]}
{"price":82000,"dateOfTransfer":"1996-08-30T00:00:00","postcodeFull":"SL4 5PE","propertyType":"Semi-detached","oldOrNew":"Established","duration":"Freehold","paon":"27","saon":"","street":"SMITHS LANE","locality":"WINDSOR","townOrCity":"WINDSOR","district":"WINDSOR AND MAIDENHEAD","county":"WINDSOR AND MAIDENHEAD","ppdCategoryType":"Standard","recordStatus":"Addition","latitude":51.479712,"longitude":-0.644034,"postcodeStart":"SL4 5","postcode":["SL4","5PE"]}
{"price":256000,"dateOfTransfer":"1996-11-29T00:00:00","postcodeFull":"SL4 5EW","propertyType":"Detached","oldOrNew":"Established","duration":"Freehold","paon":"39","saon":"","street":"PARSONAGE LANE","locality":"WINDSOR","townOrCity":"WINDSOR","district":"WINDSOR AND MAIDENHEAD","county":"WINDSOR AND MAIDENHEAD","ppdCategoryType":"Standard","recordStatus":"Addition","latitude":51.481132,"longitude":-0.627551,"postcodeStart":"SL4 5","postcode":["SL4","5EW"]}
{"price":100000,"dateOfTransfer":"1996-08-20T00:00:00","postcodeFull":"SL4 5JN","propertyType":"Detached","oldOrNew":"Established","duration":"Freehold","paon":"126","saon":"","street":"VALE ROAD","locality":"WINDSOR","townOrCity":"WINDSOR","district":"WINDSOR AND MAIDENHEAD","county":"WINDSOR AND MAIDENHEAD","ppdCategoryType":"Standard","recordStatus":"Addition","latitude":51.48356,"longitude":-0.634638,"postcodeStart":"SL4 5","postcode":["SL4","5JN"]}
{"price":93000,"dateOfTransfer":"1996-06-28T00:00:00","postcodeFull":"SL4 5QR","propertyType":"Terraced","oldOrNew":"Established","duration":"Freehold","paon":"11","saon":"","street":"KNIGHTS CLOSE","locality":"WINDSOR","townOrCity":"WINDSOR","district":"WINDSOR AND MAIDENHEAD","county":"WINDSOR AND MAIDENHEAD","ppdCategoryType":"Standard","recordStatus":"Addition","latitude":51.480238,"longitude":-0.648231,"postcodeStart":"SL4 5","postcode":["SL4","5QR"]}
{"price":120000,"dateOfTransfer":"1996-10-01T00:00:00","postcodeFull":"SL4 5BT","propertyType":"Terraced","oldOrNew":"Established","duration":"Freehold","paon":"33","saon":"","street":"ALBERT STREET","locality":"WINDSOR","townOrCity":"WINDSOR","district":"WINDSOR AND MAIDENHEAD","county":"WINDSOR AND MAIDENHEAD","ppdCategoryType":"Standard","recordStatus":"Addition","latitude":51.481118,"longitude":-0.621102,"postcodeStart":"SL4 5","postcode":["SL4","5BT"]}
{"price":71000,"dateOfTransfer":"1996-07-22T00:00:00","postcodeFull":"SL4 5EU","propertyType":"Terraced","oldOrNew":"Established","duration":"Freehold","paon":"33","saon":"","street":"OAK LANE","locality":"WINDSOR","townOrCity":"WINDSOR","district":"WINDSOR AND MAIDENHEAD","county":"WINDSOR AND MAIDENHEAD","ppdCategoryType":"Standard","recordStatus":"Addition","latitude":51.479755,"longitude":-0.630529,"postcodeStart":"SL4 5","postcode":["SL4","5EU"]}
{"price":71500,"dateOfTransfer":"1996-12-11T00:00:00","postcodeFull":"SL4 5DU","propertyType":"Flat/Maisonette/Townhouse","oldOrNew":"Established","duration":"Leasehold","paon":"144","saon":"FLAT 2","street":"OXFORD ROAD","locality":"","townOrCity":"WINDSOR","district":"WINDSOR AND MAIDENHEAD","county":"WINDSOR AND MAIDENHEAD","ppdCategoryType":"Standard","recordStatus":"Addition","latitude":51.482422,"longitude":-0.617333,"postcodeStart":"SL4 5","postcode":["SL4","5DU"]}
{"price":49500,"dateOfTransfer":"1996-03-22T00:00:00","postcodeFull":"SL4 5NR","propertyType":"Flat/Maisonette/Townhouse","oldOrNew":"Established","duration":"Leasehold","paon":"22B","saon":"","street":"HANOVER WAY","locality":"WINDSOR","townOrCity":"WINDSOR","district":"WINDSOR AND MAIDENHEAD","county":"WINDSOR AND MAIDENHEAD","ppdCategoryType":"Standard","recordStatus":"Addition","latitude":51.479252,"longitude":-0.638396,"postcodeStart":"SL4 5","postcode":["SL4","5NR"]}
{"price":110000,"dateOfTransfer":"1996-06-03T00:00:00","postcodeFull":"SL4 5SX","propertyType":"Semi-detached","oldOrNew":"Established","duration":"Freehold","paon":"55","saon":"","street":"CLIFTON RISE","locality":"WINDSOR","townOrCity":"WINDSOR","district":"WINDSOR AND MAIDENHEAD","county":"WINDSOR AND MAIDENHEAD","ppdCategoryType":"Standard","recordStatus":"Addition","latitude":51.48248,"longitude":-0.650843,"postcodeStart":"SL4 5","postcode":["SL4","5SX"]}
{"price":75000,"dateOfTransfer":"1996-08-05T00:00:00","postcodeFull":"SL4 5JT","propertyType":"Semi-detached","oldOrNew":"Established","duration":"Freehold","paon":"17","saon":"","street":"BUCKLAND CRESCENT","locality":"WINDSOR","townOrCity":"WINDSOR","district":"WINDSOR AND MAIDENHEAD","county":"WINDSOR AND MAIDENHEAD","ppdCategoryType":"Standard","recordStatus":"Addition","latitude":51.483496,"longitude":-0.636109,"postcodeStart":"SL4 5","postcode":["SL4","5JT"]}
{"price":57000,"dateOfTransfer":"1996-06-28T00:00:00","postcodeFull":"SL4 5BQ","propertyType":"Flat/Maisonette/Townhouse","oldOrNew":"Established","duration":"Leasehold","paon":"ST CATHERINES COURT","saon":"FLAT 1","street":"CLARENCE ROAD","locality":"WINDSOR","townOrCity":"WINDSOR","district":"WINDSOR AND MAIDENHEAD","county":"WINDSOR AND MAIDENHEAD","ppdCategoryType":"Standard","recordStatus":"Addition","latitude":51.479312,"longitude":-0.628918,"postcodeStart":"SL4 5","postcode":["SL4","5BQ"]}
{"price":95000,"dateOfTransfer":"1996-07-19T00:00:00","postcodeFull":"SL4 5DU","propertyType":"Terraced","oldOrNew":"Established","duration":"Freehold","paon":"116","saon":"","street":"OXFORD ROAD","locality":"WINDSOR","townOrCity":"WINDSOR","district":"WINDSOR AND MAIDENHEAD","county":"WINDSOR AND MAIDENHEAD","ppdCategoryType":"Standard","recordStatus":"Addition","latitude":51.482422,"longitude":-0.617333,"postcodeStart":"SL4 5","postcode":["SL4","5DU"]}
{"price":89950,"dateOfTransfer":"1996-04-03T00:00:00","postcodeFull":"SL4 5JS","propertyType":"Semi-detached","oldOrNew":"Established","duration":"Freehold","paon":"74","saon":"","street":"BUCKLAND CRESCENT","locality":"WINDSOR","townOrCity":"WINDSOR","district":"WINDSOR AND MAIDENHEAD","county":"WINDSOR AND MAIDENHEAD","ppdCategoryType":"Standard","recordStatus":"Addition","latitude":51.483312,"longitude":-0.636518,"postcodeStart":"SL4 5","postcode":["SL4","5JS"]}
{"price":270000,"dateOfTransfer":"1996-01-24T00:00:00","postcodeFull":"SL4 5UB","propertyType":"Detached","oldOrNew":"Established","duration":"Freehold","paon":"AAH-DEN","saon":"","street":"MAIDENHEAD ROAD","locality":"WINDSOR","townOrCity":"WINDSOR","district":"WINDSOR AND MAIDENHEAD","county":"WINDSOR AND MAIDENHEAD","ppdCategoryType":"Standard","recordStatus":"Addition","latitude":51.484637,"longitude":-0.656209,"postcodeStart":"SL4 5","postcode":["SL4","5UB"]}
{"price":104950,"dateOfTransfer":"1996-08-27T00:00:00","postcodeFull":"SL4 5AY","propertyType":"Terraced","oldOrNew":"Established","duration":"Freehold","paon":"18","saon":"","street":"DEDWORTH ROAD","locality":"WINDSOR","townOrCity":"WINDSOR","district":"WINDSOR AND MAIDENHEAD","county":"WINDSOR AND MAIDENHEAD","ppdCategoryType":"Standard","recordStatus":"Addition","latitude":51.479304,"longitude":-0.631641,"postcodeStart":"SL4 5","postcode":["SL4","5AY"]}
{"price":91000,"dateOfTransfer":"1996-06-24T00:00:00","postcodeFull":"SL4 5EU","propertyType":"Terraced","oldOrNew":"Established","duration":"Freehold","paon":"1","saon":"","street":"OAK LANE","locality":"WINDSOR","townOrCity":"WINDSOR","district":"WINDSOR AND MAIDENHEAD","county":"WINDSOR AND MAIDENHEAD","ppdCategoryType":"Standard","recordStatus":"Addition","latitude":51.479755,"longitude":-0.630529,"postcodeStart":"SL4 5","postcode":["SL4","5EU"]}
{"price":90000,"dateOfTransfer":"1996-10-07T00:00:00","postcodeFull":"SL4 5DX","propertyType":"Terraced","oldOrNew":"Established","duration":"Freehold","paon":"125","saon":"","street":"OXFORD ROAD","locality":"WINDSOR","townOrCity":"WINDSOR","district":"WINDSOR AND MAIDENHEAD","county":"WINDSOR AND MAIDENHEAD","ppdCategoryType":"Standard","recordStatus":"Addition","latitude":51.482205,"longitude":-0.617196,"postcodeStart":"SL4 5","postcode":["SL4","5DX"]}
{"price":155000,"dateOfTransfer":"1996-07-18T00:00:00","postcodeFull":"SL4 5AR","propertyType":"Semi-detached","oldOrNew":"Established","duration":"Freehold","paon":"121","saon":"","street":"CLARENCE ROAD","locality":"WINDSOR","townOrCity":"WINDSOR","district":"WINDSOR AND MAIDENHEAD","county":"WINDSOR AND MAIDENHEAD","ppdCategoryType":"Standard","recordStatus":"Addition","latitude":51.480442,"longitude":-0.620964,"postcodeStart":"SL4 5","postcode":["SL4","5AR"]}
{"price":112000,"dateOfTransfer":"1996-05-31T00:00:00","postcodeFull":"SL4 5BX","propertyType":"Terraced","oldOrNew":"Established","duration":"Freehold","paon":"68","saon":"","street":"BEXLEY STREET","locality":"WINDSOR","townOrCity":"WINDSOR","district":"WINDSOR AND MAIDENHEAD","county":"WINDSOR AND MAIDENHEAD","ppdCategoryType":"Standard","recordStatus":"Addition","latitude":51.481222,"longitude":-0.617729,"postcodeStart":"SL4 5","postcode":["SL4","5BX"]}
{"price":107000,"dateOfTransfer":"1996-08-19T00:00:00","postcodeFull":"SL4 5DU","propertyType":"Terraced","oldOrNew":"Established","duration":"Freehold","paon":"180","saon":"","street":"OXFORD ROAD","locality":"WINDSOR","townOrCity":"WINDSOR","district":"WINDSOR AND MAIDENHEAD","county":"WINDSOR AND MAIDENHEAD","ppdCategoryType":"Standard","recordStatus":"Addition","latitude":51.482422,"longitude":-0.617333,"postcodeStart":"SL4 5","postcode":["SL4","5DU"]}
{"price":119000,"dateOfTransfer":"1996-10-28T00:00:00","postcodeFull":"SL4 5SS","propertyType":"Semi-detached","oldOrNew":"Established","duration":"Freehold","paon":"48","saon":"","street":"REDFORD ROAD","locality":"WINDSOR","townOrCity":"WINDSOR","district":"WINDSOR AND MAIDENHEAD","county":"WINDSOR AND MAIDENHEAD","ppdCategoryType":"Standard","recordStatus":"Addition","latitude":51.482984,"longitude":-0.653248,"postcodeStart":"SL4 5","postcode":["SL4","5SS"]}
{"price":97000,"dateOfTransfer":"1996-08-09T00:00:00","postcodeFull":"SL4 5PN","propertyType":"Semi-detached","oldOrNew":"Established","duration":"Freehold","paon":"9","saon":"","street":"BURNETTS ROAD","locality":"WINDSOR","townOrCity":"WINDSOR","district":"WINDSOR AND MAIDENHEAD","county":"WINDSOR AND MAIDENHEAD","ppdCategoryType":"Standard","recordStatus":"Addition","latitude":51.482801,"longitude":-0.642827,"postcodeStart":"SL4 5","postcode":["SL4","5PN"]}
{"price":78000,"dateOfTransfer":"1996-02-29T00:00:00","postcodeFull":"SL4 5AU","propertyType":"Flat/Maisonette/Townhouse","oldOrNew":"Established","duration":"Leasehold","paon":"DUNSTON VILLAS, 68","saon":"GROUND FLOOR FLAT 1","street":"CLARENCE ROAD","locality":"WINDSOR","townOrCity":"WINDSOR","district":"WINDSOR AND MAIDENHEAD","county":"WINDSOR AND MAIDENHEAD","ppdCategoryType":"Standard","recordStatus":"Addition","latitude":51.480241,"longitude":-0.617687,"postcodeStart":"SL4 5","postcode":["SL4","5AU"]}
{"price":74000,"dateOfTransfer":"1996-06-21T00:00:00","postcodeFull":"SL4 5DY","propertyType":"Terraced","oldOrNew":"Established","duration":"Freehold","paon":"BEAUMONT COTTAGES","saon":"5","street":"OXFORD ROAD","locality":"WINDSOR","townOrCity":"WINDSOR","district":"WINDSOR AND MAIDENHEAD","county":"WINDSOR AND MAIDENHEAD","ppdCategoryType":"Standard","recordStatus":"Addition","latitude":51.482026,"longitude":-0.618007,"postcodeStart":"SL4 5","postcode":["SL4","5DY"]}
{"price":51000,"dateOfTransfer":"1996-01-31T00:00:00","postcodeFull":"SL4 5HW","propertyType":"Flat/Maisonette/Townhouse","oldOrNew":"Established","duration":"Leasehold","paon":"HALE","saon":"35","street":"SAWYERS CLOSE","locality":"WINDSOR","townOrCity":"WINDSOR","district":"WINDSOR AND MAIDENHEAD","county":"WINDSOR AND MAIDENHEAD","ppdCategoryType":"Standard","recordStatus":"Addition","latitude":51.484039,"longitude":-0.640241,"postcodeStart":"SL4 5","postcode":["SL4","5HW"]}
{"price":105000,"dateOfTransfer":"1996-07-18T00:00:00","postcodeFull":"SL4 5SL","propertyType":"Semi-detached","oldOrNew":"Established","duration":"Freehold","paon":"10","saon":"","street":"HOLLY CRESCENT","locality":"WINDSOR","townOrCity":"WINDSOR","district":"WINDSOR AND MAIDENHEAD","county":"WINDSOR AND MAIDENHEAD","ppdCategoryType":"Standard","recordStatus":"Addition","latitude":51.479396,"longitude":-0.652461,"postcodeStart":"SL4 5","postcode":["SL4","5SL"]}
{"price":112000,"dateOfTransfer":"1996-08-09T00:00:00","postcodeFull":"SL4 5PZ","propertyType":"Detached","oldOrNew":"Established","duration":"Freehold","paon":"34","saon":"","street":"LONGMEAD","locality":"WINDSOR","townOrCity":"WINDSOR","district":"WINDSOR AND MAIDENHEAD","county":"WINDSOR AND MAIDENHEAD","ppdCategoryType":"Standard","recordStatus":"Addition","latitude":51.482098,"longitude":-0.646549,"postcodeStart":"SL4 5","postcode":["SL4","5PZ"]}
{"price":84000,"dateOfTransfer":"1996-07-01T00:00:00","postcodeFull":"SL4 5HF","propertyType":"Terraced","oldOrNew":"Established","duration":"Freehold","paon":"227","saon":"","street":"MAIDENHEAD ROAD","locality":"WINDSOR","townOrCity":"WINDSOR","district":"WINDSOR AND MAIDENHEAD","county":"WINDSOR AND MAIDENHEAD","ppdCategoryType":"Standard","recordStatus":"Addition","latitude":51.484871,"longitude":-0.635996,"postcodeStart":"SL4 5","postcode":["SL4","5HF"]}
{"price":156000,"dateOfTransfer":"1996-12-20T00:00:00","postcodeFull":"SL4 5EY","propertyType":"Detached","oldOrNew":"Established","duration":"Freehold","paon":"103","saon":"","street":"MAIDENHEAD ROAD","locality":"WINDSOR","townOrCity":"WINDSOR","district":"WOKINGHAM","county":"WOKINGHAM","ppdCategoryType":"Standard","recordStatus":"Addition","latitude":51.483615,"longitude":-0.627305,"postcodeStart":"SL4 5","postcode":["SL4","5EY"]}
{"price":75500,"dateOfTransfer":"1996-11-20T00:00:00","postcodeFull":"SL4 5NF","propertyType":"Flat/Maisonette/Townhouse","oldOrNew":"Established","duration":"Leasehold","paon":"DEDWORTH MANOR","saon":"9","street":"THAMES MEAD","locality":"WINDSOR","townOrCity":"WINDSOR","district":"WINDSOR AND MAIDENHEAD","county":"WINDSOR AND MAIDENHEAD","ppdCategoryType":"Standard","recordStatus":"Addition","latitude":51.482902,"longitude":-0.639871,"postcodeStart":"SL4 5","postcode":["SL4","5NF"]}
{"price":94950,"dateOfTransfer":"1996-11-01T00:00:00","postcodeFull":"SL4 5DX","propertyType":"Terraced","oldOrNew":"Established","duration":"Freehold","paon":"147","saon":"","street":"OXFORD ROAD","locality":"WINDSOR","townOrCity":"WINDSOR","district":"WINDSOR AND MAIDENHEAD","county":"WINDSOR AND MAIDENHEAD","ppdCategoryType":"Standard","recordStatus":"Addition","latitude":51.482205,"longitude":-0.617196,"postcodeStart":"SL4 5","postcode":["SL4","5DX"]}
{"price":77000,"dateOfTransfer":"1996-10-25T00:00:00","postcodeFull":"SL4 5LE","propertyType":"Terraced","oldOrNew":"Established","duration":"Freehold","paon":"53","saon":"","street":"WEST CRESCENT","locality":"WINDSOR","townOrCity":"WINDSOR","district":"WINDSOR AND MAIDENHEAD","county":"WINDSOR AND MAIDENHEAD","ppdCategoryType":"Standard","recordStatus":"Addition","latitude":51.480204,"longitude":-0.63602,"postcodeStart":"SL4 5","postcode":["SL4","5LE"]}
{"price":65500,"dateOfTransfer":"1996-11-27T00:00:00","postcodeFull":"SL4 5AB","propertyType":"Flat/Maisonette/Townhouse","oldOrNew":"Established","duration":"Leasehold","paon":"CLARENCE COURT","saon":"FLAT 2","street":"CLARENCE ROAD","locality":"WINDSOR","townOrCity":"WINDSOR","district":"WINDSOR AND MAIDENHEAD","county":"WINDSOR AND MAIDENHEAD","ppdCategoryType":"Standard","recordStatus":"Addition","latitude":51.480822,"longitude":-0.620434,"postcodeStart":"SL4 5","postcode":["SL4","5AB"]}
{"price":89950,"dateOfTransfer":"1996-04-26T00:00:00","postcodeFull":"SL4 5HG","propertyType":"Detached","oldOrNew":"Established","duration":"Freehold","paon":"BRYMAYS","saon":"","street":"RAYS AVENUE","locality":"WINDSOR","townOrCity":"WINDSOR","district":"WINDSOR AND MAIDENHEAD","county":"WINDSOR AND MAIDENHEAD","ppdCategoryType":"Standard","recordStatus":"Addition","latitude":51.484402,"longitude":-0.636687,"postcodeStart":"SL4 5","postcode":["SL4","5HG"]}
{"price":39150,"dateOfTransfer":"1996-05-27T00:00:00","postcodeFull":"SL4 5LE","propertyType":"Semi-detached","oldOrNew":"Established","duration":"Freehold","paon":"57","saon":"","street":"WEST CRESCENT","locality":"WINDSOR","townOrCity":"WINDSOR","district":"WINDSOR AND MAIDENHEAD","county":"WINDSOR AND MAIDENHEAD","ppdCategoryType":"Standard","recordStatus":"Addition","latitude":51.480204,"longitude":-0.63602,"postcodeStart":"SL4 5","postcode":["SL4","5LE"]}
{"price":111100,"dateOfTransfer":"1996-12-19T00:00:00","postcodeFull":"SL4 5QU","propertyType":"Semi-detached","oldOrNew":"Established","duration":"Freehold","paon":"45","saon":"","street":"GALLYS ROAD","locality":"WINDSOR","townOrCity":"WINDSOR","district":"WINDSOR AND MAIDENHEAD","county":"WINDSOR AND MAIDENHEAD","ppdCategoryType":"Standard","recordStatus":"Addition","latitude":51.483071,"longitude":-0.647514,"postcodeStart":"SL4 5","postcode":["SL4","5QU"]}
{"price":87500,"dateOfTransfer":"1996-02-23T00:00:00","postcodeFull":"SL4 5BT","propertyType":"Terraced","oldOrNew":"Established","duration":"Freehold","paon":"27","saon":"","street":"ALBERT STREET","locality":"WINDSOR","townOrCity":"WINDSOR","district":"WINDSOR AND MAIDENHEAD","county":"WINDSOR AND MAIDENHEAD","ppdCategoryType":"Standard","recordStatus":"Addition","latitude":51.481118,"longitude":-0.621102,"postcodeStart":"SL4 5","postcode":["SL4","5BT"]}
{"price":86500,"dateOfTransfer":"1996-03-08T00:00:00","postcodeFull":"SL4 5BU","propertyType":"Detached","oldOrNew":"Established","duration":"Freehold","paon":"106A","saon":"","street":"ALBERT STREET","locality":"WINDSOR","townOrCity":"WINDSOR","district":"WINDSOR AND MAIDENHEAD","county":"WINDSOR AND MAIDENHEAD","ppdCategoryType":"Standard","recordStatus":"Addition","latitude":51.48128,"longitude":-0.62186,"postcodeStart":"SL4 5","postcode":["SL4","5BU"]}
{"price":92000,"dateOfTransfer":"1996-08-30T00:00:00","postcodeFull":"SL4 5NW","propertyType":"Terraced","oldOrNew":"Established","duration":"Freehold","paon":"6","saon":"","street":"HANOVER WAY","locality":"WINDSOR","townOrCity":"WINDSOR","district":"WINDSOR AND MAIDENHEAD","county":"WINDSOR AND MAIDENHEAD","ppdCategoryType":"Standard","recordStatus":"Addition","latitude":51.480751,"longitude":-0.637386,"postcodeStart":"SL4 5","postcode":["SL4","5NW"]}
{"price":58500,"dateOfTransfer":"1996-09-27T00:00:00","postcodeFull":"SL4 5NG","propertyType":"Flat/Maisonette/Townhouse","oldOrNew":"Established","duration":"Leasehold","paon":"2A","saon":"","street":"SURLY HALL WALK","locality":"WINDSOR","townOrCity":"WINDSOR","district":"WINDSOR AND MAIDENHEAD","county":"WINDSOR AND MAIDENHEAD","ppdCategoryType":"Standard","recordStatus":"Addition","latitude":51.48112,"longitude":-0.638959,"postcodeStart":"SL4 5","postcode":["SL4","5NG"]}
{"price":79000,"dateOfTransfer":"1996-10-30T00:00:00","postcodeFull":"SL4 5HS","propertyType":"Detached","oldOrNew":"Established","duration":"Freehold","paon":"PETWORTH COURT","saon":"1","street":"HELSTON LANE","locality":"WINDSOR","townOrCity":"WINDSOR","district":"WINDSOR AND MAIDENHEAD","county":"WINDSOR AND MAIDENHEAD","ppdCategoryType":"Standard","recordStatus":"Addition","latitude":51.480938,"longitude":-0.625673,"postcodeStart":"SL4 5","postcode":["SL4","5HS"]}
{"price":95000,"dateOfTransfer":"1996-12-17T00:00:00","postcodeFull":"SL4 5TP","propertyType":"Terraced","oldOrNew":"Established","duration":"Freehold","paon":"14","saon":"","street":"THE WILLOWS","locality":"WINDSOR","townOrCity":"WINDSOR","district":"WINDSOR AND MAIDENHEAD","county":"WINDSOR AND MAIDENHEAD","ppdCategoryType":"Standard","recordStatus":"Addition","latitude":51.48502,"longitude":-0.654179,"postcodeStart":"SL4 5","postcode":["SL4","5TP"]}
{"price":77000,"dateOfTransfer":"1996-07-05T00:00:00","postcodeFull":"SL4 5DX","propertyType":"Flat/Maisonette/Townhouse","oldOrNew":"Established","duration":"Leasehold","paon":"183","saon":"","street":"OXFORD ROAD","locality":"WINDSOR","townOrCity":"WINDSOR","district":"WINDSOR AND MAIDENHEAD","county":"WINDSOR AND MAIDENHEAD","ppdCategoryType":"Standard","recordStatus":"Addition","latitude":51.482205,"longitude":-0.617196,"postcodeStart":"SL4 5","postcode":["SL4","5DX"]}
