{"price":64000,"dateOfTransfer":"1995-06-05T00:00:00","postcodeFull":"SL5 9UT","propertyType":"Semi-detached","oldOrNew":"Established","duration":"Freehold","paon":"33","saon":"","street":"LIDDELL WAY","locality":"ASCOT","townOrCity":"ASCOT","district":"WINDSOR AND MAIDENHEAD","county":"WINDSOR AND MAIDENHEAD","ppdCategoryType":"Standard","recordStatus":"Addition","latitude":51.402855,"longitude":-0.679242,"postcodeStart":"SL5 9","postcode":["SL5","9UT"]}
{"price":112000,"dateOfTransfer":"1995-09-26T00:00:00","postcodeFull":"SL5 9RN","propertyType":"Flat/Maisonette/Townhouse","oldOrNew":"Established","duration":"Leasehold","paon":"3","saon":"","street":"THE RIDGE","locality":"ASCOT","townOrCity":"ASCOT","district":"WINDSOR AND MAIDENHEAD","county":"WINDSOR AND MAIDENHEAD","ppdCategoryType":"Standard","recordStatus":"Addition","latitude":51.390269,"longitude":-0.632454,"postcodeStart":"SL5 9","postcode":["SL5","9RN"]}
{"price":48000,"dateOfTransfer":"1995-09-08T00:00:00","postcodeFull":"SL5 9EJ","propertyType":"Flat/Maisonette/Townhouse","oldOrNew":"Established","duration":"Leasehold","paon":"17","saon":"","street":"CARROLL CRESCENT","locality":"ASCOT","townOrCity":"ASCOT","district":"WINDSOR AND MAIDENHEAD","county":"WINDSOR AND MAIDENHEAD","ppdCategoryType":"Standard","recordStatus":"Addition","latitude":51.404186,"longitude":-0.680896,"postcodeStart":"SL5 9","postcode":["SL5","9EJ"]}
{"price":80000,"dateOfTransfer":"1995-07-21T00:00:00","postcodeFull":"SL5 9DY","propertyType":"Semi-detached","oldOrNew":"Established","duration":"Freehold","paon":"27","saon":"","street":"PORCHESTER","locality":"ASCOT","townOrCity":"ASCOT","district":"WINDSOR AND MAIDENHEAD","county":"WINDSOR AND MAIDENHEAD","ppdCategoryType":"Standard","recordStatus":"Addition","latitude":51.404756,"longitude":-0.673245,"postcodeStart":"SL5 9","postcode":["SL5","9DY"]}
{"price":360000,"dateOfTransfer":"1995-07-03T00:00:00","postcodeFull":"SL5 9AP","propertyType":"Detached","oldOrNew":"New build","duration":"Freehold","paon":"HAZELDENE","saon":"","street":"ST MARYS HILL","locality":"ASCOT","townOrCity":"ASCOT","district":"WINDSOR AND MAIDENHEAD","county":"WINDSOR AND MAIDENHEAD","ppdCategoryType":"Standard","recordStatus":"Addition","latitude":51.398654,"longitude":-0.662482,"postcodeStart":"SL5 9","postcode":["SL5","9AP"]}
{"price":250000,"dateOfTransfer":"1995-09-29T00:00:00","postcodeFull":"SL5 9TG","propertyType":"Detached","oldOrNew":"Established","duration":"Freehold","paon":"165","saon":"","street":"CAVENDISH MEADS","locality":"ASCOT","townOrCity":"ASCOT","district":"WINDSOR AND MAIDENHEAD","county":"WINDSOR AND MAIDENHEAD","ppdCategoryType":"Standard","recordStatus":"Addition","latitude":51.3983,"longitude":-0.651966,"postcodeStart":"SL5 9","postcode":["SL5","9TG"]}
{"price":235000,"dateOfTransfer":"1995-12-15T00:00:00","postcodeFull":"SL5 9HW","propertyType":"Detached","oldOrNew":"Established","duration":"Freehold","paon":"COPPICE HOUSE","saon":"","street":"WHYNSTONES ROAD","locality":"ASCOT","townOrCity":"ASCOT","district":"WINDSOR AND MAIDENHEAD","county":"WINDSOR AND MAIDENHEAD","ppdCategoryType":"Standard","recordStatus":"Addition","latitude":51.39951,"longitude":-0.676128,"postcodeStart":"SL5 9","postcode":["SL5","9HW"]}
{"price":95000,"dateOfTransfer":"1995-04-12T00:00:00","postcodeFull":"SL5 9EX","propertyType":"Semi-detached","oldOrNew":"Established","duration":"Freehold","paon":"16","saon":"","street":"CHURCH ROAD","locality":"ASCOT","townOrCity":"ASCOT","district":"WINDSOR AND MAIDENHEAD","county":"WINDSOR AND MAIDENHEAD","ppdCategoryType":"Standard","recordStatus":"Addition","latitude":51.404063,"longitude":-0.673955,"postcodeStart":"SL5 9","postcode":["SL5","9EX"]}
{"price":135000,"dateOfTransfer":"1995-12-14T00:00:00","postcodeFull":"SL5 9TD","propertyType":"Detached","oldOrNew":"Established","duration":"Freehold","paon":"14","saon":"","street":"CAVENDISH MEADS","locality":"ASCOT","townOrCity":"ASCOT","district":"WINDSOR AND MAIDENHEAD","county":"WINDSOR AND MAIDENHEAD","ppdCategoryType":"Standard","recordStatus":"Addition","latitude":51.397458,"longitude":-0.656235,"postcodeStart":"SL5 9","postcode":["SL5","9TD"]}
{"price":292500,"dateOfTransfer":"1995-08-31T00:00:00","postcodeFull":"SL5 9BW","propertyType":"Detached","oldOrNew":"Established","duration":"Freehold","paon":"11","saon":"","street":"NORTON PARK","locality":"ASCOT","townOrCity":"ASCOT","district":"WINDSOR AND MAIDENHEAD","county":"WINDSOR AND MAIDENHEAD","ppdCategoryType":"Standard","recordStatus":"Addition","latitude":51.400401,"longitude":-0.661123,"postcodeStart":"SL5 9","postcode":["SL5","9BW"]}
{"price":48000,"dateOfTransfer":"1995-03-28T00:00:00","postcodeFull":"SL5 9BU","propertyType":"Flat/Maisonette/Townhouse","oldOrNew":"Established","duration":"Leasehold","paon":"LYTHAM COURT","saon":"6","street":"CARDWELL CRESCENT","locality":"ASCOT","townOrCity":"ASCOT","district":"WINDSOR AND MAIDENHEAD","county":"WINDSOR AND MAIDENHEAD","ppdCategoryType":"Standard","recordStatus":"Addition","latitude":51.400945,"longitude":-0.663091,"postcodeStart":"SL5 9","postcode":["SL5","9BU"]}
{"price":64000,"dateOfTransfer":"1995-05-05T00:00:00","postcodeFull":"SL5 9EQ","propertyType":"Terraced","oldOrNew":"Established","duration":"Freehold","paon":"46","saon":"","street":"BOULDISH FARM ROAD","locality":"ASCOT","townOrCity":"ASCOT","district":"WINDSOR AND MAIDENHEAD","county":"WINDSOR AND MAIDENHEAD","ppdCategoryType":"Standard","recordStatus":"Addition","latitude":51.40445,"longitude":-0.677164,"postcodeStart":"SL5 9","postcode":["SL5","9EQ"]}
{"price":76000,"dateOfTransfer":"1995-09-11T00:00:00","postcodeFull":"SL5 9EU","propertyType":"Terraced","oldOrNew":"Established","duration":"Freehold","paon":"4","saon":"","street":"STANMORE CLOSE","locality":"ASCOT","townOrCity":"ASCOT","district":"WINDSOR AND MAIDENHEAD","county":"WINDSOR AND MAIDENHEAD","ppdCategoryType":"Standard","recordStatus":"Addition","latitude":51.405248,"longitude":-0.67464,"postcodeStart":"SL5 9","postcode":["SL5","9EU"]}
{"price":84000,"dateOfTransfer":"1995-04-28T00:00:00","postcodeFull":"SL5 9DG","propertyType":"Semi-detached","oldOrNew":"Established","duration":"Freehold","paon":"29","saon":"","street":"CROMWELL ROAD","locality":"ASCOT","townOrCity":"ASCOT","district":"WINDSOR AND MAIDENHEAD","county":"WINDSOR AND MAIDENHEAD","ppdCategoryType":"Standard","recordStatus":"Addition","latitude":51.403599,"longitude":-0.669541,"postcodeStart":"SL5 9","postcode":["SL5","9DG"]}
{"price":64500,"dateOfTransfer":"1995-06-16T00:00:00","postcodeFull":"SL5 9DN","propertyType":"Terraced","oldOrNew":"Established","duration":"Freehold","paon":"17","saon":"","street":"OLIVER ROAD","locality":"ASCOT","townOrCity":"ASCOT","district":"WINDSOR AND MAIDENHEAD","county":"WINDSOR AND MAIDENHEAD","ppdCategoryType":"Standard","recordStatus":"Addition","latitude":51.403965,"longitude":-0.672431,"postcodeStart":"SL5 9","postcode":["SL5","9DN"]}
{"price":210000,"dateOfTransfer":"1995-10-20T00:00:00","postcodeFull":"SL5 9HT","propertyType":"Detached","oldOrNew":"Established","duration":"Freehold","paon":"40","saon":"","street":"LLANVAIR DRIVE","locality":"ASCOT","townOrCity":"ASCOT","district":"WINDSOR AND MAIDENHEAD","county":"WINDSOR AND MAIDENHEAD","ppdCategoryType":"Standard","recordStatus":"Addition","latitude":51.395716,"longitude":-0.679357,"postcodeStart":"SL5 9","postcode":["SL5","9HT"]}
{"price":73000,"dateOfTransfer":"1995-02-17T00:00:00","postcodeFull":"SL5 9JW","propertyType":"Flat/Maisonette/Townhouse","oldOrNew":"Established","duration":"Leasehold","paon":"MERIDIAN COURT","saon":"6","street":"BAGSHOT ROAD","locality":"ASCOT","townOrCity":"ASCOT","district":"WINDSOR AND MAIDENHEAD","county":"WINDSOR AND MAIDENHEAD","ppdCategoryType":"Standard","recordStatus":"Addition","latitude":51.389221,"longitude":-0.67036,"postcodeStart":"SL5 9","postcode":["SL5","9JW"]}
{"price":61000,"dateOfTransfer":"1995-12-21T00:00:00","postcodeFull":"SL5 9EH","propertyType":"Terraced","oldOrNew":"Established","duration":"Freehold","paon":"20","saon":"","street":"CARROLL CRESCENT","locality":"ASCOT","townOrCity":"ASCOT","district":"WINDSOR AND MAIDENHEAD","county":"WINDSOR AND MAIDENHEAD","ppdCategoryType":"Standard","recordStatus":"Addition","latitude":51.404291,"longitude":-0.681425,"postcodeStart":"SL5 9","postcode":["SL5","9EH"]}
{"price":390000,"dateOfTransfer":"1995-07-05T00:00:00","postcodeFull":"SL5 9JY","propertyType":"Detached","oldOrNew":"Established","duration":"Freehold","paon":"LITTLEBROOK HOUSE","saon":"","street":"EARLEYDENE","locality":"ASCOT","townOrCity":"ASCOT","district":"WINDSOR AND MAIDENHEAD","county":"WINDSOR AND MAIDENHEAD","ppdCategoryType":"Standard","recordStatus":"Addition","latitude":51.386549,"longitude":-0.66706,"postcodeStart":"SL5 9","postcode":["SL5","9JY"]}
{"price":380000,"dateOfTransfer":"1995-10-27T00:00:00","postcodeFull":"SL5 9HA","propertyType":"Detached","oldOrNew":"Established","duration":"Freehold","paon":"HARTE LODGE","saon":"","street":"BROCKENHURST ROAD","locality":"ASCOT","townOrCity":"ASCOT","district":"WINDSOR AND MAIDENHEAD","county":"WINDSOR AND MAIDENHEAD","ppdCategoryType":"Standard","recordStatus":"Addition","latitude":51.397966,"longitude":-0.667559,"postcodeStart":"SL5 9","postcode":["SL5","9HA"]}
{"price":85000,"dateOfTransfer":"1995-10-13T00:00:00","postcodeFull":"SL5 9EP","propertyType":"Terraced","oldOrNew":"Established","duration":"Freehold","paon":"4","saon":"","street":"KINROSS AVENUE","locality":"ASCOT","townOrCity":"ASCOT","district":"WINDSOR AND MAIDENHEAD","county":"WINDSOR AND MAIDENHEAD","ppdCategoryType":"Standard","recordStatus":"Addition","latitude":51.401938,"longitude":-0.681708,"postcodeStart":"SL5 9","postcode":["SL5","9EP"]}
{"price":288000,"dateOfTransfer":"1995-07-18T00:00:00","postcodeFull":"SL5 9RU","propertyType":"Flat/Maisonette/Townhouse","oldOrNew":"Established","duration":"Leasehold","paon":"WOBURN HOUSE","saon":"2","street":"CROSS ROAD","locality":"ASCOT","townOrCity":"ASCOT","district":"WINDSOR AND MAIDENHEAD","county":"WINDSOR AND MAIDENHEAD","ppdCategoryType":"Standard","recordStatus":"Addition","latitude":51.385855,"longitude":-0.634961,"postcodeStart":"SL5 9","postcode":["SL5","9RU"]}
{"price":54500,"dateOfTransfer":"1995-03-24T00:00:00","postcodeFull":"SL5 9BX","propertyType":"Flat/Maisonette/Townhouse","oldOrNew":"Established","duration":"Leasehold","paon":"TROON COURT","saon":"6","street":"CARDWELL CRESCENT","locality":"ASCOT","townOrCity":"ASCOT","district":"WINDSOR AND MAIDENHEAD","county":"WINDSOR AND MAIDENHEAD","ppdCategoryType":"Standard","recordStatus":"Addition","latitude":51.400646,"longitude":-0.66287,"postcodeStart":"SL5 9","postcode":["SL5","9BX"]}
{"price":95000,"dateOfTransfer":"1995-06-09T00:00:00","postcodeFull":"SL5 9NJ","propertyType":"Semi-detached","oldOrNew":"Established","duration":"Freehold","paon":"8","saon":"","street":"BOWDEN ROAD","locality":"ASCOT","townOrCity":"ASCOT","district":"WINDSOR AND MAIDENHEAD","county":"WINDSOR AND MAIDENHEAD","ppdCategoryType":"Standard","recordStatus":"Addition","latitude":51.40142,"longitude":-0.657442,"postcodeStart":"SL5 9","postcode":["SL5","9NJ"]}
{"price":295000,"dateOfTransfer":"1995-11-17T00:00:00","postcodeFull":"SL5 9RU","propertyType":"Flat/Maisonette/Townhouse","oldOrNew":"Established","duration":"Leasehold","paon":"WOBURN HOUSE","saon":"3","street":"CROSS ROAD","locality":"ASCOT","townOrCity":"ASCOT","district":"WINDSOR AND MAIDENHEAD","county":"WINDSOR AND MAIDENHEAD","ppdCategoryType":"Standard","recordStatus":"Addition","latitude":51.385855,"longitude":-0.634961,"postcodeStart":"SL5 9","postcode":["SL5","9RU"]}
{"price":650000,"dateOfTransfer":"1995-05-23T00:00:00","postcodeFull":"SL5 9QH","propertyType":"Detached","oldOrNew":"New build","duration":"Freehold","paon":"BROADWOOD HOUSE","saon":"","street":"LADY MARGARET ROAD","locality":"ASCOT","townOrCity":"ASCOT","district":"WINDSOR AND MAIDENHEAD","county":"WINDSOR AND MAIDENHEAD","ppdCategoryType":"Standard","recordStatus":"Addition","latitude":51.390488,"longitude":-0.637424,"postcodeStart":"SL5 9","postcode":["SL5","9QH"]}
{"price":83000,"dateOfTransfer":"1995-09-22T00:00:00","postcodeFull":"SL5 9EX","propertyType":"Terraced","oldOrNew":"Established","duration":"Freehold","paon":"14","saon":"","street":"CHURCH ROAD","locality":"ASCOT","townOrCity":"ASCOT","district":"WINDSOR AND MAIDENHEAD","county":"WINDSOR AND MAIDENHEAD","ppdCategoryType":"Standard","recordStatus":"Addition","latitude":51.404063,"longitude":-0.673955,"postcodeStart":"SL5 9","postcode":["SL5","9EX"]}
{"price":276750,"dateOfTransfer":"1995-03-09T00:00:00","postcodeFull":"SL5 9HN","propertyType":"Detached","oldOrNew":"Established","duration":"Freehold","paon":"SANDALMERE","saon":"","street":"WOODLANDS RIDE","locality":"ASCOT","townOrCity":"ASCOT","district":"WINDSOR AND MAIDENHEAD","county":"WINDSOR AND MAIDENHEAD","ppdCategoryType":"Standard","recordStatus":"Addition","latitude":51.398571,"longitude":-0.678168,"postcodeStart":"SL5 9","postcode":["SL5","9HN"]}
{"price":115000,"dateOfTransfer":"1995-03-31T00:00:00","postcodeFull":"SL5 9DP","propertyType":"Detached","oldOrNew":"Established","duration":"Freehold","paon":"3","saon":"","street":"CHURCH ROAD","locality":"ASCOT","townOrCity":"ASCOT","district":"WINDSOR AND MAIDENHEAD","county":"WINDSOR AND MAIDENHEAD","ppdCategoryType":"Standard","recordStatus":"Addition","latitude":51.40364,"longitude":-0.673119,"postcodeStart":"SL5 9","postcode":["SL5","9DP"]}
{"price":62500,"dateOfTransfer":"1995-06-23T00:00:00","postcodeFull":"SL5 9BY","propertyType":"Flat/Maisonette/Townhouse","oldOrNew":"Established","duration":"Leasehold","paon":"ST ANDREWS COURT","saon":"6","street":"CARDWELL CRESCENT","locality":"ASCOT","townOrCity":"ASCOT","district":"WINDSOR AND MAIDENHEAD","county":"WINDSOR AND MAIDENHEAD","ppdCategoryType":"Standard","recordStatus":"Addition","latitude":51.400878,"longitude":-0.662305,"postcodeStart":"SL5 9","postcode":["SL5","9BY"]}
{"price":55000,"dateOfTransfer":"1995-02-02T00:00:00","postcodeFull":"SL5 9NL","propertyType":"Terraced","oldOrNew":"Established","duration":"Freehold","paon":"19","saon":"","street":"BRIDGE ROAD","locality":"ASCOT","townOrCity":"ASCOT","district":"WINDSOR AND MAIDENHEAD","county":"WINDSOR AND MAIDENHEAD","ppdCategoryType":"Standard","recordStatus":"Addition","latitude":51.400082,"longitude":-0.655235,"postcodeStart":"SL5 9","postcode":["SL5","9NL"]}
{"price":245000,"dateOfTransfer":"1995-08-31T00:00:00","postcodeFull":"SL5 9PF","propertyType":"Detached","oldOrNew":"Established","duration":"Freehold","paon":"KENMORE","saon":"","street":"DEVENISH ROAD","locality":"ASCOT","townOrCity":"ASCOT","district":"WINDSOR AND MAIDENHEAD","county":"WINDSOR AND MAIDENHEAD","ppdCategoryType":"Standard","recordStatus":"Addition","latitude":51.3962,"longitude":-0.656286,"postcodeStart":"SL5 9","postcode":["SL5","9PF"]}
{"price":81000,"dateOfTransfer":"1995-10-10T00:00:00","postcodeFull":"SL5 9DL","propertyType":"Terraced","oldOrNew":"Established","duration":"Freehold","paon":"12","saon":"","street":"BROCKENHURST ROAD","locality":"ASCOT","townOrCity":"ASCOT","district":"WINDSOR AND MAIDENHEAD","county":"WINDSOR AND MAIDENHEAD","ppdCategoryType":"Standard","recordStatus":"Addition","latitude":51.403554,"longitude":-0.671839,"postcodeStart":"SL5 9","postcode":["SL5","9DL"]}
{"price":362675,"dateOfTransfer":"1995-09-27T00:00:00","postcodeFull":"SL5 9JY","propertyType":"Detached","oldOrNew":"Established","duration":"Freehold","paon":"GLADE","saon":"","street":"EARLEYDENE","locality":"ASCOT","townOrCity":"ASCOT","district":"WINDSOR AND MAIDENHEAD","county":"WINDSOR AND MAIDENHEAD","ppdCategoryType":"Standard","recordStatus":"Addition","latitude":51.386549,"longitude":-0.66706,"postcodeStart":"SL5 9","postcode":["SL5","9JY"]}
{"price":71000,"dateOfTransfer":"1995-09-15T00:00:00","postcodeFull":"SL5 9AG","propertyType":"Terraced","oldOrNew":"Established","duration":"Freehold","paon":"31","saon":"","street":"FRANCIS CHICHESTER CLOSE","locality":"ASCOT","townOrCity":"ASCOT","district":"WINDSOR AND MAIDENHEAD","county":"WINDSOR AND MAIDENHEAD","ppdCategoryType":"Standard","recordStatus":"Addition","latitude":51.402911,"longitude":-0.666772,"postcodeStart":"SL5 9","postcode":["SL5","9AG"]}
{"price":134750,"dateOfTransfer":"1995-09-29T00:00:00","postcodeFull":"SL5 9TB","propertyType":"Detached","oldOrNew":"Established","duration":"Freehold","paon":"5","saon":"","street":"CAVENDISH MEADS","locality":"ASCOT","townOrCity":"ASCOT","district":"WINDSOR AND MAIDENHEAD","county":"WINDSOR AND MAIDENHEAD","ppdCategoryType":"Standard","recordStatus":"Addition","latitude":51.398329,"longitude":-0.656109,"postcodeStart":"SL5 9","postcode":["SL5","9TB"]}
{"price":280000,"dateOfTransfer":"1995-01-05T00:00:00","postcodeFull":"SL5 9HZ","propertyType":"Detached","oldOrNew":"Established","duration":"Freehold","paon":"11","saon":"","street":"THE POPLARS","locality":"ASCOT","townOrCity":"ASCOT","district":"WINDSOR AND MAIDENHEAD","county":"WINDSOR AND MAIDENHEAD","ppdCategoryType":"Standard","recordStatus":"Addition","latitude":51.399777,"longitude":-0.672728,"postcodeStart":"SL5 9","postcode":["SL5","9HZ"]}
{"price":117000,"dateOfTransfer":"1995-12-06T00:00:00","postcodeFull":"SL5 9DP","propertyType":"Semi-detached","oldOrNew":"Established","duration":"Freehold","paon":"7","saon":"","street":"CHURCH ROAD","locality":"ASCOT","townOrCity":"ASCOT","district":"WINDSOR AND MAIDENHEAD","county":"WINDSOR AND MAIDENHEAD","ppdCategoryType":"Standard","recordStatus":"Addition","latitude":51.40364,"longitude":-0.673119,"postcodeStart":"SL5 9","postcode":["SL5","9DP"]}
{"price":219600,"dateOfTransfer":"1995-09-04T00:00:00","postcodeFull":"SL5 9RY","propertyType":"Detached","oldOrNew":"Established","duration":"Freehold","paon":"THE HOLT","saon":"","street":"LONDON ROAD","locality":"SUNNINGDALE","townOrCity":"ASCOT","district":"WINDSOR AND MAIDENHEAD","county":"WINDSOR AND MAIDENHEAD","ppdCategoryType":"Standard","recordStatus":"Addition","latitude":51.387561,"longitude":-0.641665,"postcodeStart":"SL5 9","postcode":["SL5","9RY"]}
{"price":73500,"dateOfTransfer":"1995-07-10T00:00:00","postcodeFull":"SL5 9RN","propertyType":"Flat/Maisonette/Townhouse","oldOrNew":"Established","duration":"Leasehold","paon":"3","saon":"","street":"THE RIDGE","locality":"ASCOT","townOrCity":"ASCOT","district":"WINDSOR AND MAIDENHEAD","county":"WINDSOR AND MAIDENHEAD","ppdCategoryType":"Standard","recordStatus":"Addition","latitude":51.390269,"longitude":-0.632454,"postcodeStart":"SL5 9","postcode":["SL5","9RN"]}
{"price":60000,"dateOfTransfer":"1995-08-04T00:00:00","postcodeFull":"SL5 9BU","propertyType":"Flat/Maisonette/Townhouse","oldOrNew":"Established","duration":"Leasehold","paon":"LYTHAM COURT","saon":"5","street":"CARDWELL CRESCENT","locality":"ASCOT","townOrCity":"ASCOT","district":"WINDSOR AND MAIDENHEAD","county":"WINDSOR AND MAIDENHEAD","ppdCategoryType":"Standard","recordStatus":"Addition","latitude":51.400945,"longitude":-0.663091,"postcodeStart":"SL5 9","postcode":["SL5","9BU"]}
{"price":325000,"dateOfTransfer":"1995-06-30T00:00:00","postcodeFull":"SL5 9LH","propertyType":"Detached","oldOrNew":"New build","duration":"Freehold","paon":"PINE COTTAGE","saon":"","street":"CORONATION ROAD","locality":"ASCOT","townOrCity":"ASCOT","district":"BRACKNELL FOREST","county":"BRACKNELL FOREST","ppdCategoryType":"Standard","recordStatus":"Addition","latitude":51.387709,"longitude":-0.673479,"postcodeStart":"SL5 9","postcode":["SL5","9LH"]}
{"price":90000,"dateOfTransfer":"1995-08-24T00:00:00","postcodeFull":"SL5 9JW","propertyType":"Flat/Maisonette/Townhouse","oldOrNew":"Established","duration":"Leasehold","paon":"MERIDIAN COURT","saon":"19","street":"BAGSHOT ROAD","locality":"ASCOT","townOrCity":"ASCOT","district":"WINDSOR AND MAIDENHEAD","county":"WINDSOR AND MAIDENHEAD","ppdCategoryType":"Standard","recordStatus":"Addition","latitude":51.389221,"longitude":-0.67036,"postcodeStart":"SL5 9","postcode":["SL5","9JW"]}
{"price":320000,"dateOfTransfer":"1995-10-26T00:00:00","postcodeFull":"SL5 9TA","propertyType":"Detached","oldOrNew":"Established","duration":"Freehold","paon":"19","saon":"","street":"ARMITAGE COURT","locality":"ASCOT","townOrCity":"ASCOT","district":"WINDSOR AND MAIDENHEAD","county":"WINDSOR AND MAIDENHEAD","ppdCategoryType":"Standard","recordStatus":"Addition","latitude":51.397525,"longitude":-0.659669,"postcodeStart":"SL5 9","postcode":["SL5","9TA"]}
{"price":62250,"dateOfTransfer":"1995-10-31T00:00:00","postcodeFull":"SL5 9BY","propertyType":"Flat/Maisonette/Townhouse","oldOrNew":"Established","duration":"Leasehold","paon":"ST ANDREWS COURT","saon":"15","street":"CARDWELL CRESCENT","locality":"ASCOT","townOrCity":"ASCOT","district":"WINDSOR AND MAIDENHEAD","county":"WINDSOR AND MAIDENHEAD","ppdCategoryType":"Standard","recordStatus":"Addition","latitude":51.400878,"longitude":-0.662305,"postcodeStart":"SL5 9","postcode":["SL5","9BY"]}
{"price":64000,"dateOfTransfer":"1995-08-23T00:00:00","postcodeFull":"SL5 9DG","propertyType":"Semi-detached","oldOrNew":"Established","duration":"Freehold","paon":"2","saon":"","street":"CROMWELL ROAD","locality":"ASCOT","townOrCity":"ASCOT","district":"WINDSOR AND MAIDENHEAD","county":"WINDSOR AND MAIDENHEAD","ppdCategoryType":"Standard","recordStatus":"Addition","latitude":51.403599,"longitude":-0.669541,"postcodeStart":"SL5 9","postcode":["SL5","9DG"]}
{"price":540000,"dateOfTransfer":"1995-11-08T00:00:00","postcodeFull":"SL5 9AZ","propertyType":"Detached","oldOrNew":"Established","duration":"Freehold","paon":"MONKS HALL","saon":"","street":"MONKS WALK","locality":"ASCOT","townOrCity":"ASCOT","district":"WINDSOR AND MAIDENHEAD","county":"WINDSOR AND MAIDENHEAD","ppdCategoryType":"Standard","recordStatus":"Addition","latitude":51.396827,"longitude":-0.668673,"postcodeStart":"SL5 9","postcode":["SL5","9AZ"]}
{"price":135000,"dateOfTransfer":"1995-07-07T00:00:00","postcodeFull":"SL5 9TB","propertyType":"Detached","oldOrNew":"Established","duration":"Freehold","paon":"101","saon":"","street":"CAVENDISH MEADS","locality":"ASCOT","townOrCity":"ASCOT","district":"WINDSOR AND MAIDENHEAD","county":"WINDSOR AND MAIDENHEAD","ppdCategoryType":"Standard","recordStatus":"Addition","latitude":51.398329,"longitude":-0.656109,"postcodeStart":"SL5 9","postcode":["SL5","9TB"]}
{"price":74500,"dateOfTransfer":"1995-08-08T00:00:00","postcodeFull":"SL5 9EN","propertyType":"Terraced","oldOrNew":"Established","duration":"Freehold","paon":"57","saon":"","street":"BOULDISH FARM ROAD","locality":"ASCOT","townOrCity":"ASCOT","district":"WINDSOR AND MAIDENHEAD","county":"WINDSOR AND MAIDENHEAD","ppdCategoryType":"Standard","recordStatus":"Addition","latitude":51.403988,"longitude":-0.676933,"postcodeStart":"SL5 9","postcode":["SL5","9EN"]}
{"price":77000,"dateOfTransfer":"1995-09-04T00:00:00","postcodeFull":"SL5 9EP","propertyType":"Terraced","oldOrNew":"Established","duration":"Freehold","paon":"9","saon":"","street":"KINROSS AVENUE","locality":"ASCOT","townOrCity":"ASCOT","district":"WINDSOR AND MAIDENHEAD","county":"WINDSOR AND MAIDENHEAD","ppdCategoryType":"Standard","recordStatus":"Addition","latitude":51.401938,"longitude":-0.681708,"postcodeStart":"SL5 9","postcode":["SL5","9EP"]}
{"price":310000,"dateOfTransfer":"1995-07-10T00:00:00","postcodeFull":"SL5 9LW","propertyType":"Detached","oldOrNew":"Established","duration":"Freehold","paon":"41","saon":"","street":"LLANVAIR DRIVE","locality":"ASCOT","townOrCity":"ASCOT","district":"WINDSOR AND MAIDENHEAD","county":"WINDSOR AND MAIDENHEAD","ppdCategoryType":"Standard","recordStatus":"Addition","latitude":51.393443,"longitude":-0.677913,"postcodeStart":"SL5 9","postcode":["SL5","9LW"]}
{"price":242000,"dateOfTransfer":"1995-08-11T00:00:00","postcodeFull":"SL5 9BP","propertyType":"Detached","oldOrNew":"Established","duration":"Freehold","paon":"31","saon":"","street":"MURRAY COURT","locality":"ASCOT","townOrCity":"ASCOT","district":"WINDSOR AND MAIDENHEAD","county":"WINDSOR AND MAIDENHEAD","ppdCategoryType":"Standard","recordStatus":"Addition","latitude":51.397373,"longitude":-0.662146,"postcodeStart":"SL5 9","postcode":["SL5","9BP"]}
{"price":248000,"dateOfTransfer":"1995-08-09T00:00:00","postcodeFull":"SL5 9QD","propertyType":"Detached","oldOrNew":"New build","duration":"Freehold","paon":"JANALA","saon":"","street":"CHARTERS ROAD","locality":"ASCOT","townOrCity":"ASCOT","district":"WINDSOR AND MAIDENHEAD","county":"WINDSOR AND MAIDENHEAD","ppdCategoryType":"Standard","recordStatus":"Addition","latitude":51.392291,"longitude":-0.638378,"postcodeStart":"SL5 9","postcode":["SL5","9QD"]}
{"price":93500,"dateOfTransfer":"1995-06-16T00:00:00","postcodeFull":"SL5 9NL","propertyType":"Terraced","oldOrNew":"Established","duration":"Freehold","paon":"17","saon":"","street":"BRIDGE ROAD","locality":"ASCOT","townOrCity":"ASCOT","district":"WINDSOR AND MAIDENHEAD","county":"WINDSOR AND MAIDENHEAD","ppdCategoryType":"Standard","recordStatus":"Addition","latitude":51.400082,"longitude":-0.655235,"postcodeStart":"SL5 9","postcode":["SL5","9NL"]}
{"price":50000,"dateOfTransfer":"1995-08-14T00:00:00","postcodeFull":"SL5 9UY","propertyType":"Flat/Maisonette/Townhouse","oldOrNew":"Established","duration":"Leasehold","paon":"72","saon":"","street":"LIDDELL WAY","locality":"ASCOT","townOrCity":"ASCOT","district":"WINDSOR AND MAIDENHEAD","county":"WINDSOR AND MAIDENHEAD","ppdCategoryType":"Standard","recordStatus":"Addition","latitude":51.401863,"longitude":-0.679798,"postcodeStart":"SL5 9","postcode":["SL5","9UY"]}
{"price":59950,"dateOfTransfer":"1995-03-03T00:00:00","postcodeFull":"SL5 9BY","propertyType":"Flat/Maisonette/Townhouse","oldOrNew":"Established","duration":"Leasehold","paon":"ST ANDREWS COURT","saon":"5","street":"CARDWELL CRESCENT","locality":"ASCOT","townOrCity":"ASCOT","district":"WINDSOR AND MAIDENHEAD","county":"WINDSOR AND MAIDENHEAD","ppdCategoryType":"Standard","recordStatus":"Addition","latitude":51.400878,"longitude":-0.662305,"postcodeStart":"SL5 9","postcode":["SL5","9BY"]}
{"price":315000,"dateOfTransfer":"1995-04-07T00:00:00","postcodeFull":"SL5 9PT","propertyType":"Detached","oldOrNew":"Established","duration":"Freehold","paon":"7","saon":"","street":"CHANCTONBURY DRIVE","locality":"ASCOT","townOrCity":"ASCOT","district":"WINDSOR AND MAIDENHEAD","county":"WINDSOR AND MAIDENHEAD","ppdCategoryType":"Standard","recordStatus":"Addition","latitude":51.389507,"longitude":-0.645919,"postcodeStart":"SL5 9","postcode":["SL5","9PT"]}
{"price":119000,"dateOfTransfer":"1995-04-20T00:00:00","postcodeFull":"SL5 9BH","propertyType":"Detached","oldOrNew":"Established","duration":"Freehold","paon":"82","saon":"","street":"LOWER VILLAGE ROAD","locality":"ASCOT","townOrCity":"ASCOT","district":"WINDSOR AND MAIDENHEAD","county":"WINDSOR AND MAIDENHEAD","ppdCategoryType":"Standard","recordStatus":"Addition","latitude":51.402608,"longitude":-0.665429,"postcodeStart":"SL5 9","postcode":["SL5","9BH"]}
{"price":235000,"dateOfTransfer":"1995-12-15T00:00:00","postcodeFull":"SL5 9QQ","propertyType":"Detached","oldOrNew":"New build","duration":"Freehold","paon":"15","saon":"","street":"CHARTERS WAY","locality":"ASCOT","townOrCity":"ASCOT","district":"WINDSOR AND MAIDENHEAD","county":"WINDSOR AND MAIDENHEAD","ppdCategoryType":"Standard","recordStatus":"Addition","latitude":51.392418,"longitude":-0.636318,"postcodeStart":"SL5 9","postcode":["SL5","9QQ"]}
{"price":104000,"dateOfTransfer":"1995-10-06T00:00:00","postcodeFull":"SL5 9DN","propertyType":"Semi-detached","oldOrNew":"Established","duration":"Freehold","paon":"35","saon":"","street":"OLIVER ROAD","locality":"ASCOT","townOrCity":"ASCOT","district":"WINDSOR AND MAIDENHEAD","county":"WINDSOR AND MAIDENHEAD","ppdCategoryType":"Standard","recordStatus":"Addition","latitude":51.403965,"longitude":-0.672431,"postcodeStart":"SL5 9","postcode":["SL5","9DN"]}
{"price":77950,"dateOfTransfer":"1995-05-25T00:00:00","postcodeFull":"SL5 9JW","propertyType":"Flat/Maisonette/Townhouse","oldOrNew":"Established","duration":"Leasehold","paon":"MERIDIAN COURT","saon":"9","street":"BAGSHOT ROAD","locality":"ASCOT","townOrCity":"ASCOT","district":"WINDSOR AND MAIDENHEAD","county":"WINDSOR AND MAIDENHEAD","ppdCategoryType":"Standard","recordStatus":"Addition","latitude":51.389221,"longitude":-0.67036,"postcodeStart":"SL5 9","postcode":["SL5","9JW"]}
{"price":405000,"dateOfTransfer":"1995-11-16T00:00:00","postcodeFull":"SL5 9PT","propertyType":"Detached","oldOrNew":"Established","duration":"Freehold","paon":"19","saon":"","street":"CHANCTONBURY DRIVE","locality":"ASCOT","townOrCity":"ASCOT","district":"WINDSOR AND MAIDENHEAD","county":"WINDSOR AND MAIDENHEAD","ppdCategoryType":"Standard","recordStatus":"Addition","latitude":51.389507,"longitude":-0.645919,"postcodeStart":"SL5 9","postcode":["SL5","9PT"]}
{"price":205000,"dateOfTransfer":"1995-06-08T00:00:00","postcodeFull":"SL5 9BP","propertyType":"Detached","oldOrNew":"Established","duration":"Freehold","paon":"13","saon":"","street":"MURRAY COURT","locality":"ASCOT","townOrCity":"ASCOT","district":"WINDSOR AND MAIDENHEAD","county":"WINDSOR AND MAIDENHEAD","ppdCategoryType":"Standard","recordStatus":"Addition","latitude":51.397373,"longitude":-0.662146,"postcodeStart":"SL5 9","postcode":["SL5","9BP"]}
{"price":121000,"dateOfTransfer":"1995-03-21T00:00:00","postcodeFull":"SL5 9EB","propertyType":"Terraced","oldOrNew":"Established","duration":"Freehold","paon":"13","saon":"","street":"ALL SOULS ROAD","locality":"ASCOT","townOrCity":"ASCOT","district":"WINDSOR AND MAIDENHEAD","county":"WINDSOR AND MAIDENHEAD","ppdCategoryType":"Standard","recordStatus":"Addition","latitude":51.404088,"longitude":-0.674587,"postcodeStart":"SL5 9","postcode":["SL5","9EB"]}
{"price":175000,"dateOfTransfer":"1995-02-28T00:00:00","postcodeFull":"SL5 9HD","propertyType":"Flat/Maisonette/Townhouse","oldOrNew":"Established","duration":"Leasehold","paon":"FRIARY HALL","saon":"FLAT 1","street":"FRIARY ROAD","locality":"ASCOT","townOrCity":"ASCOT","district":"WINDSOR AND MAIDENHEAD","county":"WINDSOR AND MAIDENHEAD","ppdCategoryType":"Standard","recordStatus":"Addition","latitude":51.397756,"longitude":-0.670472,"postcodeStart":"SL5 9","postcode":["SL5","9HD"]}
{"price":85500,"dateOfTransfer":"1995-06-16T00:00:00","postcodeFull":"SL5 9NJ","propertyType":"Semi-detached","oldOrNew":"Established","duration":"Freehold","paon":"6","saon":"","street":"BOWDEN ROAD","locality":"ASCOT","townOrCity":"ASCOT","district":"WINDSOR AND MAIDENHEAD","county":"WINDSOR AND MAIDENHEAD","ppdCategoryType":"Standard","recordStatus":"Addition","latitude":51.40142,"longitude":-0.657442,"postcodeStart":"SL5 9","postcode":["SL5","9NJ"]}
{"price":141000,"dateOfTransfer":"1995-05-31T00:00:00","postcodeFull":"SL5 9DQ","propertyType":"Semi-detached","oldOrNew":"Established","duration":"Freehold","paon":"2","saon":"","street":"SPRING GARDENS","locality":"SOUTH ASCOT","townOrCity":"ASCOT","district":"WINDSOR AND MAIDENHEAD","county":"WINDSOR AND MAIDENHEAD","ppdCategoryType":"Standard","recordStatus":"Addition","latitude":51.403708,"longitude":-0.670931,"postcodeStart":"SL5 9","postcode":["SL5","9DQ"]}
{"price":60000,"dateOfTransfer":"1995-10-30T00:00:00","postcodeFull":"SL5 9PU","propertyType":"Flat/Maisonette/Townhouse","oldOrNew":"Established","duration":"Leasehold","paon":"8","saon":"","street":"GLADE HOUSES","locality":"SUNNINGHILL","townOrCity":"ASCOT","district":"WINDSOR AND MAIDENHEAD","county":"WINDSOR AND MAIDENHEAD","ppdCategoryType":"Standard","recordStatus":"Addition","latitude":51.400359,"longitude":-0.656668,"postcodeStart":"SL5 9","postcode":["SL5","9PU"]}
{"price":54600,"dateOfTransfer":"1995-09-08T00:00:00","postcodeFull":"SL5 9BX","propertyType":"Flat/Maisonette/Townhouse","oldOrNew":"Established","duration":"Leasehold","paon":"TROON COURT","saon":"15","street":"CARDWELL CRESCENT","locality":"ASCOT","townOrCity":"ASCOT","district":"WINDSOR AND MAIDENHEAD","county":"WINDSOR AND MAIDENHEAD","ppdCategoryType":"Standard","recordStatus":"Addition","latitude":51.400646,"longitude":-0.66287,"postcodeStart":"SL5 9","postcode":["SL5","9BX"]}
{"price":95000,"dateOfTransfer":"1995-03-07T00:00:00","postcodeFull":"SL5 9DG","propertyType":"Semi-detached","oldOrNew":"Established","duration":"Freehold","paon":"25","saon":"","street":"CROMWELL ROAD","locality":"ASCOT","townOrCity":"ASCOT","district":"WINDSOR AND MAIDENHEAD","county":"WINDSOR AND MAIDENHEAD","ppdCategoryType":"Standard","recordStatus":"Addition","latitude":51.403599,"longitude":-0.669541,"postcodeStart":"SL5 9","postcode":["SL5","9DG"]}
{"price":217298,"dateOfTransfer":"1995-07-20T00:00:00","postcodeFull":"SL5 9AX","propertyType":"Detached","oldOrNew":"Established","duration":"Freehold","paon":"DUNELM HOUSE","saon":"","street":"ST MARYS ROAD","locality":"ASCOT","townOrCity":"ASCOT","district":"WINDSOR AND MAIDENHEAD","county":"WINDSOR AND MAIDENHEAD","ppdCategoryType":"Standard","recordStatus":"Addition","latitude":51.395873,"longitude":-0.665065,"postcodeStart":"SL5 9","postcode":["SL5","9AX"]}
{"price":305000,"dateOfTransfer":"1995-11-06T00:00:00","postcodeFull":"SL5 9LH","propertyType":"Detached","oldOrNew":"New build","duration":"Freehold","paon":"EARLEYWOOD PINES","saon":"2","street":"CORONATION ROAD","locality":"ASCOT","townOrCity":"ASCOT","district":"BRACKNELL FOREST","county":"BRACKNELL FOREST","ppdCategoryType":"Standard","recordStatus":"Addition","latitude":51.387709,"longitude":-0.673479,"postcodeStart":"SL5 9","postcode":["SL5","9LH"]}
{"price":86500,"dateOfTransfer":"1995-03-10T00:00:00","postcodeFull":"SL5 9DG","propertyType":"Terraced","oldOrNew":"Established","duration":"Freehold","paon":"7","saon":"","street":"CROMWELL ROAD","locality":"ASCOT","townOrCity":"ASCOT","district":"WINDSOR AND MAIDENHEAD","county":"WINDSOR AND MAIDENHEAD","ppdCategoryType":"Standard","recordStatus":"Addition","latitude":51.403599,"longitude":-0.669541,"postcodeStart":"SL5 9","postcode":["SL5","9DG"]}
{"price":222500,"dateOfTransfer":"1995-09-18T00:00:00","postcodeFull":"SL5 9AX","propertyType":"Detached","oldOrNew":"Established","duration":"Freehold","paon":"GREYSTONES","saon":"","street":"ST MARYS ROAD","locality":"ASCOT","townOrCity":"ASCOT","district":"WINDSOR AND MAIDENHEAD","county":"WINDSOR AND MAIDENHEAD","ppdCategoryType":"Standard","recordStatus":"Addition","latitude":51.395873,"longitude":-0.665065,"postcodeStart":"SL5 9","postcode":["SL5","9AX"]}
{"price":85000,"dateOfTransfer":"1995-09-07T00:00:00","postcodeFull":"SL5 9JW","propertyType":"Semi-detached","oldOrNew":"Established","duration":"Leasehold","paon":"MERIDIAN COURT","saon":"13","street":"BAGSHOT ROAD","locality":"ASCOT","townOrCity":"ASCOT","district":"WINDSOR AND MAIDENHEAD","county":"WINDSOR AND MAIDENHEAD","ppdCategoryType":"Standard","recordStatus":"Addition","latitude":51.389221,"longitude":-0.67036,"postcodeStart":"SL5 9","postcode":["SL5","9JW"]}
{"price":350000,"dateOfTransfer":"1995-04-04T00:00:00","postcodeFull":"SL5 9RU","propertyType":"Flat/Maisonette/Townhouse","oldOrNew":"Established","duration":"Leasehold","paon":"MUIRFIELD HOUSE","saon":"1","street":"CROSS ROAD","locality":"ASCOT","townOrCity":"ASCOT","district":"WINDSOR AND MAIDENHEAD","county":"WINDSOR AND MAIDENHEAD","ppdCategoryType":"Standard","recordStatus":"Addition","latitude":51.385855,"longitude":-0.634961,"postcodeStart":"SL5 9","postcode":["SL5","9RU"]}
{"price":99000,"dateOfTransfer":"1995-12-15T00:00:00","postcodeFull":"SL5 9AT","propertyType":"Semi-detached","oldOrNew":"Established","duration":"Freehold","paon":"RIDGEMOUNT","saon":"1","street":"ST MARYS HILL","locality":"ASCOT","townOrCity":"ASCOT","district":"WINDSOR AND MAIDENHEAD","county":"WINDSOR AND MAIDENHEAD","ppdCategoryType":"Standard","recordStatus":"Addition","latitude":51.400074,"longitude":-0.659264,"postcodeStart":"SL5 9","postcode":["SL5","9AT"]}
{"price":950000,"dateOfTransfer":"1995-01-27T00:00:00","postcodeFull":"SL5 9LB","propertyType":"Detached","oldOrNew":"Established","duration":"Freehold","paon":"EARLYWOOD ORCHARD","saon":"","street":"CORONATION ROAD","locality":"ASCOT","townOrCity":"ASCOT","district":"BRACKNELL FOREST","county":"BRACKNELL FOREST","ppdCategoryType":"Standard","recordStatus":"Addition","latitude":51.384505,"longitude":-0.672422,"postcodeStart":"SL5 9","postcode":["SL5","9LB"]}
{"price":78000,"dateOfTransfer":"1995-10-20T00:00:00","postcodeFull":"SL5 9EU","propertyType":"Terraced","oldOrNew":"Established","duration":"Freehold","paon":"13","saon":"","street":"STANMORE CLOSE","locality":"ASCOT","townOrCity":"ASCOT","district":"WINDSOR AND MAIDENHEAD","county":"WINDSOR AND MAIDENHEAD","ppdCategoryType":"Standard","recordStatus":"Addition","latitude":51.405248,"longitude":-0.67464,"postcodeStart":"SL5 9","postcode":["SL5","9EU"]}
{"price":43000,"dateOfTransfer":"1995-12-21T00:00:00","postcodeFull":"SL5 9UX","propertyType":"Flat/Maisonette/Townhouse","oldOrNew":"Established","duration":"Leasehold","paon":"18","saon":"","street":"LIDDELL WAY","locality":"ASCOT","townOrCity":"ASCOT","district":"WINDSOR AND MAIDENHEAD","county":"WINDSOR AND MAIDENHEAD","ppdCategoryType":"Standard","recordStatus":"Addition","latitude":51.402125,"longitude":-0.679977,"postcodeStart":"SL5 9","postcode":["SL5","9UX"]}
{"price":205000,"dateOfTransfer":"1995-10-20T00:00:00","postcodeFull":"SL5 9AS","propertyType":"Detached","oldOrNew":"Established","duration":"Freehold","paon":"BRIAR COOMBE","saon":"","street":"ST MARYS HILL","locality":"ASCOT","townOrCity":"ASCOT","district":"WINDSOR AND MAIDENHEAD","county":"WINDSOR AND MAIDENHEAD","ppdCategoryType":"Standard","recordStatus":"Addition","latitude":51.400502,"longitude":-0.658992,"postcodeStart":"SL5 9","postcode":["SL5","9AS"]}
{"price":250000,"dateOfTransfer":"1995-11-17T00:00:00","postcodeFull":"SL5 9RU","propertyType":"Flat/Maisonette/Townhouse","oldOrNew":"Established","duration":"Leasehold","paon":"TURNBERRY HOUSE","saon":"3","street":"CROSS ROAD","locality":"ASCOT","townOrCity":"ASCOT","district":"WINDSOR AND MAIDENHEAD","county":"WINDSOR AND MAIDENHEAD","ppdCategoryType":"Standard","recordStatus":"Addition","latitude":51.385855,"longitude":-0.634961,"postcodeStart":"SL5 9","postcode":["SL5","9RU"]}
{"price":91500,"dateOfTransfer":"1995-11-03T00:00:00","postcodeFull":"SL5 9NL","propertyType":"Terraced","oldOrNew":"Established","duration":"Freehold","paon":"19","saon":"","street":"BRIDGE ROAD","locality":"ASCOT","townOrCity":"ASCOT","district":"WINDSOR AND MAIDENHEAD","county":"WINDSOR AND MAIDENHEAD","ppdCategoryType":"Standard","recordStatus":"Addition","latitude":51.400082,"longitude":-0.655235,"postcodeStart":"SL5 9","postcode":["SL5","9NL"]}
{"price":325000,"dateOfTransfer":"1995-02-03T00:00:00","postcodeFull":"SL5 9LN","propertyType":"Detached","oldOrNew":"Established","duration":"Freehold","paon":"MARICEL, 52A","saon":"","street":"LLANVAIR DRIVE","locality":"","townOrCity":"ASCOT","district":"WINDSOR AND MAIDENHEAD","county":"WINDSOR AND MAIDENHEAD","ppdCategoryType":"Standard","recordStatus":"Addition","latitude":51.392742,"longitude":-0.677991,"postcodeStart":"SL5 9","postcode":["SL5","9LN"]}
{"price":392000,"dateOfTransfer":"1995-09-01T00:00:00","postcodeFull":"SL5 9AP","propertyType":"Detached","oldOrNew":"New build","duration":"Freehold","paon":"ELIBANK","saon":"","street":"ST MARYS HILL","locality":"ASCOT","townOrCity":"ASCOT","district":"WINDSOR AND MAIDENHEAD","county":"WINDSOR AND MAIDENHEAD","ppdCategoryType":"Standard","recordStatus":"Addition","latitude":51.398654,"longitude":-0.662482,"postcodeStart":"SL5 9","postcode":["SL5","9AP"]}
{"price":210000,"dateOfTransfer":"1995-07-18T00:00:00","postcodeFull":"SL5 9SP","propertyType":"Detached","oldOrNew":"Established","duration":"Freehold","paon":"71","saon":"","street":"HURSTWOOD","locality":"ASCOT","townOrCity":"ASCOT","district":"WINDSOR AND MAIDENHEAD","county":"WINDSOR AND MAIDENHEAD","ppdCategoryType":"Standard","recordStatus":"Addition","latitude":51.397325,"longitude":-0.675343,"postcodeStart":"SL5 9","postcode":["SL5","9SP"]}
{"price":570000,"dateOfTransfer":"1995-11-16T00:00:00","postcodeFull":"SL5 9QH","propertyType":"Detached","oldOrNew":"New build","duration":"Freehold","paon":"OAKWOOD","saon":"","street":"LADY MARGARET ROAD","locality":"ASCOT","townOrCity":"ASCOT","district":"WINDSOR AND MAIDENHEAD","county":"WINDSOR AND MAIDENHEAD","ppdCategoryType":"Standard","recordStatus":"Addition","latitude":51.390488,"longitude":-0.637424,"postcodeStart":"SL5 9","postcode":["SL5","9QH"]}
{"price":196000,"dateOfTransfer":"1995-06-16T00:00:00","postcodeFull":"SL5 9SP","propertyType":"Detached","oldOrNew":"Established","duration":"Freehold","paon":"61","saon":"","street":"HURSTWOOD","locality":"ASCOT","townOrCity":"ASCOT","district":"WINDSOR AND MAIDENHEAD","county":"WINDSOR AND MAIDENHEAD","ppdCategoryType":"Standard","recordStatus":"Addition","latitude":51.397325,"longitude":-0.675343,"postcodeStart":"SL5 9","postcode":["SL5","9SP"]}
{"price":240000,"dateOfTransfer":"1995-03-14T00:00:00","postcodeFull":"SL5 9RY","propertyType":"Detached","oldOrNew":"Established","duration":"Freehold","paon":"HOLLY TREE HOUSE","saon":"","street":"LONDON ROAD","locality":"SUNNINGDALE","townOrCity":"ASCOT","district":"WINDSOR AND MAIDENHEAD","county":"WINDSOR AND MAIDENHEAD","ppdCategoryType":"Standard","recordStatus":"Addition","latitude":51.387561,"longitude":-0.641665,"postcodeStart":"SL5 9","postcode":["SL5","9RY"]}
{"price":280000,"dateOfTransfer":"1995-08-16T00:00:00","postcodeFull":"SL5 9TJ","propertyType":"Detached","oldOrNew":"Established","duration":"Freehold","paon":"20","saon":"","street":"HOLMES CLOSE","locality":"ASCOT","townOrCity":"ASCOT","district":"WINDSOR AND MAIDENHEAD","county":"WINDSOR AND MAIDENHEAD","ppdCategoryType":"Standard","recordStatus":"Addition","latitude":51.396701,"longitude":-0.657637,"postcodeStart":"SL5 9","postcode":["SL5","9TJ"]}
{"price":138000,"dateOfTransfer":"1995-12-15T00:00:00","postcodeFull":"SL5 9TD","propertyType":"Detached","oldOrNew":"Established","duration":"Freehold","paon":"96","saon":"","street":"CAVENDISH MEADS","locality":"ASCOT","townOrCity":"ASCOT","district":"WINDSOR AND MAIDENHEAD","county":"WINDSOR AND MAIDENHEAD","ppdCategoryType":"Standard","recordStatus":"Addition","latitude":51.397458,"longitude":-0.656235,"postcodeStart":"SL5 9","postcode":["SL5","9TD"]}
{"price":380000,"dateOfTransfer":"1995-07-24T00:00:00","postcodeFull":"SL5 9JY","propertyType":"Detached","oldOrNew":"Established","duration":"Freehold","paon":"EARLEYDENE COTTAGE","saon":"","street":"EARLEYDENE","locality":"ASCOT","townOrCity":"ASCOT","district":"WINDSOR AND MAIDENHEAD","county":"WINDSOR AND MAIDENHEAD","ppdCategoryType":"Standard","recordStatus":"Addition","latitude":51.386549,"longitude":-0.66706,"postcodeStart":"SL5 9","postcode":["SL5","9JY"]}
{"price":228000,"dateOfTransfer":"1995-10-20T00:00:00","postcodeFull":"SL5 9SP","propertyType":"Detached","oldOrNew":"Established","duration":"Freehold","paon":"8","saon":"","street":"HURSTWOOD","locality":"ASCOT","townOrCity":"ASCOT","district":"WINDSOR AND MAIDENHEAD","county":"WINDSOR AND MAIDENHEAD","ppdCategoryType":"Standard","recordStatus":"Addition","latitude":51.397325,"longitude":-0.675343,"postcodeStart":"SL5 9","postcode":["SL5","9SP"]}
{"price":125000,"dateOfTransfer":"1995-01-06T00:00:00","postcodeFull":"SL5 9UG","propertyType":"Flat/Maisonette/Townhouse","oldOrNew":"Established","duration":"Leasehold","paon":"FOXHAVEN COURT","saon":"6","street":"BAGSHOT ROAD","locality":"ASCOT","townOrCity":"ASCOT","district":"WINDSOR AND MAIDENHEAD","county":"WINDSOR AND MAIDENHEAD","ppdCategoryType":"Standard","recordStatus":"Addition","latitude":51.399669,"longitude":-0.657694,"postcodeStart":"SL5 9","postcode":["SL5","9UG"]}
{"price":102000,"dateOfTransfer":"1995-08-15T00:00:00","postcodeFull":"SL5 9DZ","propertyType":"Detached","oldOrNew":"Established","duration":"Freehold","paon":"10","saon":"","street":"OLIVER ROAD","locality":"ASCOT","townOrCity":"ASCOT","district":"WINDSOR AND MAIDENHEAD","county":"WINDSOR AND MAIDENHEAD","ppdCategoryType":"Standard","recordStatus":"Addition","latitude":51.404277,"longitude":-0.670657,"postcodeStart":"SL5 9","postcode":["SL5","9DZ"]}
{"price":235000,"dateOfTransfer":"1995-05-31T00:00:00","postcodeFull":"SL5 9QQ","propertyType":"Detached","oldOrNew":"New build","duration":"Freehold","paon":"18","saon":"","street":"CHARTERS WAY","locality":"ASCOT","townOrCity":"ASCOT","district":"WINDSOR AND MAIDENHEAD","county":"WINDSOR AND MAIDENHEAD","ppdCategoryType":"Standard","recordStatus":"Addition","latitude":51.392418,"longitude":-0.636318,"postcodeStart":"SL5 9","postcode":["SL5","9QQ"]}
{"price":490000,"dateOfTransfer":"1995-11-08T00:00:00","postcodeFull":"SL5 9JJ","propertyType":"Detached","oldOrNew":"New build","duration":"Freehold","paon":"3","saon":"","street":"KELSALL PLACE","locality":"ASCOT","townOrCity":"ASCOT","district":"WINDSOR AND MAIDENHEAD","county":"WINDSOR AND MAIDENHEAD","ppdCategoryType":"Standard","recordStatus":"Addition","latitude":51.391683,"longitude":-0.665488,"postcodeStart":"SL5 9","postcode":["SL5","9JJ"]}
{"price":73000,"dateOfTransfer":"1995-07-18T00:00:00","postcodeFull":"SL5 9EH","propertyType":"Terraced","oldOrNew":"Established","duration":"Freehold","paon":"78","saon":"","street":"CARROLL CRESCENT","locality":"ASCOT","townOrCity":"ASCOT","district":"WINDSOR AND MAIDENHEAD","county":"WINDSOR AND MAIDENHEAD","ppdCategoryType":"Standard","recordStatus":"Addition","latitude":51.404291,"longitude":-0.681425,"postcodeStart":"SL5 9","postcode":["SL5","9EH"]}
{"price":62000,"dateOfTransfer":"1995-04-28T00:00:00","postcodeFull":"SL5 9EN","propertyType":"Semi-detached","oldOrNew":"Established","duration":"Freehold","paon":"5","saon":"","street":"BOULDISH FARM ROAD","locality":"ASCOT","townOrCity":"ASCOT","district":"WINDSOR AND MAIDENHEAD","county":"WINDSOR AND MAIDENHEAD","ppdCategoryType":"Standard","recordStatus":"Addition","latitude":51.403988,"longitude":-0.676933,"postcodeStart":"SL5 9","postcode":["SL5","9EN"]}
{"price":128500,"dateOfTransfer":"1995-06-16T00:00:00","postcodeFull":"SL5 9UG","propertyType":"Flat/Maisonette/Townhouse","oldOrNew":"Established","duration":"Leasehold","paon":"FOXHAVEN COURT","saon":"3","street":"BAGSHOT ROAD","locality":"ASCOT","townOrCity":"ASCOT","district":"WINDSOR AND MAIDENHEAD","county":"WINDSOR AND MAIDENHEAD","ppdCategoryType":"Standard","recordStatus":"Addition","latitude":51.399669,"longitude":-0.657694,"postcodeStart":"SL5 9","postcode":["SL5","9UG"]}
{"price":313000,"dateOfTransfer":"1995-08-31T00:00:00","postcodeFull":"SL5 9HP","propertyType":"Detached","oldOrNew":"Established","duration":"Freehold","paon":"7","saon":"","street":"WOODLANDS RIDE","locality":"ASCOT","townOrCity":"ASCOT","district":"WINDSOR AND MAIDENHEAD","county":"WINDSOR AND MAIDENHEAD","ppdCategoryType":"Standard","recordStatus":"Addition","latitude":51.398117,"longitude":-0.677764,"postcodeStart":"SL5 9","postcode":["SL5","9HP"]}
{"price":100000,"dateOfTransfer":"1995-01-13T00:00:00","postcodeFull":"SL5 9NF","propertyType":"Terraced","oldOrNew":"Established","duration":"Freehold","paon":"48","saon":"FLAT","street":"HIGH STREET","locality":"SUNNINGHILL","townOrCity":"ASCOT","district":"WINDSOR AND MAIDENHEAD","county":"WINDSOR AND MAIDENHEAD","ppdCategoryType":"Standard","recordStatus":"Addition","latitude":51.400987,"longitude":-0.655772,"postcodeStart":"SL5 9","postcode":["SL5","9NF"]}
{"price":205000,"dateOfTransfer":"1995-06-21T00:00:00","postcodeFull":"SL5 9BW","propertyType":"Detached","oldOrNew":"Established","duration":"Freehold","paon":"17","saon":"","street":"NORTON PARK","locality":"ASCOT","townOrCity":"ASCOT","district":"WINDSOR AND MAIDENHEAD","county":"WINDSOR AND MAIDENHEAD","ppdCategoryType":"Standard","recordStatus":"Addition","latitude":51.400401,"longitude":-0.661123,"postcodeStart":"SL5 9","postcode":["SL5","9BW"]}
{"price":97000,"dateOfTransfer":"1995-04-20T00:00:00","postcodeFull":"SL5 9DN","propertyType":"Semi-detached","oldOrNew":"Established","duration":"Freehold","paon":"31","saon":"","street":"OLIVER ROAD","locality":"ASCOT","townOrCity":"ASCOT","district":"WINDSOR AND MAIDENHEAD","county":"WINDSOR AND MAIDENHEAD","ppdCategoryType":"Standard","recordStatus":"Addition","latitude":51.403965,"longitude":-0.672431,"postcodeStart":"SL5 9","postcode":["SL5","9DN"]}
{"price":94500,"dateOfTransfer":"1995-07-28T00:00:00","postcodeFull":"SL5 9DQ","propertyType":"Terraced","oldOrNew":"Established","duration":"Freehold","paon":"18","saon":"","street":"SPRING GARDENS","locality":"SOUTH ASCOT","townOrCity":"ASCOT","district":"WINDSOR AND MAIDENHEAD","county":"WINDSOR AND MAIDENHEAD","ppdCategoryType":"Standard","recordStatus":"Addition","latitude":51.403708,"longitude":-0.670931,"postcodeStart":"SL5 9","postcode":["SL5","9DQ"]}
{"price":55000,"dateOfTransfer":"1995-12-08T00:00:00","postcodeFull":"SL5 9EQ","propertyType":"Terraced","oldOrNew":"Established","duration":"Freehold","paon":"40","saon":"","street":"BOULDISH FARM ROAD","locality":"ASCOT","townOrCity":"ASCOT","district":"WINDSOR AND MAIDENHEAD","county":"WINDSOR AND MAIDENHEAD","ppdCategoryType":"Standard","recordStatus":"Addition","latitude":51.40445,"longitude":-0.677164,"postcodeStart":"SL5 9","postcode":["SL5","9EQ"]}
{"price":88000,"dateOfTransfer":"1995-10-20T00:00:00","postcodeFull":"SL5 9HA","propertyType":"Flat/Maisonette/Townhouse","oldOrNew":"Established","duration":"Leasehold","paon":"THE FRITH","saon":"LAND ASSOCIATED WITH FLAT 4","street":"LAND ASSOCIATED WITH","locality":"GREENBANK ROAD","townOrCity":"ASCOT","district":"WINDSOR AND MAIDENHEAD","county":"WINDSOR AND MAIDENHEAD","ppdCategoryType":"Standard","recordStatus":"Addition","latitude":51.397966,"longitude":-0.667559,"postcodeStart":"SL5 9","postcode":["SL5","9HA"]}
{"price":295000,"dateOfTransfer":"1995-11-17T00:00:00","postcodeFull":"SL5 9RU","propertyType":"Flat/Maisonette/Townhouse","oldOrNew":"Established","duration":"Leasehold","paon":"MUIRFIELD HOUSE","saon":"3","street":"CROSS ROAD","locality":"ASCOT","townOrCity":"ASCOT","district":"WINDSOR AND MAIDENHEAD","county":"WINDSOR AND MAIDENHEAD","ppdCategoryType":"Standard","recordStatus":"Addition","latitude":51.385855,"longitude":-0.634961,"postcodeStart":"SL5 9","postcode":["SL5","9RU"]}
{"price":160000,"dateOfTransfer":"1995-12-14T00:00:00","postcodeFull":"SL5 9HB","propertyType":"Semi-detached","oldOrNew":"Established","duration":"Freehold","paon":"HAINING END","saon":"","street":"BROCKENHURST ROAD","locality":"ASCOT","townOrCity":"ASCOT","district":"WINDSOR AND MAIDENHEAD","county":"WINDSOR AND MAIDENHEAD","ppdCategoryType":"Standard","recordStatus":"Addition","latitude":51.398006,"longitude":-0.666364,"postcodeStart":"SL5 9","postcode":["SL5","9HB"]}
{"price":94500,"dateOfTransfer":"1995-03-31T00:00:00","postcodeFull":"SL5 9DN","propertyType":"Semi-detached","oldOrNew":"Established","duration":"Freehold","paon":"37","saon":"","street":"OLIVER ROAD","locality":"ASCOT","townOrCity":"ASCOT","district":"WINDSOR AND MAIDENHEAD","county":"WINDSOR AND MAIDENHEAD","ppdCategoryType":"Standard","recordStatus":"Addition","latitude":51.403965,"longitude":-0.672431,"postcodeStart":"SL5 9","postcode":["SL5","9DN"]}
{"price":220000,"dateOfTransfer":"1995-08-25T00:00:00","postcodeFull":"SL5 9TA","propertyType":"Detached","oldOrNew":"Established","duration":"Freehold","paon":"20","saon":"","street":"ARMITAGE COURT","locality":"ASCOT","townOrCity":"ASCOT","district":"WINDSOR AND MAIDENHEAD","county":"WINDSOR AND MAIDENHEAD","ppdCategoryType":"Standard","recordStatus":"Addition","latitude":51.397525,"longitude":-0.659669,"postcodeStart":"SL5 9","postcode":["SL5","9TA"]}
{"price":710000,"dateOfTransfer":"1995-10-27T00:00:00","postcodeFull":"SL5 9JG","propertyType":"Detached","oldOrNew":"Established","duration":"Freehold","paon":"HUNTERS MANOR","saon":"","street":"BAGSHOT ROAD","locality":"ASCOT","townOrCity":"ASCOT","district":"WINDSOR AND MAIDENHEAD","county":"WINDSOR AND MAIDENHEAD","ppdCategoryType":"Standard","recordStatus":"Addition","latitude":51.393585,"longitude":-0.663474,"postcodeStart":"SL5 9","postcode":["SL5","9JG"]}
{"price":226000,"dateOfTransfer":"1995-08-16T00:00:00","postcodeFull":"SL5 9SP","propertyType":"Detached","oldOrNew":"Established","duration":"Freehold","paon":"10","saon":"","street":"HURSTWOOD","locality":"ASCOT","townOrCity":"ASCOT","district":"WINDSOR AND MAIDENHEAD","county":"WINDSOR AND MAIDENHEAD","ppdCategoryType":"Standard","recordStatus":"Addition","latitude":51.397325,"longitude":-0.675343,"postcodeStart":"SL5 9","postcode":["SL5","9SP"]}
{"price":125000,"dateOfTransfer":"1995-03-31T00:00:00","postcodeFull":"SL5 9ET","propertyType":"Detached","oldOrNew":"Established","duration":"Freehold","paon":"5","saon":"","street":"ROYAL VICTORIA GARDENS","locality":"SOUTH ASCOT","townOrCity":"ASCOT","district":"WINDSOR AND MAIDENHEAD","county":"WINDSOR AND MAIDENHEAD","ppdCategoryType":"Standard","recordStatus":"Addition","latitude":51.403243,"longitude":-0.675388,"postcodeStart":"SL5 9","postcode":["SL5","9ET"]}
{"price":181000,"dateOfTransfer":"1995-11-29T00:00:00","postcodeFull":"SL5 9TG","propertyType":"Detached","oldOrNew":"Established","duration":"Freehold","paon":"145","saon":"","street":"CAVENDISH MEADS","locality":"ASCOT","townOrCity":"ASCOT","district":"WINDSOR AND MAIDENHEAD","county":"WINDSOR AND MAIDENHEAD","ppdCategoryType":"Standard","recordStatus":"Addition","latitude":51.3983,"longitude":-0.651966,"postcodeStart":"SL5 9","postcode":["SL5","9TG"]}
{"price":260000,"dateOfTransfer":"1995-12-29T00:00:00","postcodeFull":"SL5 9QQ","propertyType":"Detached","oldOrNew":"New build","duration":"Freehold","paon":"14","saon":"","street":"CHARTERS WAY","locality":"ASCOT","townOrCity":"ASCOT","district":"WINDSOR AND MAIDENHEAD","county":"WINDSOR AND MAIDENHEAD","ppdCategoryType":"Standard","recordStatus":"Addition","latitude":51.392418,"longitude":-0.636318,"postcodeStart":"SL5 9","postcode":["SL5","9QQ"]}
{"price":245000,"dateOfTransfer":"1995-05-25T00:00:00","postcodeFull":"SL5 9BD","propertyType":"Detached","oldOrNew":"Established","duration":"Freehold","paon":"43","saon":"","street":"WOOD END DRIVE","locality":"ASCOT","townOrCity":"ASCOT","district":"WINDSOR AND MAIDENHEAD","county":"WINDSOR AND MAIDENHEAD","ppdCategoryType":"Standard","recordStatus":"Addition","latitude":51.400341,"longitude":-0.664575,"postcodeStart":"SL5 9","postcode":["SL5","9BD"]}
{"price":59500,"dateOfTransfer":"1995-04-26T00:00:00","postcodeFull":"SL5 9UT","propertyType":"Terraced","oldOrNew":"Established","duration":"Freehold","paon":"27","saon":"","street":"LIDDELL WAY","locality":"ASCOT","townOrCity":"ASCOT","district":"WINDSOR AND MAIDENHEAD","county":"WINDSOR AND MAIDENHEAD","ppdCategoryType":"Standard","recordStatus":"Addition","latitude":51.402855,"longitude":-0.679242,"postcodeStart":"SL5 9","postcode":["SL5","9UT"]}
{"price":220000,"dateOfTransfer":"1995-11-27T00:00:00","postcodeFull":"SL5 9AP","propertyType":"Detached","oldOrNew":"Established","duration":"Freehold","paon":"ERRANT COURTNEY","saon":"","street":"ST MARYS HILL","locality":"","townOrCity":"ASCOT","district":"WINDSOR AND MAIDENHEAD","county":"WINDSOR AND MAIDENHEAD","ppdCategoryType":"Standard","recordStatus":"Addition","latitude":51.398654,"longitude":-0.662482,"postcodeStart":"SL5 9","postcode":["SL5","9AP"]}
{"price":76000,"dateOfTransfer":"1995-03-17T00:00:00","postcodeFull":"SL5 9AG","propertyType":"Terraced","oldOrNew":"Established","duration":"Freehold","paon":"26","saon":"","street":"FRANCIS CHICHESTER CLOSE","locality":"ASCOT","townOrCity":"ASCOT","district":"WINDSOR AND MAIDENHEAD","county":"WINDSOR AND MAIDENHEAD","ppdCategoryType":"Standard","recordStatus":"Addition","latitude":51.402911,"longitude":-0.666772,"postcodeStart":"SL5 9","postcode":["SL5","9AG"]}
{"price":25000,"dateOfTransfer":"1995-04-13T00:00:00","postcodeFull":"SL5 9EH","propertyType":"Semi-detached","oldOrNew":"Established","duration":"Freehold","paon":"14","saon":"","street":"CARROLL CRESCENT","locality":"ASCOT","townOrCity":"ASCOT","district":"WINDSOR AND MAIDENHEAD","county":"WINDSOR AND MAIDENHEAD","ppdCategoryType":"Standard","recordStatus":"Addition","latitude":51.404291,"longitude":-0.681425,"postcodeStart":"SL5 9","postcode":["SL5","9EH"]}
{"price":126500,"dateOfTransfer":"1995-08-18T00:00:00","postcodeFull":"SL5 9DR","propertyType":"Semi-detached","oldOrNew":"Established","duration":"Freehold","paon":"91","saon":"","street":"VICTORIA ROAD","locality":"ASCOT","townOrCity":"ASCOT","district":"WINDSOR AND MAIDENHEAD","county":"WINDSOR AND MAIDENHEAD","ppdCategoryType":"Standard","recordStatus":"Addition","latitude":51.40301,"longitude":-0.672304,"postcodeStart":"SL5 9","postcode":["SL5","9DR"]}
{"price":200000,"dateOfTransfer":"1995-03-02T00:00:00","postcodeFull":"SL5 9RY","propertyType":"Detached","oldOrNew":"Established","duration":"Freehold","paon":"STONE COURT COTTAGE","saon":"","street":"LONDON ROAD","locality":"SUNNINGDALE","townOrCity":"ASCOT","district":"WINDSOR AND MAIDENHEAD","county":"WINDSOR AND MAIDENHEAD","ppdCategoryType":"Standard","recordStatus":"Addition","latitude":51.387561,"longitude":-0.641665,"postcodeStart":"SL5 9","postcode":["SL5","9RY"]}
{"price":81000,"dateOfTransfer":"1995-07-25T00:00:00","postcodeFull":"SL5 9JW","propertyType":"Flat/Maisonette/Townhouse","oldOrNew":"Established","duration":"Leasehold","paon":"MERIDIAN COURT","saon":"5","street":"BAGSHOT ROAD","locality":"ASCOT","townOrCity":"ASCOT","district":"WINDSOR AND MAIDENHEAD","county":"WINDSOR AND MAIDENHEAD","ppdCategoryType":"Standard","recordStatus":"Addition","latitude":51.389221,"longitude":-0.67036,"postcodeStart":"SL5 9","postcode":["SL5","9JW"]}
{"price":80000,"dateOfTransfer":"1995-01-20T00:00:00","postcodeFull":"SL5 9EJ","propertyType":"Semi-detached","oldOrNew":"Established","duration":"Freehold","paon":"53","saon":"","street":"CARROLL CRESCENT","locality":"ASCOT","townOrCity":"ASCOT","district":"WINDSOR AND MAIDENHEAD","county":"WINDSOR AND MAIDENHEAD","ppdCategoryType":"Standard","recordStatus":"Addition","latitude":51.404186,"longitude":-0.680896,"postcodeStart":"SL5 9","postcode":["SL5","9EJ"]}
{"price":70000,"dateOfTransfer":"1995-09-29T00:00:00","postcodeFull":"SL5 9AG","propertyType":"Terraced","oldOrNew":"Established","duration":"Freehold","paon":"9","saon":"","street":"FRANCIS CHICHESTER CLOSE","locality":"ASCOT","townOrCity":"ASCOT","district":"WINDSOR AND MAIDENHEAD","county":"WINDSOR AND MAIDENHEAD","ppdCategoryType":"Standard","recordStatus":"Addition","latitude":51.402911,"longitude":-0.666772,"postcodeStart":"SL5 9","postcode":["SL5","9AG"]}
{"price":72000,"dateOfTransfer":"1996-07-31T00:00:00","postcodeFull":"SL5 9EH","propertyType":"Terraced","oldOrNew":"Established","duration":"Freehold","paon":"54","saon":"","street":"CARROLL CRESCENT","locality":"ASCOT","townOrCity":"ASCOT","district":"WINDSOR AND MAIDENHEAD","county":"WINDSOR AND MAIDENHEAD","ppdCategoryType":"Standard","recordStatus":"Addition","latitude":51.404291,"longitude":-0.681425,"postcodeStart":"SL5 9","postcode":["SL5","9EH"]}
{"price":320000,"dateOfTransfer":"1996-08-13T00:00:00","postcodeFull":"SL5 9SW","propertyType":"Detached","oldOrNew":"Established","duration":"Freehold","paon":"9","saon":"","street":"ABBEY WOOD","locality":"SUNNINGDALE","townOrCity":"ASCOT","district":"WINDSOR AND MAIDENHEAD","county":"WINDSOR AND MAIDENHEAD","ppdCategoryType":"Standard","recordStatus":"Addition","latitude":51.390675,"longitude":-0.63338,"postcodeStart":"SL5 9","postcode":["SL5","9SW"]}
{"price":625000,"dateOfTransfer":"1996-04-22T00:00:00","postcodeFull":"SL5 9RH","propertyType":"Detached","oldOrNew":"New build","duration":"Freehold","paon":"PRIORS WOOD","saon":"","street":"PRIORY ROAD","locality":"SUNNINGDALE","townOrCity":"ASCOT","district":"WINDSOR AND MAIDENHEAD","county":"WINDSOR AND MAIDENHEAD","ppdCategoryType":"Standard","recordStatus":"Addition","latitude":51.389602,"longitude":-0.629316,"postcodeStart":"SL5 9","postcode":["SL5","9RH"]}
{"price":133500,"dateOfTransfer":"1996-10-04T00:00:00","postcodeFull":"SL5 9BH","propertyType":"Detached","oldOrNew":"Established","duration":"Freehold","paon":"74","saon":"","street":"LOWER VILLAGE ROAD","locality":"ASCOT","townOrCity":"ASCOT","district":"WINDSOR AND MAIDENHEAD","county":"WINDSOR AND MAIDENHEAD","ppdCategoryType":"Standard","recordStatus":"Addition","latitude":51.402608,"longitude":-0.665429,"postcodeStart":"SL5 9","postcode":["SL5","9BH"]}
{"price":92500,"dateOfTransfer":"1996-07-28T00:00:00","postcodeFull":"SL5 9JW","propertyType":"Flat/Maisonette/Townhouse","oldOrNew":"Established","duration":"Leasehold","paon":"MERIDIAN COURT","saon":"18","street":"BAGSHOT ROAD","locality":"ASCOT","townOrCity":"ASCOT","district":"WINDSOR AND MAIDENHEAD","county":"WINDSOR AND MAIDENHEAD","ppdCategoryType":"Standard","recordStatus":"Addition","latitude":51.389221,"longitude":-0.67036,"postcodeStart":"SL5 9","postcode":["SL5","9JW"]}
{"price":535000,"dateOfTransfer":"1996-01-04T00:00:00","postcodeFull":"SL5 9JJ","propertyType":"Detached","oldOrNew":"New build","duration":"Freehold","paon":"2","saon":"","street":"KELSALL PLACE","locality":"ASCOT","townOrCity":"ASCOT","district":"WINDSOR AND MAIDENHEAD","county":"WINDSOR AND MAIDENHEAD","ppdCategoryType":"Standard","recordStatus":"Addition","latitude":51.391683,"longitude":-0.665488,"postcodeStart":"SL5 9","postcode":["SL5","9JJ"]}
{"price":520000,"dateOfTransfer":"1996-07-01T00:00:00","postcodeFull":"SL5 9HD","propertyType":"Detached","oldOrNew":"Established","duration":"Freehold","paon":"OSPREY HOUSE","saon":"","street":"FRIARY ROAD","locality":"ASCOT","townOrCity":"ASCOT","district":"WINDSOR AND MAIDENHEAD","county":"WINDSOR AND MAIDENHEAD","ppdCategoryType":"Standard","recordStatus":"Addition","latitude":51.397756,"longitude":-0.670472,"postcodeStart":"SL5 9","postcode":["SL5","9HD"]}
{"price":50000,"dateOfTransfer":"1996-09-09T00:00:00","postcodeFull":"SL5 9NT","propertyType":"Semi-detached","oldOrNew":"Established","duration":"Leasehold","paon":"3","saon":"","street":"BRYN COURT","locality":"ASCOT","townOrCity":"ASCOT","district":"WINDSOR AND MAIDENHEAD","county":"WINDSOR AND MAIDENHEAD","ppdCategoryType":"Standard","recordStatus":"Addition","latitude":51.399715,"longitude":-0.656169,"postcodeStart":"SL5 9","postcode":["SL5","9NT"]}
{"price":89950,"dateOfTransfer":"1996-11-15T00:00:00","postcodeFull":"SL5 9BJ","propertyType":"Semi-detached","oldOrNew":"Established","duration":"Freehold","paon":"15","saon":"","street":"ELIZABETH GARDENS","locality":"ASCOT","townOrCity":"ASCOT","district":"WINDSOR AND MAIDENHEAD","county":"WINDSOR AND MAIDENHEAD","ppdCategoryType":"Standard","recordStatus":"Addition","latitude":51.401804,"longitude":-0.669057,"postcodeStart":"SL5 9","postcode":["SL5","9BJ"]}
{"price":110000,"dateOfTransfer":"1996-11-22T00:00:00","postcodeFull":"SL5 9DQ","propertyType":"Semi-detached","oldOrNew":"Established","duration":"Freehold","paon":"20","saon":"","street":"SPRING GARDENS","locality":"SOUTH ASCOT","townOrCity":"ASCOT","district":"WINDSOR AND MAIDENHEAD","county":"WINDSOR AND MAIDENHEAD","ppdCategoryType":"Standard","recordStatus":"Addition","latitude":51.403708,"longitude":-0.670931,"postcodeStart":"SL5 9","postcode":["SL5","9DQ"]}
{"price":72000,"dateOfTransfer":"1996-08-02T00:00:00","postcodeFull":"SL5 9DY","propertyType":"Terraced","oldOrNew":"Established","duration":"Freehold","paon":"12","saon":"","street":"PORCHESTER","locality":"ASCOT","townOrCity":"ASCOT","district":"WINDSOR AND MAIDENHEAD","county":"WINDSOR AND MAIDENHEAD","ppdCategoryType":"Standard","recordStatus":"Addition","latitude":51.404756,"longitude":-0.673245,"postcodeStart":"SL5 9","postcode":["SL5","9DY"]}
{"price":380000,"dateOfTransfer":"1996-10-28T00:00:00","postcodeFull":"SL5 9AD","propertyType":"Detached","oldOrNew":"Established","duration":"Freehold","paon":"HIGHCLERE HOTEL, 19","saon":"","street":"KINGS ROAD","locality":"","townOrCity":"ASCOT","district":"WINDSOR AND MAIDENHEAD","county":"WINDSOR AND MAIDENHEAD","ppdCategoryType":"Standard","recordStatus":"Addition","latitude":51.401489,"longitude":-0.654033,"postcodeStart":"SL5 9","postcode":["SL5","9AD"]}
{"price":311000,"dateOfTransfer":"1996-07-18T00:00:00","postcodeFull":"SL5 9PS","propertyType":"Detached","oldOrNew":"Established","duration":"Freehold","paon":"10","saon":"","street":"PINECOTE DRIVE","locality":"ASCOT","townOrCity":"ASCOT","district":"WINDSOR AND MAIDENHEAD","county":"WINDSOR AND MAIDENHEAD","ppdCategoryType":"Standard","recordStatus":"Addition","latitude":51.390083,"longitude":-0.640498,"postcodeStart":"SL5 9","postcode":["SL5","9PS"]}
{"price":245000,"dateOfTransfer":"1996-06-28T00:00:00","postcodeFull":"SL5 9QQ","propertyType":"Detached","oldOrNew":"New build","duration":"Freehold","paon":"17","saon":"","street":"CHARTERS WAY","locality":"ASCOT","townOrCity":"ASCOT","district":"WINDSOR AND MAIDENHEAD","county":"WINDSOR AND MAIDENHEAD","ppdCategoryType":"Standard","recordStatus":"Addition","latitude":51.392418,"longitude":-0.636318,"postcodeStart":"SL5 9","postcode":["SL5","9QQ"]}
{"price":390000,"dateOfTransfer":"1996-08-02T00:00:00","postcodeFull":"SL5 9RH","propertyType":"Flat/Maisonette/Townhouse","oldOrNew":"New build","duration":"Leasehold","paon":"BELVEDERE GRANGE","saon":"FLAT 1","street":"PRIORY ROAD","locality":"SUNNINGDALE","townOrCity":"ASCOT","district":"WINDSOR AND MAIDENHEAD","county":"WINDSOR AND MAIDENHEAD","ppdCategoryType":"Standard","recordStatus":"Addition","latitude":51.389602,"longitude":-0.629316,"postcodeStart":"SL5 9","postcode":["SL5","9RH"]}
{"price":470000,"dateOfTransfer":"1996-11-05T00:00:00","postcodeFull":"SL5 9PN","propertyType":"Detached","oldOrNew":"Established","duration":"Freehold","paon":"20","saon":"","street":"SUNNING AVENUE","locality":"ASCOT","townOrCity":"ASCOT","district":"WINDSOR AND MAIDENHEAD","county":"WINDSOR AND MAIDENHEAD","ppdCategoryType":"Standard","recordStatus":"Addition","latitude":51.391012,"longitude":-0.645773,"postcodeStart":"SL5 9","postcode":["SL5","9PN"]}
{"price":99950,"dateOfTransfer":"1996-07-05T00:00:00","postcodeFull":"SL5 9NJ","propertyType":"Semi-detached","oldOrNew":"New build","duration":"Freehold","paon":"26","saon":"","street":"BOWDEN ROAD","locality":"ASCOT","townOrCity":"ASCOT","district":"WINDSOR AND MAIDENHEAD","county":"WINDSOR AND MAIDENHEAD","ppdCategoryType":"Standard","recordStatus":"Addition","latitude":51.40142,"longitude":-0.657442,"postcodeStart":"SL5 9","postcode":["SL5","9NJ"]}
{"price":340000,"dateOfTransfer":"1996-07-05T00:00:00","postcodeFull":"SL5 9PW","propertyType":"Detached","oldOrNew":"Established","duration":"Freehold","paon":"WYNDHAM HOUSE","saon":"","street":"SUNNING AVENUE","locality":"ASCOT","townOrCity":"ASCOT","district":"WINDSOR AND MAIDENHEAD","county":"WINDSOR AND MAIDENHEAD","ppdCategoryType":"Standard","recordStatus":"Addition","latitude":51.39058,"longitude":-0.645312,"postcodeStart":"SL5 9","postcode":["SL5","9PW"]}
{"price":276000,"dateOfTransfer":"1996-03-15T00:00:00","postcodeFull":"SL5 9RY","propertyType":"Detached","oldOrNew":"New build","duration":"Freehold","paon":"POOHS CORNER","saon":"","street":"LONDON ROAD","locality":"SUNNINGDALE","townOrCity":"ASCOT","district":"WINDSOR AND MAIDENHEAD","county":"WINDSOR AND MAIDENHEAD","ppdCategoryType":"Standard","recordStatus":"Addition","latitude":51.387561,"longitude":-0.641665,"postcodeStart":"SL5 9","postcode":["SL5","9RY"]}
{"price":83500,"dateOfTransfer":"1996-12-20T00:00:00","postcodeFull":"SL5 9DL","propertyType":"Terraced","oldOrNew":"Established","duration":"Freehold","paon":"12","saon":"","street":"BROCKENHURST ROAD","locality":"ASCOT","townOrCity":"ASCOT","district":"WINDSOR AND MAIDENHEAD","county":"WINDSOR AND MAIDENHEAD","ppdCategoryType":"Standard","recordStatus":"Addition","latitude":51.403554,"longitude":-0.671839,"postcodeStart":"SL5 9","postcode":["SL5","9DL"]}
{"price":130000,"dateOfTransfer":"1996-01-17T00:00:00","postcodeFull":"SL5 9QN","propertyType":"Flat/Maisonette/Townhouse","oldOrNew":"Established","duration":"Leasehold","paon":"SUNNING HOUSE","saon":"FLAT 10","street":"LONDON ROAD","locality":"SUNNINGDALE","townOrCity":"ASCOT","district":"SURREY HEATH","county":"SURREY","ppdCategoryType":"Standard","recordStatus":"Addition","latitude":51.38295,"longitude":-0.643396,"postcodeStart":"SL5 9","postcode":["SL5","9QN"]}
{"price":225000,"dateOfTransfer":"1996-10-01T00:00:00","postcodeFull":"SL5 9BG","propertyType":"Detached","oldOrNew":"Established","duration":"Freehold","paon":"26","saon":"","street":"WOOD END DRIVE","locality":"ASCOT","townOrCity":"ASCOT","district":"WINDSOR AND MAIDENHEAD","county":"WINDSOR AND MAIDENHEAD","ppdCategoryType":"Standard","recordStatus":"Addition","latitude":51.40033,"longitude":-0.665165,"postcodeStart":"SL5 9","postcode":["SL5","9BG"]}
{"price":83000,"dateOfTransfer":"1996-11-15T00:00:00","postcodeFull":"SL5 9AG","propertyType":"Semi-detached","oldOrNew":"Established","duration":"Freehold","paon":"18","saon":"","street":"FRANCIS CHICHESTER CLOSE","locality":"ASCOT","townOrCity":"ASCOT","district":"WINDSOR AND MAIDENHEAD","county":"WINDSOR AND MAIDENHEAD","ppdCategoryType":"Standard","recordStatus":"Addition","latitude":51.402911,"longitude":-0.666772,"postcodeStart":"SL5 9","postcode":["SL5","9AG"]}
{"price":335000,"dateOfTransfer":"1996-05-29T00:00:00","postcodeFull":"SL5 9PS","propertyType":"Detached","oldOrNew":"Established","duration":"Freehold","paon":"12","saon":"","street":"PINECOTE DRIVE","locality":"ASCOT","townOrCity":"ASCOT","district":"WINDSOR AND MAIDENHEAD","county":"WINDSOR AND MAIDENHEAD","ppdCategoryType":"Standard","recordStatus":"Addition","latitude":51.390083,"longitude":-0.640498,"postcodeStart":"SL5 9","postcode":["SL5","9PS"]}
{"price":80000,"dateOfTransfer":"1996-09-05T00:00:00","postcodeFull":"SL5 9UU","propertyType":"Terraced","oldOrNew":"Established","duration":"Freehold","paon":"57","saon":"","street":"LIDDELL WAY","locality":"ASCOT","townOrCity":"ASCOT","district":"WINDSOR AND MAIDENHEAD","county":"WINDSOR AND MAIDENHEAD","ppdCategoryType":"Standard","recordStatus":"Addition","latitude":51.403446,"longitude":-0.6783,"postcodeStart":"SL5 9","postcode":["SL5","9UU"]}
{"price":735000,"dateOfTransfer":"1996-11-21T00:00:00","postcodeFull":"SL5 9RS","propertyType":"Detached","oldOrNew":"Established","duration":"Freehold","paon":"SUNNYSIDE","saon":"","street":"RIDGEMOUNT ROAD","locality":"ASCOT","townOrCity":"ASCOT","district":"WINDSOR AND MAIDENHEAD","county":"WINDSOR AND MAIDENHEAD","ppdCategoryType":"Standard","recordStatus":"Addition","latitude":51.385389,"longitude":-0.633552,"postcodeStart":"SL5 9","postcode":["SL5","9RS"]}
{"price":295000,"dateOfTransfer":"1996-02-16T00:00:00","postcodeFull":"SL5 9SP","propertyType":"Detached","oldOrNew":"Established","duration":"Freehold","paon":"SUNBELT HOUSE","saon":"","street":"HURSTWOOD","locality":"ASCOT","townOrCity":"ASCOT","district":"WINDSOR AND MAIDENHEAD","county":"WINDSOR AND MAIDENHEAD","ppdCategoryType":"Standard","recordStatus":"Addition","latitude":51.397325,"longitude":-0.675343,"postcodeStart":"SL5 9","postcode":["SL5","9SP"]}
{"price":267000,"dateOfTransfer":"1996-12-20T00:00:00","postcodeFull":"SL5 9BW","propertyType":"Semi-detached","oldOrNew":"Established","duration":"Freehold","paon":"23","saon":"","street":"NORTON PARK","locality":"ASCOT","townOrCity":"ASCOT","district":"WINDSOR AND MAIDENHEAD","county":"WINDSOR AND MAIDENHEAD","ppdCategoryType":"Standard","recordStatus":"Addition","latitude":51.400401,"longitude":-0.661123,"postcodeStart":"SL5 9","postcode":["SL5","9BW"]}
{"price":41000,"dateOfTransfer":"1996-10-11T00:00:00","postcodeFull":"SL5 9UX","propertyType":"Flat/Maisonette/Townhouse","oldOrNew":"Established","duration":"Leasehold","paon":"48","saon":"","street":"LIDDELL WAY","locality":"ASCOT","townOrCity":"ASCOT","district":"WINDSOR AND MAIDENHEAD","county":"WINDSOR AND MAIDENHEAD","ppdCategoryType":"Standard","recordStatus":"Addition","latitude":51.402125,"longitude":-0.679977,"postcodeStart":"SL5 9","postcode":["SL5","9UX"]}
{"price":99000,"dateOfTransfer":"1996-07-26T00:00:00","postcodeFull":"SL5 9NL","propertyType":"Terraced","oldOrNew":"Established","duration":"Freehold","paon":"21","saon":"","street":"BRIDGE ROAD","locality":"ASCOT","townOrCity":"ASCOT","district":"WINDSOR AND MAIDENHEAD","county":"WINDSOR AND MAIDENHEAD","ppdCategoryType":"Standard","recordStatus":"Addition","latitude":51.400082,"longitude":-0.655235,"postcodeStart":"SL5 9","postcode":["SL5","9NL"]}
{"price":90000,"dateOfTransfer":"1996-07-26T00:00:00","postcodeFull":"SL5 9DG","propertyType":"Semi-detached","oldOrNew":"Established","duration":"Freehold","paon":"15","saon":"","street":"CROMWELL ROAD","locality":"ASCOT","townOrCity":"ASCOT","district":"WINDSOR AND MAIDENHEAD","county":"WINDSOR AND MAIDENHEAD","ppdCategoryType":"Standard","recordStatus":"Addition","latitude":51.403599,"longitude":-0.669541,"postcodeStart":"SL5 9","postcode":["SL5","9DG"]}
{"price":226000,"dateOfTransfer":"1996-05-01T00:00:00","postcodeFull":"SL5 9LE","propertyType":"Detached","oldOrNew":"Established","duration":"Freehold","paon":"TREETOPS","saon":"","street":"BODENS RIDE","locality":"ASCOT","townOrCity":"ASCOT","district":"BRACKNELL FOREST","county":"BRACKNELL FOREST","ppdCategoryType":"Standard","recordStatus":"Addition","latitude":51.38966,"longitude":-0.682176,"postcodeStart":"SL5 9","postcode":["SL5","9LE"]}
{"price":93000,"dateOfTransfer":"1996-10-01T00:00:00","postcodeFull":"SL5 9NH","propertyType":"Terraced","oldOrNew":"Established","duration":"Freehold","paon":"27","saon":"","street":"THE TERRACE","locality":"ASCOT","townOrCity":"ASCOT","district":"WINDSOR AND MAIDENHEAD","county":"WINDSOR AND MAIDENHEAD","ppdCategoryType":"Standard","recordStatus":"Addition","latitude":51.402022,"longitude":-0.656677,"postcodeStart":"SL5 9","postcode":["SL5","9NH"]}
{"price":240000,"dateOfTransfer":"1996-02-27T00:00:00","postcodeFull":"SL5 9TJ","propertyType":"Detached","oldOrNew":"Established","duration":"Freehold","paon":"4","saon":"","street":"HOLMES CLOSE","locality":"ASCOT","townOrCity":"ASCOT","district":"WINDSOR AND MAIDENHEAD","county":"WINDSOR AND MAIDENHEAD","ppdCategoryType":"Standard","recordStatus":"Addition","latitude":51.396701,"longitude":-0.657637,"postcodeStart":"SL5 9","postcode":["SL5","9TJ"]}
{"price":113000,"dateOfTransfer":"1996-03-25T00:00:00","postcodeFull":"SL5 9AD","propertyType":"Semi-detached","oldOrNew":"Established","duration":"Freehold","paon":"33","saon":"","street":"KINGS ROAD","locality":"ASCOT","townOrCity":"ASCOT","district":"WINDSOR AND MAIDENHEAD","county":"WINDSOR AND MAIDENHEAD","ppdCategoryType":"Standard","recordStatus":"Addition","latitude":51.401489,"longitude":-0.654033,"postcodeStart":"SL5 9","postcode":["SL5","9AD"]}
{"price":95500,"dateOfTransfer":"1996-02-02T00:00:00","postcodeFull":"SL5 9NJ","propertyType":"Semi-detached","oldOrNew":"Established","duration":"Freehold","paon":"19","saon":"","street":"BOWDEN ROAD","locality":"ASCOT","townOrCity":"ASCOT","district":"WINDSOR AND MAIDENHEAD","county":"WINDSOR AND MAIDENHEAD","ppdCategoryType":"Standard","recordStatus":"Addition","latitude":51.40142,"longitude":-0.657442,"postcodeStart":"SL5 9","postcode":["SL5","9NJ"]}
{"price":264500,"dateOfTransfer":"1996-02-29T00:00:00","postcodeFull":"SL5 9HT","propertyType":"Detached","oldOrNew":"Established","duration":"Freehold","paon":"22","saon":"","street":"LLANVAIR DRIVE","locality":"ASCOT","townOrCity":"ASCOT","district":"WINDSOR AND MAIDENHEAD","county":"WINDSOR AND MAIDENHEAD","ppdCategoryType":"Standard","recordStatus":"Addition","latitude":51.395716,"longitude":-0.679357,"postcodeStart":"SL5 9","postcode":["SL5","9HT"]}
{"price":260000,"dateOfTransfer":"1996-04-22T00:00:00","postcodeFull":"SL5 9HB","propertyType":"Flat/Maisonette/Townhouse","oldOrNew":"Established","duration":"Freehold","paon":"HAINING","saon":"","street":"BROCKENHURST ROAD","locality":"ASCOT","townOrCity":"ASCOT","district":"WINDSOR AND MAIDENHEAD","county":"WINDSOR AND MAIDENHEAD","ppdCategoryType":"Standard","recordStatus":"Addition","latitude":51.398006,"longitude":-0.666364,"postcodeStart":"SL5 9","postcode":["SL5","9HB"]}
{"price":160000,"dateOfTransfer":"1996-05-17T00:00:00","postcodeFull":"SL5 9TG","propertyType":"Detached","oldOrNew":"Established","duration":"Freehold","paon":"111","saon":"","street":"CAVENDISH MEADS","locality":"ASCOT","townOrCity":"ASCOT","district":"WINDSOR AND MAIDENHEAD","county":"WINDSOR AND MAIDENHEAD","ppdCategoryType":"Standard","recordStatus":"Addition","latitude":51.3983,"longitude":-0.651966,"postcodeStart":"SL5 9","postcode":["SL5","9TG"]}
{"price":135000,"dateOfTransfer":"1996-06-07T00:00:00","postcodeFull":"SL5 9AD","propertyType":"Semi-detached","oldOrNew":"Established","duration":"Freehold","paon":"31","saon":"","street":"KINGS ROAD","locality":"ASCOT","townOrCity":"ASCOT","district":"WINDSOR AND MAIDENHEAD","county":"WINDSOR AND MAIDENHEAD","ppdCategoryType":"Standard","recordStatus":"Addition","latitude":51.401489,"longitude":-0.654033,"postcodeStart":"SL5 9","postcode":["SL5","9AD"]}
{"price":75000,"dateOfTransfer":"1996-05-03T00:00:00","postcodeFull":"SL5 9DY","propertyType":"Terraced","oldOrNew":"Established","duration":"Freehold","paon":"38","saon":"","street":"PORCHESTER","locality":"ASCOT","townOrCity":"ASCOT","district":"WINDSOR AND MAIDENHEAD","county":"WINDSOR AND MAIDENHEAD","ppdCategoryType":"Standard","recordStatus":"Addition","latitude":51.404756,"longitude":-0.673245,"postcodeStart":"SL5 9","postcode":["SL5","9DY"]}
{"price":76500,"dateOfTransfer":"1996-03-29T00:00:00","postcodeFull":"SL5 9EP","propertyType":"Terraced","oldOrNew":"Established","duration":"Freehold","paon":"32","saon":"","street":"KINROSS AVENUE","locality":"ASCOT","townOrCity":"ASCOT","district":"WINDSOR AND MAIDENHEAD","county":"WINDSOR AND MAIDENHEAD","ppdCategoryType":"Standard","recordStatus":"Addition","latitude":51.401938,"longitude":-0.681708,"postcodeStart":"SL5 9","postcode":["SL5","9EP"]}
{"price":50000,"dateOfTransfer":"1996-01-20T00:00:00","postcodeFull":"SL5 9EJ","propertyType":"Flat/Maisonette/Townhouse","oldOrNew":"Established","duration":"Leasehold","paon":"17","saon":"","street":"CARROLL CRESCENT","locality":"ASCOT","townOrCity":"ASCOT","district":"WINDSOR AND MAIDENHEAD","county":"WINDSOR AND MAIDENHEAD","ppdCategoryType":"Standard","recordStatus":"Addition","latitude":51.404186,"longitude":-0.680896,"postcodeStart":"SL5 9","postcode":["SL5","9EJ"]}
{"price":550000,"dateOfTransfer":"1996-07-10T00:00:00","postcodeFull":"SL5 9AS","propertyType":"Detached","oldOrNew":"Established","duration":"Freehold","paon":"HIGHLANDS","saon":"","street":"ST MARYS HILL","locality":"ASCOT","townOrCity":"ASCOT","district":"WINDSOR AND MAIDENHEAD","county":"WINDSOR AND MAIDENHEAD","ppdCategoryType":"Standard","recordStatus":"Addition","latitude":51.400502,"longitude":-0.658992,"postcodeStart":"SL5 9","postcode":["SL5","9AS"]}
{"price":276000,"dateOfTransfer":"1996-10-08T00:00:00","postcodeFull":"SL5 9HU","propertyType":"Detached","oldOrNew":"Established","duration":"Freehold","paon":"15","saon":"","street":"WOODLANDS CLOSE","locality":"ASCOT","townOrCity":"ASCOT","district":"WINDSOR AND MAIDENHEAD","county":"WINDSOR AND MAIDENHEAD","ppdCategoryType":"Standard","recordStatus":"Addition","latitude":51.396436,"longitude":-0.680242,"postcodeStart":"SL5 9","postcode":["SL5","9HU"]}
{"price":283500,"dateOfTransfer":"1996-01-12T00:00:00","postcodeFull":"SL5 9LH","propertyType":"Terraced","oldOrNew":"New build","duration":"Freehold","paon":"EARLEYWOOD PINES","saon":"4","street":"CORONATION ROAD","locality":"ASCOT","townOrCity":"ASCOT","district":"BRACKNELL FOREST","county":"BRACKNELL FOREST","ppdCategoryType":"Standard","recordStatus":"Addition","latitude":51.387709,"longitude":-0.673479,"postcodeStart":"SL5 9","postcode":["SL5","9LH"]}
{"price":16800,"dateOfTransfer":"1996-07-17T00:00:00","postcodeFull":"SL5 9QD","propertyType":"Flat/Maisonette/Townhouse","oldOrNew":"Established","duration":"Leasehold","paon":"STYLES, A","saon":"3A","street":"CHARTERS ROAD","locality":"ASCOT","townOrCity":"ASCOT","district":"WINDSOR AND MAIDENHEAD","county":"WINDSOR AND MAIDENHEAD","ppdCategoryType":"Standard","recordStatus":"Addition","latitude":51.392291,"longitude":-0.638378,"postcodeStart":"SL5 9","postcode":["SL5","9QD"]}
{"price":445000,"dateOfTransfer":"1996-07-15T00:00:00","postcodeFull":"SL5 9TL","propertyType":"Detached","oldOrNew":"New build","duration":"Freehold","paon":"4","saon":"","street":"HILLHAMPTON PLACE","locality":"ASCOT","townOrCity":"ASCOT","district":"WINDSOR AND MAIDENHEAD","county":"WINDSOR AND MAIDENHEAD","ppdCategoryType":"Standard","recordStatus":"Addition","latitude":51.392725,"longitude":-0.6419,"postcodeStart":"SL5 9","postcode":["SL5","9TL"]}
{"price":70000,"dateOfTransfer":"1996-06-21T00:00:00","postcodeFull":"SL5 9PA","propertyType":"Detached","oldOrNew":"Established","duration":"Freehold","paon":"3","saon":"","street":"FOX COVERT CLOSE","locality":"ASCOT","townOrCity":"ASCOT","district":"WINDSOR AND MAIDENHEAD","county":"WINDSOR AND MAIDENHEAD","ppdCategoryType":"Standard","recordStatus":"Addition","latitude":51.399108,"longitude":-0.658904,"postcodeStart":"SL5 9","postcode":["SL5","9PA"]}
{"price":107500,"dateOfTransfer":"1996-11-29T00:00:00","postcodeFull":"SL5 9DN","propertyType":"Semi-detached","oldOrNew":"Established","duration":"Freehold","paon":"33","saon":"","street":"OLIVER ROAD","locality":"ASCOT","townOrCity":"ASCOT","district":"WINDSOR AND MAIDENHEAD","county":"WINDSOR AND MAIDENHEAD","ppdCategoryType":"Standard","recordStatus":"Addition","latitude":51.403965,"longitude":-0.672431,"postcodeStart":"SL5 9","postcode":["SL5","9DN"]}
{"price":59000,"dateOfTransfer":"1996-05-17T00:00:00","postcodeFull":"SL5 9RL","propertyType":"Flat/Maisonette/Townhouse","oldOrNew":"Established","duration":"Leasehold","paon":"GORDON HOUSE","saon":"FLAT 5","street":"RIDGEMOUNT ROAD","locality":"ASCOT","townOrCity":"ASCOT","district":"WINDSOR AND MAIDENHEAD","county":"WINDSOR AND MAIDENHEAD","ppdCategoryType":"Standard","recordStatus":"Addition","latitude":51.388047,"longitude":-0.632391,"postcodeStart":"SL5 9","postcode":["SL5","9RL"]}
{"price":236000,"dateOfTransfer":"1996-11-21T00:00:00","postcodeFull":"SL5 9AZ","propertyType":"Detached","oldOrNew":"Established","duration":"Freehold","paon":"THE BELFRY","saon":"","street":"MONKS WALK","locality":"ASCOT","townOrCity":"ASCOT","district":"WINDSOR AND MAIDENHEAD","county":"WINDSOR AND MAIDENHEAD","ppdCategoryType":"Standard","recordStatus":"Addition","latitude":51.396827,"longitude":-0.668673,"postcodeStart":"SL5 9","postcode":["SL5","9AZ"]}
{"price":68000,"dateOfTransfer":"1996-02-16T00:00:00","postcodeFull":"SL5 9EU","propertyType":"Terraced","oldOrNew":"Established","duration":"Freehold","paon":"11","saon":"","street":"STANMORE CLOSE","locality":"ASCOT","townOrCity":"ASCOT","district":"WINDSOR AND MAIDENHEAD","county":"WINDSOR AND MAIDENHEAD","ppdCategoryType":"Standard","recordStatus":"Addition","latitude":51.405248,"longitude":-0.67464,"postcodeStart":"SL5 9","postcode":["SL5","9EU"]}
{"price":490000,"dateOfTransfer":"1996-05-31T00:00:00","postcodeFull":"SL5 9TL","propertyType":"Detached","oldOrNew":"New build","duration":"Freehold","paon":"2","saon":"","street":"HILLHAMPTON PLACE","locality":"ASCOT","townOrCity":"ASCOT","district":"WINDSOR AND MAIDENHEAD","county":"WINDSOR AND MAIDENHEAD","ppdCategoryType":"Standard","recordStatus":"Addition","latitude":51.392725,"longitude":-0.6419,"postcodeStart":"SL5 9","postcode":["SL5","9TL"]}
{"price":420000,"dateOfTransfer":"1996-04-19T00:00:00","postcodeFull":"SL5 9AY","propertyType":"Detached","oldOrNew":"Established","duration":"Freehold","paon":"STRATTON MANOR","saon":"","street":"ST MARYS ROAD","locality":"","townOrCity":"ASCOT","district":"WINDSOR AND MAIDENHEAD","county":"WINDSOR AND MAIDENHEAD","ppdCategoryType":"Standard","recordStatus":"Addition","latitude":51.39474,"longitude":-0.66698,"postcodeStart":"SL5 9","postcode":["SL5","9AY"]}
{"price":85000,"dateOfTransfer":"1996-07-10T00:00:00","postcodeFull":"SL5 9EL","propertyType":"Semi-detached","oldOrNew":"Established","duration":"Freehold","paon":"84","saon":"","street":"BOULDISH FARM ROAD","locality":"ASCOT","townOrCity":"ASCOT","district":"WINDSOR AND MAIDENHEAD","county":"WINDSOR AND MAIDENHEAD","ppdCategoryType":"Standard","recordStatus":"Addition","latitude":51.403386,"longitude":-0.680171,"postcodeStart":"SL5 9","postcode":["SL5","9EL"]}
{"price":87500,"dateOfTransfer":"1996-05-30T00:00:00","postcodeFull":"SL5 9EX","propertyType":"Terraced","oldOrNew":"Established","duration":"Freehold","paon":"22","saon":"","street":"CHURCH ROAD","locality":"ASCOT","townOrCity":"ASCOT","district":"WINDSOR AND MAIDENHEAD","county":"WINDSOR AND MAIDENHEAD","ppdCategoryType":"Standard","recordStatus":"Addition","latitude":51.404063,"longitude":-0.673955,"postcodeStart":"SL5 9","postcode":["SL5","9EX"]}
{"price":202000,"dateOfTransfer":"1996-05-31T00:00:00","postcodeFull":"SL5 9RH","propertyType":"Detached","oldOrNew":"New build","duration":"Freehold","paon":"LIME TREE COTTAGE","saon":"","street":"PRIORY ROAD","locality":"SUNNINGDALE","townOrCity":"ASCOT","district":"WINDSOR AND MAIDENHEAD","county":"WINDSOR AND MAIDENHEAD","ppdCategoryType":"Standard","recordStatus":"Addition","latitude":51.389602,"longitude":-0.629316,"postcodeStart":"SL5 9","postcode":["SL5","9RH"]}
{"price":117500,"dateOfTransfer":"1996-02-23T00:00:00","postcodeFull":"SL5 9NH","propertyType":"Semi-detached","oldOrNew":"Established","duration":"Freehold","paon":"3","saon":"","street":"THE TERRACE","locality":"ASCOT","townOrCity":"ASCOT","district":"WINDSOR AND MAIDENHEAD","county":"WINDSOR AND MAIDENHEAD","ppdCategoryType":"Standard","recordStatus":"Addition","latitude":51.402022,"longitude":-0.656677,"postcodeStart":"SL5 9","postcode":["SL5","9NH"]}
{"price":470000,"dateOfTransfer":"1996-04-22T00:00:00","postcodeFull":"SL5 9PW","propertyType":"Detached","oldOrNew":"Established","duration":"Freehold","paon":"PINEHILL","saon":"","street":"SUNNING AVENUE","locality":"ASCOT","townOrCity":"ASCOT","district":"WINDSOR AND MAIDENHEAD","county":"WINDSOR AND MAIDENHEAD","ppdCategoryType":"Standard","recordStatus":"Addition","latitude":51.39058,"longitude":-0.645312,"postcodeStart":"SL5 9","postcode":["SL5","9PW"]}
{"price":65750,"dateOfTransfer":"1996-11-22T00:00:00","postcodeFull":"SL5 9EP","propertyType":"Semi-detached","oldOrNew":"Established","duration":"Freehold","paon":"22","saon":"","street":"KINROSS AVENUE","locality":"ASCOT","townOrCity":"ASCOT","district":"WINDSOR AND MAIDENHEAD","county":"WINDSOR AND MAIDENHEAD","ppdCategoryType":"Standard","recordStatus":"Addition","latitude":51.401938,"longitude":-0.681708,"postcodeStart":"SL5 9","postcode":["SL5","9EP"]}
{"price":315000,"dateOfTransfer":"1996-12-03T00:00:00","postcodeFull":"SL5 9PN","propertyType":"Detached","oldOrNew":"Established","duration":"Freehold","paon":"8","saon":"","street":"SUNNING AVENUE","locality":"ASCOT","townOrCity":"ASCOT","district":"WINDSOR AND MAIDENHEAD","county":"WINDSOR AND MAIDENHEAD","ppdCategoryType":"Standard","recordStatus":"Addition","latitude":51.391012,"longitude":-0.645773,"postcodeStart":"SL5 9","postcode":["SL5","9PN"]}
{"price":345000,"dateOfTransfer":"1996-09-16T00:00:00","postcodeFull":"SL5 9QD","propertyType":"Detached","oldOrNew":"Established","duration":"Freehold","paon":"OAKDALE","saon":"","street":"CHARTERS ROAD","locality":"ASCOT","townOrCity":"ASCOT","district":"WINDSOR AND MAIDENHEAD","county":"WINDSOR AND MAIDENHEAD","ppdCategoryType":"Standard","recordStatus":"Addition","latitude":51.392291,"longitude":-0.638378,"postcodeStart":"SL5 9","postcode":["SL5","9QD"]}
{"price":199500,"dateOfTransfer":"1996-01-12T00:00:00","postcodeFull":"SL5 9BP","propertyType":"Detached","oldOrNew":"Established","duration":"Freehold","paon":"12","saon":"","street":"MURRAY COURT","locality":"ASCOT","townOrCity":"ASCOT","district":"WINDSOR AND MAIDENHEAD","county":"WINDSOR AND MAIDENHEAD","ppdCategoryType":"Standard","recordStatus":"Addition","latitude":51.397373,"longitude":-0.662146,"postcodeStart":"SL5 9","postcode":["SL5","9BP"]}
{"price":94500,"dateOfTransfer":"1996-01-26T00:00:00","postcodeFull":"SL5 9DZ","propertyType":"Detached","oldOrNew":"Established","duration":"Freehold","paon":"14","saon":"","street":"OLIVER ROAD","locality":"ASCOT","townOrCity":"ASCOT","district":"WINDSOR AND MAIDENHEAD","county":"WINDSOR AND MAIDENHEAD","ppdCategoryType":"Standard","recordStatus":"Addition","latitude":51.404277,"longitude":-0.670657,"postcodeStart":"SL5 9","postcode":["SL5","9DZ"]}
{"price":340000,"dateOfTransfer":"1996-07-05T00:00:00","postcodeFull":"SL5 9PT","propertyType":"Detached","oldOrNew":"Established","duration":"Freehold","paon":"4","saon":"","street":"CHANCTONBURY DRIVE","locality":"ASCOT","townOrCity":"ASCOT","district":"WINDSOR AND MAIDENHEAD","county":"WINDSOR AND MAIDENHEAD","ppdCategoryType":"Standard","recordStatus":"Addition","latitude":51.389507,"longitude":-0.645919,"postcodeStart":"SL5 9","postcode":["SL5","9PT"]}
{"price":325000,"dateOfTransfer":"1996-11-14T00:00:00","postcodeFull":"SL5 9TA","propertyType":"Detached","oldOrNew":"Established","duration":"Freehold","paon":"8","saon":"","street":"ARMITAGE COURT","locality":"ASCOT","townOrCity":"ASCOT","district":"WINDSOR AND MAIDENHEAD","county":"WINDSOR AND MAIDENHEAD","ppdCategoryType":"Standard","recordStatus":"Addition","latitude":51.397525,"longitude":-0.659669,"postcodeStart":"SL5 9","postcode":["SL5","9TA"]}
{"price":485000,"dateOfTransfer":"1996-03-01T00:00:00","postcodeFull":"SL5 9AX","propertyType":"Detached","oldOrNew":"Established","duration":"Freehold","paon":"GREYSTONES","saon":"","street":"ST MARYS ROAD","locality":"ASCOT","townOrCity":"ASCOT","district":"WINDSOR AND MAIDENHEAD","county":"WINDSOR AND MAIDENHEAD","ppdCategoryType":"Standard","recordStatus":"Addition","latitude":51.395873,"longitude":-0.665065,"postcodeStart":"SL5 9","postcode":["SL5","9AX"]}
{"price":675000,"dateOfTransfer":"1996-04-22T00:00:00","postcodeFull":"SL5 9QH","propertyType":"Detached","oldOrNew":"Established","duration":"Freehold","paon":"LAVENHAM HOUSE","saon":"","street":"LADY MARGARET ROAD","locality":"ASCOT","townOrCity":"ASCOT","district":"WINDSOR AND MAIDENHEAD","county":"WINDSOR AND MAIDENHEAD","ppdCategoryType":"Standard","recordStatus":"Addition","latitude":51.390488,"longitude":-0.637424,"postcodeStart":"SL5 9","postcode":["SL5","9QH"]}
{"price":122500,"dateOfTransfer":"1996-09-27T00:00:00","postcodeFull":"SL5 9DG","propertyType":"Terraced","oldOrNew":"Established","duration":"Freehold","paon":"33","saon":"","street":"CROMWELL ROAD","locality":"ASCOT","townOrCity":"ASCOT","district":"WINDSOR AND MAIDENHEAD","county":"WINDSOR AND MAIDENHEAD","ppdCategoryType":"Standard","recordStatus":"Addition","latitude":51.403599,"longitude":-0.669541,"postcodeStart":"SL5 9","postcode":["SL5","9DG"]}
{"price":310000,"dateOfTransfer":"1996-09-12T00:00:00","postcodeFull":"SL5 9PJ","propertyType":"Detached","oldOrNew":"Established","duration":"Freehold","paon":"TINGARA","saon":"","street":"FIREBALL HILL","locality":"ASCOT","townOrCity":"ASCOT","district":"WINDSOR AND MAIDENHEAD","county":"WINDSOR AND MAIDENHEAD","ppdCategoryType":"Standard","recordStatus":"Addition","latitude":51.390453,"longitude":-0.653868,"postcodeStart":"SL5 9","postcode":["SL5","9PJ"]}
{"price":342000,"dateOfTransfer":"1996-08-19T00:00:00","postcodeFull":"SL5 9PN","propertyType":"Detached","oldOrNew":"Established","duration":"Freehold","paon":"6","saon":"","street":"SUNNING AVENUE","locality":"ASCOT","townOrCity":"ASCOT","district":"WINDSOR AND MAIDENHEAD","county":"WINDSOR AND MAIDENHEAD","ppdCategoryType":"Standard","recordStatus":"Addition","latitude":51.391012,"longitude":-0.645773,"postcodeStart":"SL5 9","postcode":["SL5","9PN"]}
{"price":53000,"dateOfTransfer":"1996-04-04T00:00:00","postcodeFull":"SL5 9EQ","propertyType":"Flat/Maisonette/Townhouse","oldOrNew":"Established","duration":"Freehold","paon":"42","saon":"","street":"BOULDISH FARM ROAD","locality":"ASCOT","townOrCity":"ASCOT","district":"WINDSOR AND MAIDENHEAD","county":"WINDSOR AND MAIDENHEAD","ppdCategoryType":"Standard","recordStatus":"Addition","latitude":51.40445,"longitude":-0.677164,"postcodeStart":"SL5 9","postcode":["SL5","9EQ"]}
{"price":135000,"dateOfTransfer":"1996-08-30T00:00:00","postcodeFull":"SL5 9PA","propertyType":"Semi-detached","oldOrNew":"Established","duration":"Freehold","paon":"21","saon":"","street":"FOX COVERT CLOSE","locality":"ASCOT","townOrCity":"ASCOT","district":"WINDSOR AND MAIDENHEAD","county":"WINDSOR AND MAIDENHEAD","ppdCategoryType":"Standard","recordStatus":"Addition","latitude":51.399108,"longitude":-0.658904,"postcodeStart":"SL5 9","postcode":["SL5","9PA"]}
{"price":40800,"dateOfTransfer":"1996-01-15T00:00:00","postcodeFull":"SL5 9EW","propertyType":"Semi-detached","oldOrNew":"Established","duration":"Freehold","paon":"111","saon":"","street":"BOULDISH FARM ROAD","locality":"ASCOT","townOrCity":"ASCOT","district":"WINDSOR AND MAIDENHEAD","county":"WINDSOR AND MAIDENHEAD","ppdCategoryType":"Standard","recordStatus":"Addition","latitude":51.403307,"longitude":-0.679469,"postcodeStart":"SL5 9","postcode":["SL5","9EW"]}
{"price":71750,"dateOfTransfer":"1996-12-18T00:00:00","postcodeFull":"SL5 9EW","propertyType":"Terraced","oldOrNew":"Established","duration":"Freehold","paon":"73","saon":"","street":"BOULDISH FARM ROAD","locality":"ASCOT","townOrCity":"ASCOT","district":"WINDSOR AND MAIDENHEAD","county":"WINDSOR AND MAIDENHEAD","ppdCategoryType":"Standard","recordStatus":"Addition","latitude":51.403307,"longitude":-0.679469,"postcodeStart":"SL5 9","postcode":["SL5","9EW"]}
{"price":120000,"dateOfTransfer":"1996-12-02T00:00:00","postcodeFull":"SL5 9AF","propertyType":"Detached","oldOrNew":"Established","duration":"Freehold","paon":"7","saon":"","street":"QUEENS ROAD","locality":"ASCOT","townOrCity":"ASCOT","district":"WINDSOR AND MAIDENHEAD","county":"WINDSOR AND MAIDENHEAD","ppdCategoryType":"Standard","recordStatus":"Addition","latitude":51.401053,"longitude":-0.654462,"postcodeStart":"SL5 9","postcode":["SL5","9AF"]}
{"price":595000,"dateOfTransfer":"1996-02-29T00:00:00","postcodeFull":"SL5 9QH","propertyType":"Detached","oldOrNew":"New build","duration":"Freehold","paon":"THE COPSE","saon":"","street":"LADY MARGARET ROAD","locality":"ASCOT","townOrCity":"ASCOT","district":"WINDSOR AND MAIDENHEAD","county":"WINDSOR AND MAIDENHEAD","ppdCategoryType":"Standard","recordStatus":"Addition","latitude":51.390488,"longitude":-0.637424,"postcodeStart":"SL5 9","postcode":["SL5","9QH"]}
{"price":101000,"dateOfTransfer":"1996-08-16T00:00:00","postcodeFull":"SL5 9DN","propertyType":"Semi-detached","oldOrNew":"Established","duration":"Freehold","paon":"27","saon":"","street":"OLIVER ROAD","locality":"ASCOT","townOrCity":"ASCOT","district":"WINDSOR AND MAIDENHEAD","county":"WINDSOR AND MAIDENHEAD","ppdCategoryType":"Standard","recordStatus":"Addition","latitude":51.403965,"longitude":-0.672431,"postcodeStart":"SL5 9","postcode":["SL5","9DN"]}
{"price":215000,"dateOfTransfer":"1996-03-29T00:00:00","postcodeFull":"SL5 9QP","propertyType":"Flat/Maisonette/Townhouse","oldOrNew":"Established","duration":"Leasehold","paon":"SCOTSWOOD","saon":"FLAT 1","street":"DEVENISH ROAD","locality":"ASCOT","townOrCity":"ASCOT","district":"WINDSOR AND MAIDENHEAD","county":"WINDSOR AND MAIDENHEAD","ppdCategoryType":"Standard","recordStatus":"Addition","latitude":51.387627,"longitude":-0.648173,"postcodeStart":"SL5 9","postcode":["SL5","9QP"]}
{"price":665000,"dateOfTransfer":"1996-05-17T00:00:00","postcodeFull":"SL5 9RH","propertyType":"Detached","oldOrNew":"New build","duration":"Freehold","paon":"LES ARBRES","saon":"","street":"PRIORY ROAD","locality":"SUNNINGDALE","townOrCity":"ASCOT","district":"WINDSOR AND MAIDENHEAD","county":"WINDSOR AND MAIDENHEAD","ppdCategoryType":"Standard","recordStatus":"Addition","latitude":51.389602,"longitude":-0.629316,"postcodeStart":"SL5 9","postcode":["SL5","9RH"]}
{"price":109500,"dateOfTransfer":"1996-12-23T00:00:00","postcodeFull":"SL5 9NH","propertyType":"Semi-detached","oldOrNew":"Established","duration":"Freehold","paon":"14","saon":"","street":"THE TERRACE","locality":"ASCOT","townOrCity":"ASCOT","district":"WINDSOR AND MAIDENHEAD","county":"WINDSOR AND MAIDENHEAD","ppdCategoryType":"Standard","recordStatus":"Addition","latitude":51.402022,"longitude":-0.656677,"postcodeStart":"SL5 9","postcode":["SL5","9NH"]}
{"price":320000,"dateOfTransfer":"1996-08-20T00:00:00","postcodeFull":"SL5 9HN","propertyType":"Detached","oldOrNew":"Established","duration":"Freehold","paon":"26","saon":"","street":"WOODLANDS RIDE","locality":"ASCOT","townOrCity":"ASCOT","district":"WINDSOR AND MAIDENHEAD","county":"WINDSOR AND MAIDENHEAD","ppdCategoryType":"Standard","recordStatus":"Addition","latitude":51.398571,"longitude":-0.678168,"postcodeStart":"SL5 9","postcode":["SL5","9HN"]}
{"price":57750,"dateOfTransfer":"1996-06-12T00:00:00","postcodeFull":"SL5 9NF","propertyType":"Flat/Maisonette/Townhouse","oldOrNew":"New build","duration":"Leasehold","paon":"48","saon":"FLAT","street":"HIGH STREET","locality":"SUNNINGHILL","townOrCity":"ASCOT","district":"WINDSOR AND MAIDENHEAD","county":"WINDSOR AND MAIDENHEAD","ppdCategoryType":"Standard","recordStatus":"Addition","latitude":51.400987,"longitude":-0.655772,"postcodeStart":"SL5 9","postcode":["SL5","9NF"]}
{"price":117000,"dateOfTransfer":"1996-04-01T00:00:00","postcodeFull":"SL5 9AW","propertyType":"Detached","oldOrNew":"Established","duration":"Freehold","paon":"8","saon":"","street":"CARDWELL CRESCENT","locality":"ASCOT","townOrCity":"ASCOT","district":"WINDSOR AND MAIDENHEAD","county":"WINDSOR AND MAIDENHEAD","ppdCategoryType":"Standard","recordStatus":"Addition","latitude":51.401549,"longitude":-0.662412,"postcodeStart":"SL5 9","postcode":["SL5","9AW"]}
{"price":340000,"dateOfTransfer":"1996-08-16T00:00:00","postcodeFull":"SL5 9TJ","propertyType":"Detached","oldOrNew":"Established","duration":"Freehold","paon":"16","saon":"","street":"HOLMES CLOSE","locality":"ASCOT","townOrCity":"ASCOT","district":"WINDSOR AND MAIDENHEAD","county":"WINDSOR AND MAIDENHEAD","ppdCategoryType":"Standard","recordStatus":"Addition","latitude":51.396701,"longitude":-0.657637,"postcodeStart":"SL5 9","postcode":["SL5","9TJ"]}
{"price":232500,"dateOfTransfer":"1996-07-19T00:00:00","postcodeFull":"SL5 9JD","propertyType":"Detached","oldOrNew":"Established","duration":"Freehold","paon":"FRIARS LODGE","saon":"","street":"GREYFRIARS DRIVE","locality":"ASCOT","townOrCity":"ASCOT","district":"WINDSOR AND MAIDENHEAD","county":"WINDSOR AND MAIDENHEAD","ppdCategoryType":"Standard","recordStatus":"Addition","latitude":51.398879,"longitude":-0.667234,"postcodeStart":"SL5 9","postcode":["SL5","9JD"]}
{"price":64950,"dateOfTransfer":"1996-09-13T00:00:00","postcodeFull":"SL5 9BY","propertyType":"Flat/Maisonette/Townhouse","oldOrNew":"Established","duration":"Leasehold","paon":"ST ANDREWS COURT","saon":"11","street":"CARDWELL CRESCENT","locality":"ASCOT","townOrCity":"ASCOT","district":"WINDSOR AND MAIDENHEAD","county":"WINDSOR AND MAIDENHEAD","ppdCategoryType":"Standard","recordStatus":"Addition","latitude":51.400878,"longitude":-0.662305,"postcodeStart":"SL5 9","postcode":["SL5","9BY"]}
