{"price":39500,"dateOfTransfer":"1995-08-11T00:00:00","postcodeFull":"SS16 4LZ","propertyType":"Terraced","oldOrNew":"Established","duration":"Freehold","paon":"21","saon":"","street":"CLAVERING","locality":"BASILDON","townOrCity":"BASILDON","district":"BASILDON","county":"ESSEX","ppdCategoryType":"Standard","recordStatus":"Addition","latitude":51.562195,"longitude":0.492672,"postcodeStart":"SS16 4","postcode":["SS16","4LZ"]}
{"price":27995,"dateOfTransfer":"1995-03-31T00:00:00","postcodeFull":"SS16 4NY","propertyType":"Terraced","oldOrNew":"Established","duration":"Freehold","paon":"56","saon":"","street":"OLDWYK","locality":"BASILDON","townOrCity":"BASILDON","district":"BASILDON","county":"ESSEX","ppdCategoryType":"Standard","recordStatus":"Addition","latitude":51.562021,"longitude":0.483068,"postcodeStart":"SS16 4","postcode":["SS16","4NY"]}
{"price":26500,"dateOfTransfer":"1995-12-08T00:00:00","postcodeFull":"SS16 4TD","propertyType":"Flat/Maisonette/Townhouse","oldOrNew":"New build","duration":"Leasehold","paon":"27","saon":"","street":"CHESTNUT ROAD","locality":"VANGE","townOrCity":"BASILDON","district":"BASILDON","county":"ESSEX","ppdCategoryType":"Standard","recordStatus":"Addition","latitude":51.561891,"longitude":0.498052,"postcodeStart":"SS16 4","postcode":["SS16","4TD"]}
{"price":50500,"dateOfTransfer":"1995-09-25T00:00:00","postcodeFull":"SS16 4TT","propertyType":"Detached","oldOrNew":"Established","duration":"Freehold","paon":"17","saon":"","street":"AVONDALE ROAD","locality":"BASILDON","townOrCity":"BASILDON","district":"BASILDON","county":"ESSEX","ppdCategoryType":"Standard","recordStatus":"Addition","latitude":51.561017,"longitude":0.496864,"postcodeStart":"SS16 4","postcode":["SS16","4TT"]}
{"price":28000,"dateOfTransfer":"1995-11-10T00:00:00","postcodeFull":"SS16 4NT","propertyType":"Terraced","oldOrNew":"Established","duration":"Freehold","paon":"22","saon":"","street":"DEWSGREEN","locality":"BASILDON","townOrCity":"BASILDON","district":"BASILDON","county":"ESSEX","ppdCategoryType":"Standard","recordStatus":"Addition","latitude":51.563068,"longitude":0.483283,"postcodeStart":"SS16 4","postcode":["SS16","4NT"]}
{"price":88000,"dateOfTransfer":"1995-06-29T00:00:00","postcodeFull":"SS16 4QL","propertyType":"Detached","oldOrNew":"New build","duration":"Freehold","paon":"21","saon":"","street":"DOWNS GROVE","locality":"BASILDON","townOrCity":"BASILDON","district":"BASILDON","county":"ESSEX","ppdCategoryType":"Standard","recordStatus":"Addition","latitude":51.557276,"longitude":0.480342,"postcodeStart":"SS16 4","postcode":["SS16","4QL"]}
{"price":63000,"dateOfTransfer":"1995-12-15T00:00:00","postcodeFull":"SS16 4TQ","propertyType":"Terraced","oldOrNew":"New build","duration":"Freehold","paon":"58","saon":"","street":"CHESTNUT ROAD","locality":"VANGE","townOrCity":"BASILDON","district":"BASILDON","county":"ESSEX","ppdCategoryType":"Standard","recordStatus":"Addition","latitude":51.561364,"longitude":0.497879,"postcodeStart":"SS16 4","postcode":["SS16","4TQ"]}
{"price":31000,"dateOfTransfer":"1995-10-30T00:00:00","postcodeFull":"SS16 4TQ","propertyType":"Flat/Maisonette/Townhouse","oldOrNew":"New build","duration":"Leasehold","paon":"22","saon":"","street":"CHESTNUT ROAD","locality":"VANGE","townOrCity":"BASILDON","district":"BASILDON","county":"ESSEX","ppdCategoryType":"Standard","recordStatus":"Addition","latitude":51.561364,"longitude":0.497879,"postcodeStart":"SS16 4","postcode":["SS16","4TQ"]}
{"price":53250,"dateOfTransfer":"1995-02-28T00:00:00","postcodeFull":"SS16 4RL","propertyType":"Flat/Maisonette/Townhouse","oldOrNew":"Established","duration":"Leasehold","paon":"55","saon":"","street":"THE VALE","locality":"BASILDON","townOrCity":"BASILDON","district":"BASILDON","county":"ESSEX","ppdCategoryType":"Standard","recordStatus":"Addition","latitude":51.556369,"longitude":0.475993,"postcodeStart":"SS16 4","postcode":["SS16","4RL"]}
{"price":26000,"dateOfTransfer":"1995-12-18T00:00:00","postcodeFull":"SS16 4TD","propertyType":"Flat/Maisonette/Townhouse","oldOrNew":"New build","duration":"Leasehold","paon":"17","saon":"","street":"CHESTNUT ROAD","locality":"VANGE","townOrCity":"BASILDON","district":"BASILDON","county":"ESSEX","ppdCategoryType":"Standard","recordStatus":"Addition","latitude":51.561891,"longitude":0.498052,"postcodeStart":"SS16 4","postcode":["SS16","4TD"]}
{"price":23760,"dateOfTransfer":"1995-10-23T00:00:00","postcodeFull":"SS16 4HJ","propertyType":"Terraced","oldOrNew":"Established","duration":"Freehold","paon":"102","saon":"","street":"REDGRAVE ROAD","locality":"BASILDON","townOrCity":"BASILDON","district":"BASILDON","county":"ESSEX","ppdCategoryType":"Standard","recordStatus":"Addition","latitude":51.564813,"longitude":0.482022,"postcodeStart":"SS16 4","postcode":["SS16","4HJ"]}
{"price":48500,"dateOfTransfer":"1995-12-01T00:00:00","postcodeFull":"SS16 4BE","propertyType":"Terraced","oldOrNew":"Established","duration":"Freehold","paon":"25","saon":"","street":"GREAT MISTLEY","locality":"BASILDON","townOrCity":"BASILDON","district":"BASILDON","county":"ESSEX","ppdCategoryType":"Standard","recordStatus":"Addition","latitude":51.565437,"longitude":0.47373,"postcodeStart":"SS16 4","postcode":["SS16","4BE"]}
{"price":27000,"dateOfTransfer":"1995-12-06T00:00:00","postcodeFull":"SS16 4TD","propertyType":"Flat/Maisonette/Townhouse","oldOrNew":"New build","duration":"Leasehold","paon":"21","saon":"","street":"CHESTNUT ROAD","locality":"VANGE","townOrCity":"BASILDON","district":"BASILDON","county":"ESSEX","ppdCategoryType":"Standard","recordStatus":"Addition","latitude":51.561891,"longitude":0.498052,"postcodeStart":"SS16 4","postcode":["SS16","4TD"]}
{"price":43000,"dateOfTransfer":"1995-12-21T00:00:00","postcodeFull":"SS16 4TD","propertyType":"Flat/Maisonette/Townhouse","oldOrNew":"New build","duration":"Leasehold","paon":"43","saon":"","street":"CHESTNUT ROAD","locality":"VANGE","townOrCity":"BASILDON","district":"BASILDON","county":"ESSEX","ppdCategoryType":"Standard","recordStatus":"Addition","latitude":51.561891,"longitude":0.498052,"postcodeStart":"SS16 4","postcode":["SS16","4TD"]}
{"price":20000,"dateOfTransfer":"1995-09-15T00:00:00","postcodeFull":"SS16 4LJ","propertyType":"Flat/Maisonette/Townhouse","oldOrNew":"Established","duration":"Leasehold","paon":"126","saon":"","street":"BYFLETTS","locality":"BASILDON","townOrCity":"BASILDON","district":"BASILDON","county":"ESSEX","ppdCategoryType":"Standard","recordStatus":"Addition","latitude":51.561724,"longitude":0.489862,"postcodeStart":"SS16 4","postcode":["SS16","4LJ"]}
{"price":30995,"dateOfTransfer":"1995-10-23T00:00:00","postcodeFull":"SS16 4TQ","propertyType":"Flat/Maisonette/Townhouse","oldOrNew":"New build","duration":"Leasehold","paon":"20","saon":"","street":"CHESTNUT ROAD","locality":"VANGE","townOrCity":"BASILDON","district":"BASILDON","county":"ESSEX","ppdCategoryType":"Standard","recordStatus":"Addition","latitude":51.561364,"longitude":0.497879,"postcodeStart":"SS16 4","postcode":["SS16","4TQ"]}
{"price":35000,"dateOfTransfer":"1995-05-26T00:00:00","postcodeFull":"SS16 4QZ","propertyType":"Flat/Maisonette/Townhouse","oldOrNew":"Established","duration":"Leasehold","paon":"28","saon":"","street":"SEAVIEW AVENUE","locality":"BASILDON","townOrCity":"BASILDON","district":"BASILDON","county":"ESSEX","ppdCategoryType":"Standard","recordStatus":"Addition","latitude":51.556929,"longitude":0.47888,"postcodeStart":"SS16 4","postcode":["SS16","4QZ"]}
{"price":27495,"dateOfTransfer":"1995-11-22T00:00:00","postcodeFull":"SS16 4TQ","propertyType":"Flat/Maisonette/Townhouse","oldOrNew":"New build","duration":"Leasehold","paon":"24","saon":"","street":"CHESTNUT ROAD","locality":"VANGE","townOrCity":"BASILDON","district":"BASILDON","county":"ESSEX","ppdCategoryType":"Standard","recordStatus":"Addition","latitude":51.561364,"longitude":0.497879,"postcodeStart":"SS16 4","postcode":["SS16","4TQ"]}
{"price":35500,"dateOfTransfer":"1995-12-21T00:00:00","postcodeFull":"SS16 4TD","propertyType":"Flat/Maisonette/Townhouse","oldOrNew":"New build","duration":"Leasehold","paon":"37","saon":"","street":"CHESTNUT ROAD","locality":"VANGE","townOrCity":"BASILDON","district":"BASILDON","county":"ESSEX","ppdCategoryType":"Standard","recordStatus":"Addition","latitude":51.561891,"longitude":0.498052,"postcodeStart":"SS16 4","postcode":["SS16","4TD"]}
{"price":35500,"dateOfTransfer":"1995-10-12T00:00:00","postcodeFull":"SS16 4AW","propertyType":"Terraced","oldOrNew":"Established","duration":"Freehold","paon":"22","saon":"","street":"MISTLEY PATH","locality":"BASILDON","townOrCity":"BASILDON","district":"BASILDON","county":"ESSEX","ppdCategoryType":"Standard","recordStatus":"Addition","latitude":51.566117,"longitude":0.473045,"postcodeStart":"SS16 4","postcode":["SS16","4AW"]}
{"price":28995,"dateOfTransfer":"1995-11-08T00:00:00","postcodeFull":"SS16 4PB","propertyType":"Terraced","oldOrNew":"Established","duration":"Freehold","paon":"148","saon":"","street":"SWANSTEAD","locality":"BASILDON","townOrCity":"BASILDON","district":"BASILDON","county":"ESSEX","ppdCategoryType":"Standard","recordStatus":"Addition","latitude":51.560584,"longitude":0.485096,"postcodeStart":"SS16 4","postcode":["SS16","4PB"]}
{"price":30000,"dateOfTransfer":"1995-10-31T00:00:00","postcodeFull":"SS16 4NW","propertyType":"Flat/Maisonette/Townhouse","oldOrNew":"Established","duration":"Leasehold","paon":"KINGSWOOD COURT","saon":"7","street":"CLAY HILL ROAD","locality":"BASILDON","townOrCity":"BASILDON","district":"BASILDON","county":"ESSEX","ppdCategoryType":"Standard","recordStatus":"Addition","latitude":51.565573,"longitude":0.485628,"postcodeStart":"SS16 4","postcode":["SS16","4NW"]}
{"price":48000,"dateOfTransfer":"1995-10-23T00:00:00","postcodeFull":"SS16 4HR","propertyType":"Terraced","oldOrNew":"Established","duration":"Freehold","paon":"143","saon":"","street":"REDGRAVE ROAD","locality":"BASILDON","townOrCity":"BASILDON","district":"BASILDON","county":"ESSEX","ppdCategoryType":"Standard","recordStatus":"Addition","latitude":51.563889,"longitude":0.482304,"postcodeStart":"SS16 4","postcode":["SS16","4HR"]}
{"price":51000,"dateOfTransfer":"1995-09-29T00:00:00","postcodeFull":"SS16 4AD","propertyType":"Semi-detached","oldOrNew":"Established","duration":"Freehold","paon":"230","saon":"","street":"CLAY HILL ROAD","locality":"BASILDON","townOrCity":"BASILDON","district":"BASILDON","county":"ESSEX","ppdCategoryType":"Standard","recordStatus":"Addition","latitude":51.564731,"longitude":0.474384,"postcodeStart":"SS16 4","postcode":["SS16","4AD"]}
{"price":28500,"dateOfTransfer":"1995-12-04T00:00:00","postcodeFull":"SS16 4TD","propertyType":"Flat/Maisonette/Townhouse","oldOrNew":"New build","duration":"Leasehold","paon":"29","saon":"","street":"CHESTNUT ROAD","locality":"VANGE","townOrCity":"BASILDON","district":"BASILDON","county":"ESSEX","ppdCategoryType":"Standard","recordStatus":"Addition","latitude":51.561891,"longitude":0.498052,"postcodeStart":"SS16 4","postcode":["SS16","4TD"]}
{"price":48500,"dateOfTransfer":"1995-07-13T00:00:00","postcodeFull":"SS16 4RL","propertyType":"Semi-detached","oldOrNew":"Established","duration":"Freehold","paon":"35","saon":"","street":"THE VALE","locality":"BASILDON","townOrCity":"BASILDON","district":"BASILDON","county":"ESSEX","ppdCategoryType":"Standard","recordStatus":"Addition","latitude":51.556369,"longitude":0.475993,"postcodeStart":"SS16 4","postcode":["SS16","4RL"]}
{"price":40700,"dateOfTransfer":"1995-11-17T00:00:00","postcodeFull":"SS16 4XB","propertyType":"Terraced","oldOrNew":"Established","duration":"Freehold","paon":"7","saon":"","street":"DRIFTWAY","locality":"BASILDON","townOrCity":"BASILDON","district":"BASILDON","county":"ESSEX","ppdCategoryType":"Standard","recordStatus":"Addition","latitude":51.559708,"longitude":0.493286,"postcodeStart":"SS16 4","postcode":["SS16","4XB"]}
{"price":36000,"dateOfTransfer":"1995-12-11T00:00:00","postcodeFull":"SS16 4TD","propertyType":"Flat/Maisonette/Townhouse","oldOrNew":"New build","duration":"Leasehold","paon":"23","saon":"","street":"CHESTNUT ROAD","locality":"VANGE","townOrCity":"BASILDON","district":"BASILDON","county":"ESSEX","ppdCategoryType":"Standard","recordStatus":"Addition","latitude":51.561891,"longitude":0.498052,"postcodeStart":"SS16 4","postcode":["SS16","4TD"]}
{"price":26995,"dateOfTransfer":"1995-10-30T00:00:00","postcodeFull":"SS16 4TQ","propertyType":"Flat/Maisonette/Townhouse","oldOrNew":"New build","duration":"Leasehold","paon":"10","saon":"","street":"CHESTNUT ROAD","locality":"VANGE","townOrCity":"BASILDON","district":"BASILDON","county":"ESSEX","ppdCategoryType":"Standard","recordStatus":"Addition","latitude":51.561364,"longitude":0.497879,"postcodeStart":"SS16 4","postcode":["SS16","4TQ"]}
{"price":32000,"dateOfTransfer":"1995-08-24T00:00:00","postcodeFull":"SS16 4LG","propertyType":"Terraced","oldOrNew":"Established","duration":"Freehold","paon":"74","saon":"","street":"BYFLETTS","locality":"BASILDON","townOrCity":"BASILDON","district":"BASILDON","county":"ESSEX","ppdCategoryType":"Standard","recordStatus":"Addition","latitude":51.561672,"longitude":0.487637,"postcodeStart":"SS16 4","postcode":["SS16","4LG"]}
{"price":26500,"dateOfTransfer":"1995-11-24T00:00:00","postcodeFull":"SS16 4TQ","propertyType":"Flat/Maisonette/Townhouse","oldOrNew":"New build","duration":"Leasehold","paon":"2","saon":"","street":"CHESTNUT ROAD","locality":"VANGE","townOrCity":"BASILDON","district":"BASILDON","county":"ESSEX","ppdCategoryType":"Standard","recordStatus":"Addition","latitude":51.561364,"longitude":0.497879,"postcodeStart":"SS16 4","postcode":["SS16","4TQ"]}
{"price":29995,"dateOfTransfer":"1995-11-30T00:00:00","postcodeFull":"SS16 4JS","propertyType":"Flat/Maisonette/Townhouse","oldOrNew":"Established","duration":"Leasehold","paon":"FIRS COURT","saon":"FLAT 3","street":"KENT VIEW ROAD","locality":"BASILDON","townOrCity":"BASILDON","district":"BASILDON","county":"ESSEX","ppdCategoryType":"Standard","recordStatus":"Addition","latitude":51.562219,"longitude":0.488994,"postcodeStart":"SS16 4","postcode":["SS16","4JS"]}
{"price":40000,"dateOfTransfer":"1995-09-22T00:00:00","postcodeFull":"SS16 4LX","propertyType":"Terraced","oldOrNew":"Established","duration":"Freehold","paon":"10","saon":"","street":"GRAPNELLS","locality":"BASILDON","townOrCity":"BASILDON","district":"BASILDON","county":"ESSEX","ppdCategoryType":"Standard","recordStatus":"Addition","latitude":51.562533,"longitude":0.493672,"postcodeStart":"SS16 4","postcode":["SS16","4LX"]}
{"price":24500,"dateOfTransfer":"1995-08-22T00:00:00","postcodeFull":"SS16 4UU","propertyType":"Terraced","oldOrNew":"Established","duration":"Freehold","paon":"1","saon":"","street":"WHYTEWATERS","locality":"BASILDON","townOrCity":"BASILDON","district":"BASILDON","county":"ESSEX","ppdCategoryType":"Standard","recordStatus":"Addition","latitude":51.56005,"longitude":0.489467,"postcodeStart":"SS16 4","postcode":["SS16","4UU"]}
{"price":60000,"dateOfTransfer":"1995-08-15T00:00:00","postcodeFull":"SS16 4JX","propertyType":"Detached","oldOrNew":"Established","duration":"Freehold","paon":"76","saon":"","street":"KENT VIEW ROAD","locality":"BASILDON","townOrCity":"BASILDON","district":"BASILDON","county":"ESSEX","ppdCategoryType":"Standard","recordStatus":"Addition","latitude":51.563907,"longitude":0.488697,"postcodeStart":"SS16 4","postcode":["SS16","4JX"]}
{"price":71000,"dateOfTransfer":"1995-05-26T00:00:00","postcodeFull":"SS16 4QZ","propertyType":"Detached","oldOrNew":"Established","duration":"Freehold","paon":"31","saon":"","street":"SEAVIEW AVENUE","locality":"BASILDON","townOrCity":"BASILDON","district":"BASILDON","county":"ESSEX","ppdCategoryType":"Standard","recordStatus":"Addition","latitude":51.556929,"longitude":0.47888,"postcodeStart":"SS16 4","postcode":["SS16","4QZ"]}
{"price":67500,"dateOfTransfer":"1995-10-20T00:00:00","postcodeFull":"SS16 4RR","propertyType":"Detached","oldOrNew":"Established","duration":"Freehold","paon":"3","saon":"","street":"RAMSAY DRIVE","locality":"BASILDON","townOrCity":"BASILDON","district":"BASILDON","county":"ESSEX","ppdCategoryType":"Standard","recordStatus":"Addition","latitude":51.557507,"longitude":0.485159,"postcodeStart":"SS16 4","postcode":["SS16","4RR"]}
{"price":26500,"dateOfTransfer":"1995-11-20T00:00:00","postcodeFull":"SS16 4TQ","propertyType":"Flat/Maisonette/Townhouse","oldOrNew":"New build","duration":"Leasehold","paon":"8","saon":"","street":"CHESTNUT ROAD","locality":"VANGE","townOrCity":"BASILDON","district":"BASILDON","county":"ESSEX","ppdCategoryType":"Standard","recordStatus":"Addition","latitude":51.561364,"longitude":0.497879,"postcodeStart":"SS16 4","postcode":["SS16","4TQ"]}
{"price":15000,"dateOfTransfer":"1995-11-24T00:00:00","postcodeFull":"SS16 4PH","propertyType":"Flat/Maisonette/Townhouse","oldOrNew":"Established","duration":"Leasehold","paon":"43","saon":"","street":"POLSTEADS","locality":"BASILDON","townOrCity":"BASILDON","district":"BASILDON","county":"ESSEX","ppdCategoryType":"Standard","recordStatus":"Addition","latitude":51.559708,"longitude":0.484428,"postcodeStart":"SS16 4","postcode":["SS16","4PH"]}
{"price":36000,"dateOfTransfer":"1995-10-17T00:00:00","postcodeFull":"SS16 4HL","propertyType":"Terraced","oldOrNew":"Established","duration":"Freehold","paon":"122A","saon":"","street":"REDGRAVE ROAD","locality":"BASILDON","townOrCity":"BASILDON","district":"BASILDON","county":"ESSEX","ppdCategoryType":"Standard","recordStatus":"Addition","latitude":51.563978,"longitude":0.480649,"postcodeStart":"SS16 4","postcode":["SS16","4HL"]}
{"price":37995,"dateOfTransfer":"1995-06-22T00:00:00","postcodeFull":"SS16 4BW","propertyType":"Terraced","oldOrNew":"Established","duration":"Freehold","paon":"42","saon":"","street":"FURLONGS","locality":"BASILDON","townOrCity":"BASILDON","district":"BASILDON","county":"ESSEX","ppdCategoryType":"Standard","recordStatus":"Addition","latitude":51.562893,"longitude":0.474559,"postcodeStart":"SS16 4","postcode":["SS16","4BW"]}
{"price":51995,"dateOfTransfer":"1995-09-29T00:00:00","postcodeFull":"SS16 4AS","propertyType":"Terraced","oldOrNew":"Established","duration":"Freehold","paon":"45","saon":"","street":"OSBORNE ROAD","locality":"BASILDON","townOrCity":"BASILDON","district":"BASILDON","county":"ESSEX","ppdCategoryType":"Standard","recordStatus":"Addition","latitude":51.568125,"longitude":0.470384,"postcodeStart":"SS16 4","postcode":["SS16","4AS"]}
{"price":44500,"dateOfTransfer":"1995-12-29T00:00:00","postcodeFull":"SS16 4LT","propertyType":"Terraced","oldOrNew":"Established","duration":"Freehold","paon":"40","saon":"","street":"GRAPNELLS","locality":"BASILDON","townOrCity":"BASILDON","district":"BASILDON","county":"ESSEX","ppdCategoryType":"Standard","recordStatus":"Addition","latitude":51.562719,"longitude":0.492557,"postcodeStart":"SS16 4","postcode":["SS16","4LT"]}
{"price":38500,"dateOfTransfer":"1995-05-12T00:00:00","postcodeFull":"SS16 4UZ","propertyType":"Terraced","oldOrNew":"Established","duration":"Freehold","paon":"11","saon":"","street":"SPRINGFIELDS","locality":"BASILDON","townOrCity":"BASILDON","district":"BASILDON","county":"ESSEX","ppdCategoryType":"Standard","recordStatus":"Addition","latitude":51.56012,"longitude":0.492097,"postcodeStart":"SS16 4","postcode":["SS16","4UZ"]}
{"price":93000,"dateOfTransfer":"1995-07-17T00:00:00","postcodeFull":"SS16 4QL","propertyType":"Detached","oldOrNew":"New build","duration":"Freehold","paon":"19","saon":"","street":"DOWNS GROVE","locality":"BASILDON","townOrCity":"BASILDON","district":"BASILDON","county":"ESSEX","ppdCategoryType":"Standard","recordStatus":"Addition","latitude":51.557276,"longitude":0.480342,"postcodeStart":"SS16 4","postcode":["SS16","4QL"]}
{"price":31500,"dateOfTransfer":"1995-11-07T00:00:00","postcodeFull":"SS16 4NW","propertyType":"Flat/Maisonette/Townhouse","oldOrNew":"Established","duration":"Leasehold","paon":"KINGSWOOD COURT","saon":"2","street":"CLAY HILL ROAD","locality":"BASILDON","townOrCity":"BASILDON","district":"BASILDON","county":"ESSEX","ppdCategoryType":"Standard","recordStatus":"Addition","latitude":51.565573,"longitude":0.485628,"postcodeStart":"SS16 4","postcode":["SS16","4NW"]}
{"price":38000,"dateOfTransfer":"1995-05-26T00:00:00","postcodeFull":"SS16 4NY","propertyType":"Terraced","oldOrNew":"Established","duration":"Freehold","paon":"22","saon":"","street":"OLDWYK","locality":"BASILDON","townOrCity":"BASILDON","district":"BASILDON","county":"ESSEX","ppdCategoryType":"Standard","recordStatus":"Addition","latitude":51.562021,"longitude":0.483068,"postcodeStart":"SS16 4","postcode":["SS16","4NY"]}
{"price":35000,"dateOfTransfer":"1995-12-15T00:00:00","postcodeFull":"SS16 4TD","propertyType":"Flat/Maisonette/Townhouse","oldOrNew":"New build","duration":"Leasehold","paon":"11","saon":"","street":"CHESTNUT ROAD","locality":"VANGE","townOrCity":"BASILDON","district":"BASILDON","county":"ESSEX","ppdCategoryType":"Standard","recordStatus":"Addition","latitude":51.561891,"longitude":0.498052,"postcodeStart":"SS16 4","postcode":["SS16","4TD"]}
{"price":22995,"dateOfTransfer":"1995-11-20T00:00:00","postcodeFull":"SS16 4TD","propertyType":"Flat/Maisonette/Townhouse","oldOrNew":"New build","duration":"Leasehold","paon":"3","saon":"","street":"CHESTNUT ROAD","locality":"VANGE","townOrCity":"BASILDON","district":"BASILDON","county":"ESSEX","ppdCategoryType":"Standard","recordStatus":"Addition","latitude":51.561891,"longitude":0.498052,"postcodeStart":"SS16 4","postcode":["SS16","4TD"]}
{"price":30000,"dateOfTransfer":"1995-07-21T00:00:00","postcodeFull":"SS16 4PD","propertyType":"Terraced","oldOrNew":"Established","duration":"Freehold","paon":"102","saon":"","street":"SWANSTEAD","locality":"BASILDON","townOrCity":"BASILDON","district":"BASILDON","county":"ESSEX","ppdCategoryType":"Standard","recordStatus":"Addition","latitude":51.560227,"longitude":0.484528,"postcodeStart":"SS16 4","postcode":["SS16","4PD"]}
{"price":45000,"dateOfTransfer":"1995-09-28T00:00:00","postcodeFull":"SS16 4LT","propertyType":"Terraced","oldOrNew":"Established","duration":"Freehold","paon":"34","saon":"","street":"GRAPNELLS","locality":"BASILDON","townOrCity":"BASILDON","district":"BASILDON","county":"ESSEX","ppdCategoryType":"Standard","recordStatus":"Addition","latitude":51.562719,"longitude":0.492557,"postcodeStart":"SS16 4","postcode":["SS16","4LT"]}
{"price":23500,"dateOfTransfer":"1995-12-18T00:00:00","postcodeFull":"SS16 4TD","propertyType":"Flat/Maisonette/Townhouse","oldOrNew":"New build","duration":"Leasehold","paon":"15","saon":"","street":"CHESTNUT ROAD","locality":"VANGE","townOrCity":"BASILDON","district":"BASILDON","county":"ESSEX","ppdCategoryType":"Standard","recordStatus":"Addition","latitude":51.561891,"longitude":0.498052,"postcodeStart":"SS16 4","postcode":["SS16","4TD"]}
{"price":47000,"dateOfTransfer":"1995-09-29T00:00:00","postcodeFull":"SS16 4DP","propertyType":"Terraced","oldOrNew":"Established","duration":"Freehold","paon":"10","saon":"","street":"COLLINGWOOD ROAD","locality":"BASILDON","townOrCity":"BASILDON","district":"BASILDON","county":"ESSEX","ppdCategoryType":"Standard","recordStatus":"Addition","latitude":51.564463,"longitude":0.479016,"postcodeStart":"SS16 4","postcode":["SS16","4DP"]}
{"price":129500,"dateOfTransfer":"1995-06-01T00:00:00","postcodeFull":"SS16 4BP","propertyType":"Detached","oldOrNew":"Established","duration":"Freehold","paon":"10","saon":"","street":"THE KNOWLE","locality":"BASILDON","townOrCity":"BASILDON","district":"BASILDON","county":"ESSEX","ppdCategoryType":"Standard","recordStatus":"Addition","latitude":51.563057,"longitude":0.472317,"postcodeStart":"SS16 4","postcode":["SS16","4BP"]}
{"price":43000,"dateOfTransfer":"1995-04-28T00:00:00","postcodeFull":"SS16 4QL","propertyType":"Flat/Maisonette/Townhouse","oldOrNew":"New build","duration":"Leasehold","paon":"11","saon":"","street":"DOWNS GROVE","locality":"BASILDON","townOrCity":"BASILDON","district":"BASILDON","county":"ESSEX","ppdCategoryType":"Standard","recordStatus":"Addition","latitude":51.557276,"longitude":0.480342,"postcodeStart":"SS16 4","postcode":["SS16","4QL"]}
{"price":36000,"dateOfTransfer":"1995-10-09T00:00:00","postcodeFull":"SS16 4UX","propertyType":"Terraced","oldOrNew":"Established","duration":"Freehold","paon":"4","saon":"","street":"TIMBERMANS VIEW","locality":"BASILDON","townOrCity":"BASILDON","district":"BASILDON","county":"ESSEX","ppdCategoryType":"Standard","recordStatus":"Addition","latitude":51.560559,"longitude":0.490923,"postcodeStart":"SS16 4","postcode":["SS16","4UX"]}
{"price":42500,"dateOfTransfer":"1995-01-12T00:00:00","postcodeFull":"SS16 4BS","propertyType":"Terraced","oldOrNew":"Established","duration":"Freehold","paon":"10","saon":"","street":"MAPLEFORD SWEEP","locality":"BASILDON","townOrCity":"BASILDON","district":"BASILDON","county":"ESSEX","ppdCategoryType":"Standard","recordStatus":"Addition","latitude":51.563423,"longitude":0.474991,"postcodeStart":"SS16 4","postcode":["SS16","4BS"]}
{"price":46000,"dateOfTransfer":"1995-01-27T00:00:00","postcodeFull":"SS16 4AP","propertyType":"Terraced","oldOrNew":"Established","duration":"Freehold","paon":"6","saon":"","street":"MISTLEY SIDE","locality":"BASILDON","townOrCity":"BASILDON","district":"BASILDON","county":"ESSEX","ppdCategoryType":"Standard","recordStatus":"Addition","latitude":51.567399,"longitude":0.471975,"postcodeStart":"SS16 4","postcode":["SS16","4AP"]}
{"price":39950,"dateOfTransfer":"1995-12-20T00:00:00","postcodeFull":"SS16 4UT","propertyType":"Terraced","oldOrNew":"Established","duration":"Freehold","paon":"39","saon":"","street":"FLEETWAY","locality":"BASILDON","townOrCity":"BASILDON","district":"BASILDON","county":"ESSEX","ppdCategoryType":"Standard","recordStatus":"Addition","latitude":51.560867,"longitude":0.489959,"postcodeStart":"SS16 4","postcode":["SS16","4UT"]}
{"price":48000,"dateOfTransfer":"1995-09-15T00:00:00","postcodeFull":"SS16 4BE","propertyType":"Terraced","oldOrNew":"Established","duration":"Freehold","paon":"3","saon":"","street":"GREAT MISTLEY","locality":"BASILDON","townOrCity":"BASILDON","district":"BASILDON","county":"ESSEX","ppdCategoryType":"Standard","recordStatus":"Addition","latitude":51.565437,"longitude":0.47373,"postcodeStart":"SS16 4","postcode":["SS16","4BE"]}
{"price":46500,"dateOfTransfer":"1995-07-31T00:00:00","postcodeFull":"SS16 4AP","propertyType":"Terraced","oldOrNew":"Established","duration":"Freehold","paon":"12","saon":"","street":"MISTLEY SIDE","locality":"BASILDON","townOrCity":"BASILDON","district":"BASILDON","county":"ESSEX","ppdCategoryType":"Standard","recordStatus":"Addition","latitude":51.567399,"longitude":0.471975,"postcodeStart":"SS16 4","postcode":["SS16","4AP"]}
{"price":48995,"dateOfTransfer":"1995-08-10T00:00:00","postcodeFull":"SS16 4AN","propertyType":"Terraced","oldOrNew":"Established","duration":"Freehold","paon":"53","saon":"","street":"MISTLEY PATH","locality":"BASILDON","townOrCity":"BASILDON","district":"BASILDON","county":"ESSEX","ppdCategoryType":"Standard","recordStatus":"Addition","latitude":51.567231,"longitude":0.473135,"postcodeStart":"SS16 4","postcode":["SS16","4AN"]}
{"price":59000,"dateOfTransfer":"1995-01-25T00:00:00","postcodeFull":"SS16 4TT","propertyType":"Semi-detached","oldOrNew":"Established","duration":"Freehold","paon":"4","saon":"","street":"AVONDALE ROAD","locality":"BASILDON","townOrCity":"BASILDON","district":"BASILDON","county":"ESSEX","ppdCategoryType":"Standard","recordStatus":"Addition","latitude":51.561017,"longitude":0.496864,"postcodeStart":"SS16 4","postcode":["SS16","4TT"]}
{"price":24000,"dateOfTransfer":"1995-12-11T00:00:00","postcodeFull":"SS16 4TD","propertyType":"Flat/Maisonette/Townhouse","oldOrNew":"New build","duration":"Leasehold","paon":"25","saon":"","street":"CHESTNUT ROAD","locality":"VANGE","townOrCity":"BASILDON","district":"BASILDON","county":"ESSEX","ppdCategoryType":"Standard","recordStatus":"Addition","latitude":51.561891,"longitude":0.498052,"postcodeStart":"SS16 4","postcode":["SS16","4TD"]}
{"price":30000,"dateOfTransfer":"1995-12-11T00:00:00","postcodeFull":"SS16 4TQ","propertyType":"Flat/Maisonette/Townhouse","oldOrNew":"New build","duration":"Leasehold","paon":"6","saon":"","street":"CHESTNUT ROAD","locality":"VANGE","townOrCity":"BASILDON","district":"BASILDON","county":"ESSEX","ppdCategoryType":"Standard","recordStatus":"Addition","latitude":51.561364,"longitude":0.497879,"postcodeStart":"SS16 4","postcode":["SS16","4TQ"]}
{"price":30500,"dateOfTransfer":"1995-11-03T00:00:00","postcodeFull":"SS16 4TQ","propertyType":"Flat/Maisonette/Townhouse","oldOrNew":"New build","duration":"Leasehold","paon":"12","saon":"","street":"CHESTNUT ROAD","locality":"VANGE","townOrCity":"BASILDON","district":"BASILDON","county":"ESSEX","ppdCategoryType":"Standard","recordStatus":"Addition","latitude":51.561364,"longitude":0.497879,"postcodeStart":"SS16 4","postcode":["SS16","4TQ"]}
{"price":45000,"dateOfTransfer":"1995-11-01T00:00:00","postcodeFull":"SS16 4DZ","propertyType":"Terraced","oldOrNew":"Established","duration":"Freehold","paon":"49","saon":"","street":"COLLINGWOOD ROAD","locality":"BASILDON","townOrCity":"BASILDON","district":"BASILDON","county":"ESSEX","ppdCategoryType":"Standard","recordStatus":"Addition","latitude":51.564172,"longitude":0.475321,"postcodeStart":"SS16 4","postcode":["SS16","4DZ"]}
{"price":102000,"dateOfTransfer":"1995-11-17T00:00:00","postcodeFull":"SS16 4AD","propertyType":"Detached","oldOrNew":"Established","duration":"Freehold","paon":"236A","saon":"","street":"CLAY HILL ROAD","locality":"BASILDON","townOrCity":"BASILDON","district":"BASILDON","county":"ESSEX","ppdCategoryType":"Standard","recordStatus":"Addition","latitude":51.564731,"longitude":0.474384,"postcodeStart":"SS16 4","postcode":["SS16","4AD"]}
{"price":58000,"dateOfTransfer":"1995-12-15T00:00:00","postcodeFull":"SS16 4TT","propertyType":"Semi-detached","oldOrNew":"Established","duration":"Freehold","paon":"13","saon":"","street":"AVONDALE ROAD","locality":"BASILDON","townOrCity":"BASILDON","district":"BASILDON","county":"ESSEX","ppdCategoryType":"Standard","recordStatus":"Addition","latitude":51.561017,"longitude":0.496864,"postcodeStart":"SS16 4","postcode":["SS16","4TT"]}
{"price":110000,"dateOfTransfer":"1995-05-05T00:00:00","postcodeFull":"SS16 4BP","propertyType":"Detached","oldOrNew":"Established","duration":"Freehold","paon":"12","saon":"","street":"THE KNOWLE","locality":"BASILDON","townOrCity":"BASILDON","district":"BASILDON","county":"ESSEX","ppdCategoryType":"Standard","recordStatus":"Addition","latitude":51.563057,"longitude":0.472317,"postcodeStart":"SS16 4","postcode":["SS16","4BP"]}
{"price":52500,"dateOfTransfer":"1995-05-05T00:00:00","postcodeFull":"SS16 4QL","propertyType":"Terraced","oldOrNew":"Established","duration":"Freehold","paon":"44","saon":"","street":"DOWNS GROVE","locality":"BASILDON","townOrCity":"BASILDON","district":"BASILDON","county":"ESSEX","ppdCategoryType":"Standard","recordStatus":"Addition","latitude":51.557276,"longitude":0.480342,"postcodeStart":"SS16 4","postcode":["SS16","4QL"]}
{"price":59250,"dateOfTransfer":"1995-06-23T00:00:00","postcodeFull":"SS16 4AP","propertyType":"Terraced","oldOrNew":"Established","duration":"Freehold","paon":"37","saon":"","street":"MISTLEY SIDE","locality":"BASILDON","townOrCity":"BASILDON","district":"BASILDON","county":"ESSEX","ppdCategoryType":"Standard","recordStatus":"Addition","latitude":51.567399,"longitude":0.471975,"postcodeStart":"SS16 4","postcode":["SS16","4AP"]}
{"price":44000,"dateOfTransfer":"1995-05-30T00:00:00","postcodeFull":"SS16 4JZ","propertyType":"Terraced","oldOrNew":"Established","duration":"Freehold","paon":"18","saon":"","street":"KENT VIEW ROAD","locality":"BASILDON","townOrCity":"BASILDON","district":"BASILDON","county":"ESSEX","ppdCategoryType":"Standard","recordStatus":"Addition","latitude":51.563037,"longitude":0.489443,"postcodeStart":"SS16 4","postcode":["SS16","4JZ"]}
{"price":60000,"dateOfTransfer":"1995-08-14T00:00:00","postcodeFull":"SS16 4JX","propertyType":"Detached","oldOrNew":"Established","duration":"Freehold","paon":"76","saon":"","street":"KENT VIEW ROAD","locality":"BASILDON","townOrCity":"BASILDON","district":"BASILDON","county":"ESSEX","ppdCategoryType":"Standard","recordStatus":"Addition","latitude":51.563907,"longitude":0.488697,"postcodeStart":"SS16 4","postcode":["SS16","4JX"]}
{"price":80160,"dateOfTransfer":"1995-08-25T00:00:00","postcodeFull":"SS16 4LA","propertyType":"Detached","oldOrNew":"Established","duration":"Freehold","paon":"11A","saon":"","street":"KENT VIEW ROAD","locality":"BASILDON","townOrCity":"BASILDON","district":"BASILDON","county":"ESSEX","ppdCategoryType":"Standard","recordStatus":"Addition","latitude":51.562353,"longitude":0.489002,"postcodeStart":"SS16 4","postcode":["SS16","4LA"]}
{"price":36000,"dateOfTransfer":"1995-12-21T00:00:00","postcodeFull":"SS16 4TD","propertyType":"Flat/Maisonette/Townhouse","oldOrNew":"New build","duration":"Leasehold","paon":"41","saon":"","street":"CHESTNUT ROAD","locality":"VANGE","townOrCity":"BASILDON","district":"BASILDON","county":"ESSEX","ppdCategoryType":"Standard","recordStatus":"Addition","latitude":51.561891,"longitude":0.498052,"postcodeStart":"SS16 4","postcode":["SS16","4TD"]}
{"price":30500,"dateOfTransfer":"1995-10-30T00:00:00","postcodeFull":"SS16 4TQ","propertyType":"Flat/Maisonette/Townhouse","oldOrNew":"New build","duration":"Leasehold","paon":"14","saon":"","street":"CHESTNUT ROAD","locality":"VANGE","townOrCity":"BASILDON","district":"BASILDON","county":"ESSEX","ppdCategoryType":"Standard","recordStatus":"Addition","latitude":51.561364,"longitude":0.497879,"postcodeStart":"SS16 4","postcode":["SS16","4TQ"]}
{"price":58500,"dateOfTransfer":"1995-08-21T00:00:00","postcodeFull":"SS16 4TT","propertyType":"Semi-detached","oldOrNew":"Established","duration":"Freehold","paon":"33","saon":"","street":"AVONDALE ROAD","locality":"BASILDON","townOrCity":"BASILDON","district":"BASILDON","county":"ESSEX","ppdCategoryType":"Standard","recordStatus":"Addition","latitude":51.561017,"longitude":0.496864,"postcodeStart":"SS16 4","postcode":["SS16","4TT"]}
{"price":35000,"dateOfTransfer":"1995-04-07T00:00:00","postcodeFull":"SS16 4XA","propertyType":"Terraced","oldOrNew":"Established","duration":"Freehold","paon":"3","saon":"","street":"FRESHWATER DRIVE","locality":"BASILDON","townOrCity":"BASILDON","district":"BASILDON","county":"ESSEX","ppdCategoryType":"Standard","recordStatus":"Addition","latitude":51.559875,"longitude":0.492646,"postcodeStart":"SS16 4","postcode":["SS16","4XA"]}
{"price":36500,"dateOfTransfer":"1995-10-31T00:00:00","postcodeFull":"SS16 4ET","propertyType":"Terraced","oldOrNew":"Established","duration":"Freehold","paon":"8","saon":"","street":"SOUTHVIEW ROAD","locality":"VANGE","townOrCity":"BASILDON","district":"BASILDON","county":"ESSEX","ppdCategoryType":"Standard","recordStatus":"Addition","latitude":51.56669,"longitude":0.48299,"postcodeStart":"SS16 4","postcode":["SS16","4ET"]}
{"price":28000,"dateOfTransfer":"1995-12-11T00:00:00","postcodeFull":"SS16 4TD","propertyType":"Flat/Maisonette/Townhouse","oldOrNew":"New build","duration":"Leasehold","paon":"19","saon":"","street":"CHESTNUT ROAD","locality":"VANGE","townOrCity":"BASILDON","district":"BASILDON","county":"ESSEX","ppdCategoryType":"Standard","recordStatus":"Addition","latitude":51.561891,"longitude":0.498052,"postcodeStart":"SS16 4","postcode":["SS16","4TD"]}
{"price":51000,"dateOfTransfer":"1995-06-30T00:00:00","postcodeFull":"SS16 4SU","propertyType":"Terraced","oldOrNew":"Established","duration":"Freehold","paon":"4","saon":"","street":"GRATMORE GREEN","locality":"BASILDON","townOrCity":"BASILDON","district":"BASILDON","county":"ESSEX","ppdCategoryType":"Standard","recordStatus":"Addition","latitude":51.557747,"longitude":0.487394,"postcodeStart":"SS16 4","postcode":["SS16","4SU"]}
{"price":59995,"dateOfTransfer":"1995-03-31T00:00:00","postcodeFull":"SS16 4QL","propertyType":"Semi-detached","oldOrNew":"Established","duration":"Freehold","paon":"38","saon":"","street":"DOWNS GROVE","locality":"BASILDON","townOrCity":"BASILDON","district":"BASILDON","county":"ESSEX","ppdCategoryType":"Standard","recordStatus":"Addition","latitude":51.557276,"longitude":0.480342,"postcodeStart":"SS16 4","postcode":["SS16","4QL"]}
{"price":26000,"dateOfTransfer":"1995-04-19T00:00:00","postcodeFull":"SS16 4HL","propertyType":"Terraced","oldOrNew":"Established","duration":"Freehold","paon":"122A","saon":"","street":"REDGRAVE ROAD","locality":"BASILDON","townOrCity":"BASILDON","district":"BASILDON","county":"ESSEX","ppdCategoryType":"Standard","recordStatus":"Addition","latitude":51.563978,"longitude":0.480649,"postcodeStart":"SS16 4","postcode":["SS16","4HL"]}
{"price":33000,"dateOfTransfer":"1995-08-09T00:00:00","postcodeFull":"SS16 4PE","propertyType":"Terraced","oldOrNew":"Established","duration":"Freehold","paon":"10","saon":"","street":"SWANSTEAD","locality":"BASILDON","townOrCity":"BASILDON","district":"BASILDON","county":"ESSEX","ppdCategoryType":"Standard","recordStatus":"Addition","latitude":51.560642,"longitude":0.483353,"postcodeStart":"SS16 4","postcode":["SS16","4PE"]}
{"price":22500,"dateOfTransfer":"1995-03-23T00:00:00","postcodeFull":"SS16 4HL","propertyType":"Terraced","oldOrNew":"Established","duration":"Freehold","paon":"122A","saon":"","street":"REDGRAVE ROAD","locality":"BASILDON","townOrCity":"BASILDON","district":"BASILDON","county":"ESSEX","ppdCategoryType":"Standard","recordStatus":"Addition","latitude":51.563978,"longitude":0.480649,"postcodeStart":"SS16 4","postcode":["SS16","4HL"]}
{"price":63500,"dateOfTransfer":"1995-05-19T00:00:00","postcodeFull":"SS16 4QL","propertyType":"Semi-detached","oldOrNew":"Established","duration":"Freehold","paon":"2","saon":"","street":"DOWNS GROVE","locality":"BASILDON","townOrCity":"BASILDON","district":"BASILDON","county":"ESSEX","ppdCategoryType":"Standard","recordStatus":"Addition","latitude":51.557276,"longitude":0.480342,"postcodeStart":"SS16 4","postcode":["SS16","4QL"]}
{"price":31000,"dateOfTransfer":"1995-06-30T00:00:00","postcodeFull":"SS16 4NS","propertyType":"Terraced","oldOrNew":"Established","duration":"Freehold","paon":"17","saon":"","street":"DEWSGREEN","locality":"BASILDON","townOrCity":"BASILDON","district":"BASILDON","county":"ESSEX","ppdCategoryType":"Standard","recordStatus":"Addition","latitude":51.563131,"longitude":0.482435,"postcodeStart":"SS16 4","postcode":["SS16","4NS"]}
{"price":26000,"dateOfTransfer":"1995-09-29T00:00:00","postcodeFull":"SS16 4XD","propertyType":"Flat/Maisonette/Townhouse","oldOrNew":"Established","duration":"Leasehold","paon":"CHASE END","saon":"3","street":"CHASEWAY","locality":"","townOrCity":"BASILDON","district":"BASILDON","county":"ESSEX","ppdCategoryType":"Standard","recordStatus":"Addition","latitude":51.559584,"longitude":0.49364,"postcodeStart":"SS16 4","postcode":["SS16","4XD"]}
{"price":44995,"dateOfTransfer":"1995-06-16T00:00:00","postcodeFull":"SS16 4BA","propertyType":"Terraced","oldOrNew":"Established","duration":"Freehold","paon":"9","saon":"","street":"MISTLEY END","locality":"BASILDON","townOrCity":"BASILDON","district":"BASILDON","county":"ESSEX","ppdCategoryType":"Standard","recordStatus":"Addition","latitude":51.56595,"longitude":0.470756,"postcodeStart":"SS16 4","postcode":["SS16","4BA"]}
{"price":47000,"dateOfTransfer":"1995-12-18T00:00:00","postcodeFull":"SS16 4BD","propertyType":"Terraced","oldOrNew":"Established","duration":"Freehold","paon":"51","saon":"","street":"GREAT MISTLEY","locality":"BASILDON","townOrCity":"BASILDON","district":"BASILDON","county":"ESSEX","ppdCategoryType":"Standard","recordStatus":"Addition","latitude":51.56568,"longitude":0.47204,"postcodeStart":"SS16 4","postcode":["SS16","4BD"]}
{"price":27000,"dateOfTransfer":"1995-11-03T00:00:00","postcodeFull":"SS16 4TQ","propertyType":"Flat/Maisonette/Townhouse","oldOrNew":"New build","duration":"Leasehold","paon":"16","saon":"","street":"CHESTNUT ROAD","locality":"VANGE","townOrCity":"BASILDON","district":"BASILDON","county":"ESSEX","ppdCategoryType":"Standard","recordStatus":"Addition","latitude":51.561364,"longitude":0.497879,"postcodeStart":"SS16 4","postcode":["SS16","4TQ"]}
{"price":69000,"dateOfTransfer":"1995-02-07T00:00:00","postcodeFull":"SS16 4BW","propertyType":"Semi-detached","oldOrNew":"Established","duration":"Freehold","paon":"5","saon":"","street":"FURLONGS","locality":"BASILDON","townOrCity":"BASILDON","district":"BASILDON","county":"ESSEX","ppdCategoryType":"Standard","recordStatus":"Addition","latitude":51.562893,"longitude":0.474559,"postcodeStart":"SS16 4","postcode":["SS16","4BW"]}
{"price":26500,"dateOfTransfer":"1995-12-01T00:00:00","postcodeFull":"SS16 4TD","propertyType":"Flat/Maisonette/Townhouse","oldOrNew":"New build","duration":"Leasehold","paon":"31","saon":"","street":"CHESTNUT ROAD","locality":"VANGE","townOrCity":"BASILDON","district":"BASILDON","county":"ESSEX","ppdCategoryType":"Standard","recordStatus":"Addition","latitude":51.561891,"longitude":0.498052,"postcodeStart":"SS16 4","postcode":["SS16","4TD"]}
{"price":91500,"dateOfTransfer":"1995-01-31T00:00:00","postcodeFull":"SS16 4QZ","propertyType":"Detached","oldOrNew":"New build","duration":"Freehold","paon":"38","saon":"","street":"SEAVIEW AVENUE","locality":"BASILDON","townOrCity":"BASILDON","district":"BASILDON","county":"ESSEX","ppdCategoryType":"Standard","recordStatus":"Addition","latitude":51.556929,"longitude":0.47888,"postcodeStart":"SS16 4","postcode":["SS16","4QZ"]}
{"price":18500,"dateOfTransfer":"1995-06-07T00:00:00","postcodeFull":"SS16 4NZ","propertyType":"Flat/Maisonette/Townhouse","oldOrNew":"Established","duration":"Leasehold","paon":"51","saon":"","street":"SWANSTEAD","locality":"BASILDON","townOrCity":"BASILDON","district":"BASILDON","county":"ESSEX","ppdCategoryType":"Standard","recordStatus":"Addition","latitude":51.5613,"longitude":0.4831,"postcodeStart":"SS16 4","postcode":["SS16","4NZ"]}
{"price":46000,"dateOfTransfer":"1995-08-22T00:00:00","postcodeFull":"SS16 4UU","propertyType":"Terraced","oldOrNew":"Established","duration":"Freehold","paon":"1","saon":"","street":"WHYTEWATERS","locality":"BASILDON","townOrCity":"BASILDON","district":"BASILDON","county":"ESSEX","ppdCategoryType":"Standard","recordStatus":"Addition","latitude":51.56005,"longitude":0.489467,"postcodeStart":"SS16 4","postcode":["SS16","4UU"]}
{"price":42500,"dateOfTransfer":"1995-12-21T00:00:00","postcodeFull":"SS16 4TD","propertyType":"Flat/Maisonette/Townhouse","oldOrNew":"New build","duration":"Leasehold","paon":"39","saon":"","street":"CHESTNUT ROAD","locality":"VANGE","townOrCity":"BASILDON","district":"BASILDON","county":"ESSEX","ppdCategoryType":"Standard","recordStatus":"Addition","latitude":51.561891,"longitude":0.498052,"postcodeStart":"SS16 4","postcode":["SS16","4TD"]}
{"price":36000,"dateOfTransfer":"1995-08-29T00:00:00","postcodeFull":"SS16 4HN","propertyType":"Terraced","oldOrNew":"Established","duration":"Freehold","paon":"2","saon":"","street":"THE HEDGEROW","locality":"BASILDON","townOrCity":"BASILDON","district":"BASILDON","county":"ESSEX","ppdCategoryType":"Standard","recordStatus":"Addition","latitude":51.56432,"longitude":0.480235,"postcodeStart":"SS16 4","postcode":["SS16","4HN"]}
{"price":47500,"dateOfTransfer":"1995-08-24T00:00:00","postcodeFull":"SS16 4LS","propertyType":"Terraced","oldOrNew":"Established","duration":"Freehold","paon":"38","saon":"","street":"PASLOWES","locality":"BASILDON","townOrCity":"BASILDON","district":"BASILDON","county":"ESSEX","ppdCategoryType":"Standard","recordStatus":"Addition","latitude":51.563136,"longitude":0.491093,"postcodeStart":"SS16 4","postcode":["SS16","4LS"]}
{"price":27500,"dateOfTransfer":"1995-05-05T00:00:00","postcodeFull":"SS16 4PB","propertyType":"Terraced","oldOrNew":"Established","duration":"Freehold","paon":"160","saon":"","street":"SWANSTEAD","locality":"BASILDON","townOrCity":"BASILDON","district":"BASILDON","county":"ESSEX","ppdCategoryType":"Standard","recordStatus":"Addition","latitude":51.560584,"longitude":0.485096,"postcodeStart":"SS16 4","postcode":["SS16","4PB"]}
{"price":38000,"dateOfTransfer":"1995-03-10T00:00:00","postcodeFull":"SS16 4NA","propertyType":"Terraced","oldOrNew":"Established","duration":"Freehold","paon":"17","saon":"","street":"RICKLING","locality":"BASILDON","townOrCity":"BASILDON","district":"BASILDON","county":"ESSEX","ppdCategoryType":"Standard","recordStatus":"Addition","latitude":51.562052,"longitude":0.491755,"postcodeStart":"SS16 4","postcode":["SS16","4NA"]}
{"price":45500,"dateOfTransfer":"1995-09-29T00:00:00","postcodeFull":"SS16 4QQ","propertyType":"Terraced","oldOrNew":"Established","duration":"Freehold","paon":"12","saon":"","street":"HOLLANDS WALK","locality":"BASILDON","townOrCity":"BASILDON","district":"BASILDON","county":"ESSEX","ppdCategoryType":"Standard","recordStatus":"Addition","latitude":51.554304,"longitude":0.477107,"postcodeStart":"SS16 4","postcode":["SS16","4QQ"]}
{"price":30000,"dateOfTransfer":"1995-11-20T00:00:00","postcodeFull":"SS16 4TQ","propertyType":"Flat/Maisonette/Townhouse","oldOrNew":"New build","duration":"Leasehold","paon":"4","saon":"","street":"CHESTNUT ROAD","locality":"VANGE","townOrCity":"BASILDON","district":"BASILDON","county":"ESSEX","ppdCategoryType":"Standard","recordStatus":"Addition","latitude":51.561364,"longitude":0.497879,"postcodeStart":"SS16 4","postcode":["SS16","4TQ"]}
{"price":42000,"dateOfTransfer":"1995-05-31T00:00:00","postcodeFull":"SS16 4JZ","propertyType":"Terraced","oldOrNew":"Established","duration":"Freehold","paon":"16","saon":"","street":"KENT VIEW ROAD","locality":"BASILDON","townOrCity":"BASILDON","district":"BASILDON","county":"ESSEX","ppdCategoryType":"Standard","recordStatus":"Addition","latitude":51.563037,"longitude":0.489443,"postcodeStart":"SS16 4","postcode":["SS16","4JZ"]}
{"price":50500,"dateOfTransfer":"1995-03-30T00:00:00","postcodeFull":"SS16 4EA","propertyType":"Semi-detached","oldOrNew":"Established","duration":"Freehold","paon":"202","saon":"","street":"VANGE HILL DRIVE","locality":"BASILDON","townOrCity":"BASILDON","district":"BASILDON","county":"ESSEX","ppdCategoryType":"Standard","recordStatus":"Addition","latitude":51.558856,"longitude":0.483025,"postcodeStart":"SS16 4","postcode":["SS16","4EA"]}
{"price":60000,"dateOfTransfer":"1995-05-05T00:00:00","postcodeFull":"SS16 4BP","propertyType":"Detached","oldOrNew":"Established","duration":"Freehold","paon":"13","saon":"","street":"THE KNOWLE","locality":"BASILDON","townOrCity":"BASILDON","district":"BASILDON","county":"ESSEX","ppdCategoryType":"Standard","recordStatus":"Addition","latitude":51.563057,"longitude":0.472317,"postcodeStart":"SS16 4","postcode":["SS16","4BP"]}
{"price":28940,"dateOfTransfer":"1995-09-29T00:00:00","postcodeFull":"SS16 4HB","propertyType":"Terraced","oldOrNew":"Established","duration":"Freehold","paon":"292","saon":"","street":"CLAY HILL ROAD","locality":"BASILDON","townOrCity":"BASILDON","district":"BASILDON","county":"ESSEX","ppdCategoryType":"Standard","recordStatus":"Addition","latitude":51.565434,"longitude":0.480281,"postcodeStart":"SS16 4","postcode":["SS16","4HB"]}
{"price":46500,"dateOfTransfer":"1995-06-30T00:00:00","postcodeFull":"SS16 4BT","propertyType":"Terraced","oldOrNew":"Established","duration":"Freehold","paon":"33","saon":"","street":"MAPLEFORD SWEEP","locality":"BASILDON","townOrCity":"BASILDON","district":"BASILDON","county":"ESSEX","ppdCategoryType":"Standard","recordStatus":"Addition","latitude":51.562927,"longitude":0.476797,"postcodeStart":"SS16 4","postcode":["SS16","4BT"]}
{"price":63000,"dateOfTransfer":"1995-12-08T00:00:00","postcodeFull":"SS16 4TQ","propertyType":"Terraced","oldOrNew":"New build","duration":"Freehold","paon":"56","saon":"","street":"CHESTNUT ROAD","locality":"VANGE","townOrCity":"BASILDON","district":"BASILDON","county":"ESSEX","ppdCategoryType":"Standard","recordStatus":"Addition","latitude":51.561364,"longitude":0.497879,"postcodeStart":"SS16 4","postcode":["SS16","4TQ"]}
{"price":32100,"dateOfTransfer":"1995-11-03T00:00:00","postcodeFull":"SS16 4PD","propertyType":"Terraced","oldOrNew":"Established","duration":"Freehold","paon":"56","saon":"","street":"SWANSTEAD","locality":"BASILDON","townOrCity":"BASILDON","district":"BASILDON","county":"ESSEX","ppdCategoryType":"Standard","recordStatus":"Addition","latitude":51.560227,"longitude":0.484528,"postcodeStart":"SS16 4","postcode":["SS16","4PD"]}
{"price":19000,"dateOfTransfer":"1995-12-18T00:00:00","postcodeFull":"SS16 4PD","propertyType":"Terraced","oldOrNew":"Established","duration":"Freehold","paon":"88","saon":"","street":"SWANSTEAD","locality":"BASILDON","townOrCity":"BASILDON","district":"BASILDON","county":"ESSEX","ppdCategoryType":"Standard","recordStatus":"Addition","latitude":51.560227,"longitude":0.484528,"postcodeStart":"SS16 4","postcode":["SS16","4PD"]}
{"price":64000,"dateOfTransfer":"1995-07-13T00:00:00","postcodeFull":"SS16 4RJ","propertyType":"Terraced","oldOrNew":"Established","duration":"Freehold","paon":"12","saon":"","street":"LEON DRIVE","locality":"VANGE","townOrCity":"BASILDON","district":"BASILDON","county":"ESSEX","ppdCategoryType":"Standard","recordStatus":"Addition","latitude":51.555781,"longitude":0.477015,"postcodeStart":"SS16 4","postcode":["SS16","4RJ"]}
{"price":39000,"dateOfTransfer":"1995-10-20T00:00:00","postcodeFull":"SS16 4PQ","propertyType":"Terraced","oldOrNew":"Established","duration":"Freehold","paon":"22","saon":"","street":"STURROCKS","locality":"BASILDON","townOrCity":"BASILDON","district":"BASILDON","county":"ESSEX","ppdCategoryType":"Standard","recordStatus":"Addition","latitude":51.559748,"longitude":0.483362,"postcodeStart":"SS16 4","postcode":["SS16","4PQ"]}
{"price":26500,"dateOfTransfer":"1995-10-23T00:00:00","postcodeFull":"SS16 4TQ","propertyType":"Flat/Maisonette/Townhouse","oldOrNew":"New build","duration":"Leasehold","paon":"18","saon":"","street":"CHESTNUT ROAD","locality":"VANGE","townOrCity":"BASILDON","district":"BASILDON","county":"ESSEX","ppdCategoryType":"Standard","recordStatus":"Addition","latitude":51.561364,"longitude":0.497879,"postcodeStart":"SS16 4","postcode":["SS16","4TQ"]}
{"price":50000,"dateOfTransfer":"1995-09-15T00:00:00","postcodeFull":"SS16 4UT","propertyType":"Terraced","oldOrNew":"Established","duration":"Freehold","paon":"30","saon":"","street":"FLEETWAY","locality":"BASILDON","townOrCity":"BASILDON","district":"BASILDON","county":"ESSEX","ppdCategoryType":"Standard","recordStatus":"Addition","latitude":51.560867,"longitude":0.489959,"postcodeStart":"SS16 4","postcode":["SS16","4UT"]}
{"price":37000,"dateOfTransfer":"1996-05-13T00:00:00","postcodeFull":"SS16 4XJ","propertyType":"Flat/Maisonette/Townhouse","oldOrNew":"New build","duration":"Leasehold","paon":"49","saon":"","street":"THE GLEN","locality":"VANGE","townOrCity":"BASILDON","district":"BASILDON","county":"ESSEX","ppdCategoryType":"Standard","recordStatus":"Addition","latitude":51.560618,"longitude":0.498314,"postcodeStart":"SS16 4","postcode":["SS16","4XJ"]}
{"price":66000,"dateOfTransfer":"1996-03-25T00:00:00","postcodeFull":"SS16 4TQ","propertyType":"Terraced","oldOrNew":"New build","duration":"Freehold","paon":"44","saon":"","street":"CHESTNUT ROAD","locality":"VANGE","townOrCity":"BASILDON","district":"BASILDON","county":"ESSEX","ppdCategoryType":"Standard","recordStatus":"Addition","latitude":51.561364,"longitude":0.497879,"postcodeStart":"SS16 4","postcode":["SS16","4TQ"]}
{"price":42750,"dateOfTransfer":"1996-03-07T00:00:00","postcodeFull":"SS16 4TZ","propertyType":"Flat/Maisonette/Townhouse","oldOrNew":"New build","duration":"Leasehold","paon":"11","saon":"","street":"WATERVILLE DRIVE","locality":"VANGE","townOrCity":"BASILDON","district":"BASILDON","county":"ESSEX","ppdCategoryType":"Standard","recordStatus":"Addition","latitude":51.561926,"longitude":0.499814,"postcodeStart":"SS16 4","postcode":["SS16","4TZ"]}
{"price":78000,"dateOfTransfer":"1996-03-27T00:00:00","postcodeFull":"SS16 4TQ","propertyType":"Terraced","oldOrNew":"New build","duration":"Freehold","paon":"40","saon":"","street":"CHESTNUT ROAD","locality":"VANGE","townOrCity":"BASILDON","district":"BASILDON","county":"ESSEX","ppdCategoryType":"Standard","recordStatus":"Addition","latitude":51.561364,"longitude":0.497879,"postcodeStart":"SS16 4","postcode":["SS16","4TQ"]}
{"price":42000,"dateOfTransfer":"1996-10-10T00:00:00","postcodeFull":"SS16 4BU","propertyType":"Terraced","oldOrNew":"Established","duration":"Freehold","paon":"61","saon":"","street":"MAPLEFORD SWEEP","locality":"BASILDON","townOrCity":"BASILDON","district":"BASILDON","county":"ESSEX","ppdCategoryType":"Standard","recordStatus":"Addition","latitude":51.563023,"longitude":0.479053,"postcodeStart":"SS16 4","postcode":["SS16","4BU"]}
{"price":55000,"dateOfTransfer":"1996-03-15T00:00:00","postcodeFull":"SS16 4TQ","propertyType":"Terraced","oldOrNew":"New build","duration":"Freehold","paon":"36","saon":"","street":"CHESTNUT ROAD","locality":"VANGE","townOrCity":"BASILDON","district":"BASILDON","county":"ESSEX","ppdCategoryType":"Standard","recordStatus":"Addition","latitude":51.561364,"longitude":0.497879,"postcodeStart":"SS16 4","postcode":["SS16","4TQ"]}
{"price":35250,"dateOfTransfer":"1996-06-13T00:00:00","postcodeFull":"SS16 4XJ","propertyType":"Flat/Maisonette/Townhouse","oldOrNew":"New build","duration":"Leasehold","paon":"75","saon":"","street":"THE GLEN","locality":"VANGE","townOrCity":"BASILDON","district":"BASILDON","county":"ESSEX","ppdCategoryType":"Standard","recordStatus":"Addition","latitude":51.560618,"longitude":0.498314,"postcodeStart":"SS16 4","postcode":["SS16","4XJ"]}
{"price":69000,"dateOfTransfer":"1996-09-11T00:00:00","postcodeFull":"SS16 4XJ","propertyType":"Terraced","oldOrNew":"New build","duration":"Freehold","paon":"12","saon":"","street":"THE GLEN","locality":"VANGE","townOrCity":"BASILDON","district":"BASILDON","county":"ESSEX","ppdCategoryType":"Standard","recordStatus":"Addition","latitude":51.560618,"longitude":0.498314,"postcodeStart":"SS16 4","postcode":["SS16","4XJ"]}
{"price":31500,"dateOfTransfer":"1996-02-29T00:00:00","postcodeFull":"SS16 4QL","propertyType":"Flat/Maisonette/Townhouse","oldOrNew":"New build","duration":"Leasehold","paon":"1","saon":"","street":"DOWNS GROVE","locality":"BASILDON","townOrCity":"BASILDON","district":"BASILDON","county":"ESSEX","ppdCategoryType":"Standard","recordStatus":"Addition","latitude":51.557276,"longitude":0.480342,"postcodeStart":"SS16 4","postcode":["SS16","4QL"]}
{"price":58000,"dateOfTransfer":"1996-08-19T00:00:00","postcodeFull":"SS16 4RL","propertyType":"Semi-detached","oldOrNew":"Established","duration":"Freehold","paon":"1","saon":"","street":"THE VALE","locality":"BASILDON","townOrCity":"BASILDON","district":"BASILDON","county":"ESSEX","ppdCategoryType":"Standard","recordStatus":"Addition","latitude":51.556369,"longitude":0.475993,"postcodeStart":"SS16 4","postcode":["SS16","4RL"]}
{"price":38000,"dateOfTransfer":"1996-01-26T00:00:00","postcodeFull":"SS16 4HJ","propertyType":"Terraced","oldOrNew":"Established","duration":"Freehold","paon":"11","saon":"","street":"REDGRAVE ROAD","locality":"BASILDON","townOrCity":"BASILDON","district":"BASILDON","county":"ESSEX","ppdCategoryType":"Standard","recordStatus":"Addition","latitude":51.564813,"longitude":0.482022,"postcodeStart":"SS16 4","postcode":["SS16","4HJ"]}
{"price":42000,"dateOfTransfer":"1996-12-06T00:00:00","postcodeFull":"SS16 4UT","propertyType":"Terraced","oldOrNew":"Established","duration":"Freehold","paon":"39","saon":"","street":"FLEETWAY","locality":"BASILDON","townOrCity":"BASILDON","district":"BASILDON","county":"ESSEX","ppdCategoryType":"Standard","recordStatus":"Addition","latitude":51.560867,"longitude":0.489959,"postcodeStart":"SS16 4","postcode":["SS16","4UT"]}
{"price":27000,"dateOfTransfer":"1996-09-13T00:00:00","postcodeFull":"SS16 4EZ","propertyType":"Flat/Maisonette/Townhouse","oldOrNew":"Established","duration":"Leasehold","paon":"458","saon":"","street":"CLAY HILL ROAD","locality":"BASILDON","townOrCity":"BASILDON","district":"BASILDON","county":"ESSEX","ppdCategoryType":"Standard","recordStatus":"Addition","latitude":51.565866,"longitude":0.483825,"postcodeStart":"SS16 4","postcode":["SS16","4EZ"]}
{"price":35500,"dateOfTransfer":"1996-08-30T00:00:00","postcodeFull":"SS16 4XJ","propertyType":"Flat/Maisonette/Townhouse","oldOrNew":"New build","duration":"Leasehold","paon":"41","saon":"","street":"THE GLEN","locality":"VANGE","townOrCity":"BASILDON","district":"BASILDON","county":"ESSEX","ppdCategoryType":"Standard","recordStatus":"Addition","latitude":51.560618,"longitude":0.498314,"postcodeStart":"SS16 4","postcode":["SS16","4XJ"]}
{"price":65000,"dateOfTransfer":"1996-09-30T00:00:00","postcodeFull":"SS16 4XJ","propertyType":"Terraced","oldOrNew":"New build","duration":"Freehold","paon":"8","saon":"","street":"THE GLEN","locality":"VANGE","townOrCity":"BASILDON","district":"BASILDON","county":"ESSEX","ppdCategoryType":"Standard","recordStatus":"Addition","latitude":51.560618,"longitude":0.498314,"postcodeStart":"SS16 4","postcode":["SS16","4XJ"]}
{"price":30500,"dateOfTransfer":"1996-04-12T00:00:00","postcodeFull":"SS16 4TD","propertyType":"Flat/Maisonette/Townhouse","oldOrNew":"New build","duration":"Leasehold","paon":"77","saon":"","street":"CHESTNUT ROAD","locality":"VANGE","townOrCity":"BASILDON","district":"BASILDON","county":"ESSEX","ppdCategoryType":"Standard","recordStatus":"Addition","latitude":51.561891,"longitude":0.498052,"postcodeStart":"SS16 4","postcode":["SS16","4TD"]}
{"price":79950,"dateOfTransfer":"1996-10-04T00:00:00","postcodeFull":"SS16 4QL","propertyType":"Semi-detached","oldOrNew":"New build","duration":"Freehold","paon":"27","saon":"","street":"DOWNS GROVE","locality":"BASILDON","townOrCity":"BASILDON","district":"BASILDON","county":"ESSEX","ppdCategoryType":"Standard","recordStatus":"Addition","latitude":51.557276,"longitude":0.480342,"postcodeStart":"SS16 4","postcode":["SS16","4QL"]}
{"price":42500,"dateOfTransfer":"1996-06-28T00:00:00","postcodeFull":"SS16 4XJ","propertyType":"Flat/Maisonette/Townhouse","oldOrNew":"New build","duration":"Leasehold","paon":"55","saon":"","street":"THE GLEN","locality":"VANGE","townOrCity":"BASILDON","district":"BASILDON","county":"ESSEX","ppdCategoryType":"Standard","recordStatus":"Addition","latitude":51.560618,"longitude":0.498314,"postcodeStart":"SS16 4","postcode":["SS16","4XJ"]}
{"price":31500,"dateOfTransfer":"1996-02-29T00:00:00","postcodeFull":"SS16 4QL","propertyType":"Flat/Maisonette/Townhouse","oldOrNew":"New build","duration":"Leasehold","paon":"9","saon":"","street":"DOWNS GROVE","locality":"BASILDON","townOrCity":"BASILDON","district":"BASILDON","county":"ESSEX","ppdCategoryType":"Standard","recordStatus":"Addition","latitude":51.557276,"longitude":0.480342,"postcodeStart":"SS16 4","postcode":["SS16","4QL"]}
{"price":34500,"dateOfTransfer":"1996-10-31T00:00:00","postcodeFull":"SS16 4TQ","propertyType":"Flat/Maisonette/Townhouse","oldOrNew":"New build","duration":"Leasehold","paon":"108","saon":"","street":"CHESTNUT ROAD","locality":"VANGE","townOrCity":"BASILDON","district":"BASILDON","county":"ESSEX","ppdCategoryType":"Standard","recordStatus":"Addition","latitude":51.561364,"longitude":0.497879,"postcodeStart":"SS16 4","postcode":["SS16","4TQ"]}
{"price":14500,"dateOfTransfer":"1996-10-31T00:00:00","postcodeFull":"SS16 4TE","propertyType":"Flat/Maisonette/Townhouse","oldOrNew":"Established","duration":"Leasehold","paon":"73","saon":"","street":"RYEDENE CLOSE","locality":"BASILDON","townOrCity":"BASILDON","district":"BASILDON","county":"ESSEX","ppdCategoryType":"Standard","recordStatus":"Addition","latitude":51.558675,"longitude":0.485799,"postcodeStart":"SS16 4","postcode":["SS16","4TE"]}
{"price":26500,"dateOfTransfer":"1996-12-20T00:00:00","postcodeFull":"SS16 4TD","propertyType":"Flat/Maisonette/Townhouse","oldOrNew":"New build","duration":"Leasehold","paon":"119","saon":"","street":"CHESTNUT ROAD","locality":"VANGE","townOrCity":"BASILDON","district":"BASILDON","county":"ESSEX","ppdCategoryType":"Standard","recordStatus":"Addition","latitude":51.561891,"longitude":0.498052,"postcodeStart":"SS16 4","postcode":["SS16","4TD"]}
{"price":30000,"dateOfTransfer":"1996-10-30T00:00:00","postcodeFull":"SS16 4UB","propertyType":"Flat/Maisonette/Townhouse","oldOrNew":"Established","duration":"Leasehold","paon":"CHESTNUT COURT","saon":"19","street":"HIGH ROAD","locality":"VANGE","townOrCity":"BASILDON","district":"BASILDON","county":"ESSEX","ppdCategoryType":"Standard","recordStatus":"Addition","latitude":51.562569,"longitude":0.495781,"postcodeStart":"SS16 4","postcode":["SS16","4UB"]}
{"price":26750,"dateOfTransfer":"1996-11-25T00:00:00","postcodeFull":"SS16 4TD","propertyType":"Flat/Maisonette/Townhouse","oldOrNew":"New build","duration":"Leasehold","paon":"111","saon":"","street":"CHESTNUT ROAD","locality":"VANGE","townOrCity":"BASILDON","district":"BASILDON","county":"ESSEX","ppdCategoryType":"Standard","recordStatus":"Addition","latitude":51.561891,"longitude":0.498052,"postcodeStart":"SS16 4","postcode":["SS16","4TD"]}
{"price":38000,"dateOfTransfer":"1996-08-30T00:00:00","postcodeFull":"SS16 4LN","propertyType":"Terraced","oldOrNew":"Established","duration":"Freehold","paon":"8","saon":"","street":"RICKLING","locality":"BASILDON","townOrCity":"BASILDON","district":"BASILDON","county":"ESSEX","ppdCategoryType":"Standard","recordStatus":"Addition","latitude":51.5623,"longitude":0.491076,"postcodeStart":"SS16 4","postcode":["SS16","4LN"]}
{"price":28000,"dateOfTransfer":"1996-02-09T00:00:00","postcodeFull":"SS16 4PH","propertyType":"Terraced","oldOrNew":"Established","duration":"Freehold","paon":"5","saon":"","street":"POLSTEADS","locality":"BASILDON","townOrCity":"BASILDON","district":"BASILDON","county":"ESSEX","ppdCategoryType":"Standard","recordStatus":"Addition","latitude":51.559708,"longitude":0.484428,"postcodeStart":"SS16 4","postcode":["SS16","4PH"]}
{"price":30250,"dateOfTransfer":"1996-04-22T00:00:00","postcodeFull":"SS16 4TD","propertyType":"Flat/Maisonette/Townhouse","oldOrNew":"New build","duration":"Leasehold","paon":"75","saon":"","street":"CHESTNUT ROAD","locality":"VANGE","townOrCity":"BASILDON","district":"BASILDON","county":"ESSEX","ppdCategoryType":"Standard","recordStatus":"Addition","latitude":51.561891,"longitude":0.498052,"postcodeStart":"SS16 4","postcode":["SS16","4TD"]}
{"price":41000,"dateOfTransfer":"1996-05-23T00:00:00","postcodeFull":"SS16 4AG","propertyType":"Terraced","oldOrNew":"Established","duration":"Freehold","paon":"67","saon":"","street":"CHURCH ROAD","locality":"BASILDON","townOrCity":"BASILDON","district":"BASILDON","county":"ESSEX","ppdCategoryType":"Standard","recordStatus":"Addition","latitude":51.566601,"longitude":0.474443,"postcodeStart":"SS16 4","postcode":["SS16","4AG"]}
{"price":26000,"dateOfTransfer":"1996-12-16T00:00:00","postcodeFull":"SS16 4TD","propertyType":"Flat/Maisonette/Townhouse","oldOrNew":"New build","duration":"Leasehold","paon":"131","saon":"","street":"CHESTNUT ROAD","locality":"VANGE","townOrCity":"BASILDON","district":"BASILDON","county":"ESSEX","ppdCategoryType":"Standard","recordStatus":"Addition","latitude":51.561891,"longitude":0.498052,"postcodeStart":"SS16 4","postcode":["SS16","4TD"]}
{"price":35000,"dateOfTransfer":"1996-12-20T00:00:00","postcodeFull":"SS16 4XJ","propertyType":"Flat/Maisonette/Townhouse","oldOrNew":"New build","duration":"Leasehold","paon":"7","saon":"","street":"THE GLEN","locality":"VANGE","townOrCity":"BASILDON","district":"BASILDON","county":"ESSEX","ppdCategoryType":"Standard","recordStatus":"Addition","latitude":51.560618,"longitude":0.498314,"postcodeStart":"SS16 4","postcode":["SS16","4XJ"]}
{"price":55000,"dateOfTransfer":"1996-03-29T00:00:00","postcodeFull":"SS16 4TQ","propertyType":"Terraced","oldOrNew":"New build","duration":"Freehold","paon":"34","saon":"","street":"CHESTNUT ROAD","locality":"VANGE","townOrCity":"BASILDON","district":"BASILDON","county":"ESSEX","ppdCategoryType":"Standard","recordStatus":"Addition","latitude":51.561364,"longitude":0.497879,"postcodeStart":"SS16 4","postcode":["SS16","4TQ"]}
{"price":45265,"dateOfTransfer":"1996-07-19T00:00:00","postcodeFull":"SS16 4HN","propertyType":"Terraced","oldOrNew":"Established","duration":"Freehold","paon":"6","saon":"","street":"THE HEDGEROW","locality":"BASILDON","townOrCity":"BASILDON","district":"BASILDON","county":"ESSEX","ppdCategoryType":"Standard","recordStatus":"Addition","latitude":51.56432,"longitude":0.480235,"postcodeStart":"SS16 4","postcode":["SS16","4HN"]}
{"price":59995,"dateOfTransfer":"1996-12-02T00:00:00","postcodeFull":"SS16 4RF","propertyType":"Semi-detached","oldOrNew":"Established","duration":"Freehold","paon":"9","saon":"","street":"ANGEL CLOSE","locality":"BASILDON","townOrCity":"BASILDON","district":"BASILDON","county":"ESSEX","ppdCategoryType":"Standard","recordStatus":"Addition","latitude":51.555935,"longitude":0.475263,"postcodeStart":"SS16 4","postcode":["SS16","4RF"]}
{"price":23500,"dateOfTransfer":"1996-09-12T00:00:00","postcodeFull":"SS16 4JW","propertyType":"Semi-detached","oldOrNew":"Established","duration":"Freehold","paon":"38","saon":"","street":"BARDFIELD","locality":"BASILDON","townOrCity":"BASILDON","district":"BASILDON","county":"ESSEX","ppdCategoryType":"Standard","recordStatus":"Addition","latitude":51.564867,"longitude":0.487523,"postcodeStart":"SS16 4","postcode":["SS16","4JW"]}
{"price":25500,"dateOfTransfer":"1996-07-16T00:00:00","postcodeFull":"SS16 4SA","propertyType":"Flat/Maisonette/Townhouse","oldOrNew":"Established","duration":"Leasehold","paon":"8A","saon":"","street":"MOSS DRIVE","locality":"BASILDON","townOrCity":"BASILDON","district":"BASILDON","county":"ESSEX","ppdCategoryType":"Standard","recordStatus":"Addition","latitude":51.557315,"longitude":0.483186,"postcodeStart":"SS16 4","postcode":["SS16","4SA"]}
{"price":41500,"dateOfTransfer":"1996-11-20T00:00:00","postcodeFull":"SS16 4XJ","propertyType":"Flat/Maisonette/Townhouse","oldOrNew":"New build","duration":"Leasehold","paon":"67","saon":"","street":"THE GLEN","locality":"VANGE","townOrCity":"BASILDON","district":"BASILDON","county":"ESSEX","ppdCategoryType":"Standard","recordStatus":"Addition","latitude":51.560618,"longitude":0.498314,"postcodeStart":"SS16 4","postcode":["SS16","4XJ"]}
{"price":66000,"dateOfTransfer":"1996-05-03T00:00:00","postcodeFull":"SS16 4TQ","propertyType":"Terraced","oldOrNew":"New build","duration":"Freehold","paon":"30","saon":"","street":"CHESTNUT ROAD","locality":"VANGE","townOrCity":"BASILDON","district":"BASILDON","county":"ESSEX","ppdCategoryType":"Standard","recordStatus":"Addition","latitude":51.561364,"longitude":0.497879,"postcodeStart":"SS16 4","postcode":["SS16","4TQ"]}
{"price":39000,"dateOfTransfer":"1996-04-19T00:00:00","postcodeFull":"SS16 4HJ","propertyType":"Terraced","oldOrNew":"Established","duration":"Freehold","paon":"11","saon":"","street":"REDGRAVE ROAD","locality":"BASILDON","townOrCity":"BASILDON","district":"BASILDON","county":"ESSEX","ppdCategoryType":"Standard","recordStatus":"Addition","latitude":51.564813,"longitude":0.482022,"postcodeStart":"SS16 4","postcode":["SS16","4HJ"]}
{"price":23500,"dateOfTransfer":"1996-09-12T00:00:00","postcodeFull":"SS16 4NT","propertyType":"Terraced","oldOrNew":"Established","duration":"Freehold","paon":"40","saon":"","street":"DEWSGREEN","locality":"BASILDON","townOrCity":"BASILDON","district":"BASILDON","county":"ESSEX","ppdCategoryType":"Standard","recordStatus":"Addition","latitude":51.563068,"longitude":0.483283,"postcodeStart":"SS16 4","postcode":["SS16","4NT"]}
{"price":31500,"dateOfTransfer":"1996-05-03T00:00:00","postcodeFull":"SS16 4UT","propertyType":"Terraced","oldOrNew":"Established","duration":"Freehold","paon":"36","saon":"","street":"FLEETWAY","locality":"BASILDON","townOrCity":"BASILDON","district":"BASILDON","county":"ESSEX","ppdCategoryType":"Standard","recordStatus":"Addition","latitude":51.560867,"longitude":0.489959,"postcodeStart":"SS16 4","postcode":["SS16","4UT"]}
{"price":35000,"dateOfTransfer":"1996-12-16T00:00:00","postcodeFull":"SS16 4XJ","propertyType":"Flat/Maisonette/Townhouse","oldOrNew":"New build","duration":"Leasehold","paon":"23","saon":"","street":"THE GLEN","locality":"VANGE","townOrCity":"BASILDON","district":"BASILDON","county":"ESSEX","ppdCategoryType":"Standard","recordStatus":"Addition","latitude":51.560618,"longitude":0.498314,"postcodeStart":"SS16 4","postcode":["SS16","4XJ"]}
{"price":23000,"dateOfTransfer":"1996-07-31T00:00:00","postcodeFull":"SS16 4TQ","propertyType":"Flat/Maisonette/Townhouse","oldOrNew":"New build","duration":"Leasehold","paon":"100","saon":"","street":"CHESTNUT ROAD","locality":"VANGE","townOrCity":"BASILDON","district":"BASILDON","county":"ESSEX","ppdCategoryType":"Standard","recordStatus":"Addition","latitude":51.561364,"longitude":0.497879,"postcodeStart":"SS16 4","postcode":["SS16","4TQ"]}
{"price":65000,"dateOfTransfer":"1996-03-05T00:00:00","postcodeFull":"SS16 4TQ","propertyType":"Terraced","oldOrNew":"New build","duration":"Freehold","paon":"46","saon":"","street":"CHESTNUT ROAD","locality":"VANGE","townOrCity":"BASILDON","district":"BASILDON","county":"ESSEX","ppdCategoryType":"Standard","recordStatus":"Addition","latitude":51.561364,"longitude":0.497879,"postcodeStart":"SS16 4","postcode":["SS16","4TQ"]}
{"price":59995,"dateOfTransfer":"1996-10-31T00:00:00","postcodeFull":"SS16 4QL","propertyType":"Terraced","oldOrNew":"Established","duration":"Freehold","paon":"34","saon":"","street":"DOWNS GROVE","locality":"BASILDON","townOrCity":"BASILDON","district":"BASILDON","county":"ESSEX","ppdCategoryType":"Standard","recordStatus":"Addition","latitude":51.557276,"longitude":0.480342,"postcodeStart":"SS16 4","postcode":["SS16","4QL"]}
{"price":39995,"dateOfTransfer":"1996-09-27T00:00:00","postcodeFull":"SS16 4XJ","propertyType":"Flat/Maisonette/Townhouse","oldOrNew":"New build","duration":"Leasehold","paon":"59","saon":"","street":"THE GLEN","locality":"VANGE","townOrCity":"BASILDON","district":"BASILDON","county":"ESSEX","ppdCategoryType":"Standard","recordStatus":"Addition","latitude":51.560618,"longitude":0.498314,"postcodeStart":"SS16 4","postcode":["SS16","4XJ"]}
{"price":27500,"dateOfTransfer":"1996-03-29T00:00:00","postcodeFull":"SS16 4TD","propertyType":"Flat/Maisonette/Townhouse","oldOrNew":"New build","duration":"Leasehold","paon":"89","saon":"","street":"CHESTNUT ROAD","locality":"VANGE","townOrCity":"BASILDON","district":"BASILDON","county":"ESSEX","ppdCategoryType":"Standard","recordStatus":"Addition","latitude":51.561891,"longitude":0.498052,"postcodeStart":"SS16 4","postcode":["SS16","4TD"]}
{"price":69000,"dateOfTransfer":"1996-12-18T00:00:00","postcodeFull":"SS16 4TY","propertyType":"Terraced","oldOrNew":"New build","duration":"Freehold","paon":"18","saon":"","street":"WATERVILLE DRIVE","locality":"VANGE","townOrCity":"BASILDON","district":"BASILDON","county":"ESSEX","ppdCategoryType":"Standard","recordStatus":"Addition","latitude":51.561538,"longitude":0.499418,"postcodeStart":"SS16 4","postcode":["SS16","4TY"]}
{"price":68000,"dateOfTransfer":"1996-11-15T00:00:00","postcodeFull":"SS16 4TY","propertyType":"Terraced","oldOrNew":"New build","duration":"Freehold","paon":"12","saon":"","street":"WATERVILLE DRIVE","locality":"VANGE","townOrCity":"BASILDON","district":"BASILDON","county":"ESSEX","ppdCategoryType":"Standard","recordStatus":"Addition","latitude":51.561538,"longitude":0.499418,"postcodeStart":"SS16 4","postcode":["SS16","4TY"]}
{"price":18000,"dateOfTransfer":"1996-02-02T00:00:00","postcodeFull":"SS16 4QB","propertyType":"Flat/Maisonette/Townhouse","oldOrNew":"Established","duration":"Leasehold","paon":"85","saon":"","street":"HOLLANDS WALK","locality":"BASILDON","townOrCity":"BASILDON","district":"BASILDON","county":"ESSEX","ppdCategoryType":"Standard","recordStatus":"Addition","latitude":51.554964,"longitude":0.476523,"postcodeStart":"SS16 4","postcode":["SS16","4QB"]}
{"price":55000,"dateOfTransfer":"1996-04-26T00:00:00","postcodeFull":"SS16 4ED","propertyType":"Terraced","oldOrNew":"Established","duration":"Freehold","paon":"303","saon":"","street":"CLAY HILL ROAD","locality":"BASILDON","townOrCity":"BASILDON","district":"BASILDON","county":"ESSEX","ppdCategoryType":"Standard","recordStatus":"Addition","latitude":51.565822,"longitude":0.478542,"postcodeStart":"SS16 4","postcode":["SS16","4ED"]}
{"price":45500,"dateOfTransfer":"1996-03-06T00:00:00","postcodeFull":"SS16 4TZ","propertyType":"Flat/Maisonette/Townhouse","oldOrNew":"New build","duration":"Leasehold","paon":"3","saon":"","street":"WATERVILLE DRIVE","locality":"VANGE","townOrCity":"BASILDON","district":"BASILDON","county":"ESSEX","ppdCategoryType":"Standard","recordStatus":"Addition","latitude":51.561926,"longitude":0.499814,"postcodeStart":"SS16 4","postcode":["SS16","4TZ"]}
{"price":68500,"dateOfTransfer":"1996-06-28T00:00:00","postcodeFull":"SS16 4TQ","propertyType":"Terraced","oldOrNew":"New build","duration":"Freehold","paon":"28","saon":"","street":"CHESTNUT ROAD","locality":"VANGE","townOrCity":"BASILDON","district":"BASILDON","county":"ESSEX","ppdCategoryType":"Standard","recordStatus":"Addition","latitude":51.561364,"longitude":0.497879,"postcodeStart":"SS16 4","postcode":["SS16","4TQ"]}
{"price":33995,"dateOfTransfer":"1996-09-27T00:00:00","postcodeFull":"SS16 4PD","propertyType":"Terraced","oldOrNew":"Established","duration":"Freehold","paon":"108","saon":"","street":"SWANSTEAD","locality":"BASILDON","townOrCity":"BASILDON","district":"BASILDON","county":"ESSEX","ppdCategoryType":"Standard","recordStatus":"Addition","latitude":51.560227,"longitude":0.484528,"postcodeStart":"SS16 4","postcode":["SS16","4PD"]}
{"price":49750,"dateOfTransfer":"1996-04-30T00:00:00","postcodeFull":"SS16 4AP","propertyType":"Terraced","oldOrNew":"Established","duration":"Freehold","paon":"29","saon":"","street":"MISTLEY SIDE","locality":"BASILDON","townOrCity":"BASILDON","district":"BASILDON","county":"ESSEX","ppdCategoryType":"Standard","recordStatus":"Addition","latitude":51.567399,"longitude":0.471975,"postcodeStart":"SS16 4","postcode":["SS16","4AP"]}
{"price":22000,"dateOfTransfer":"1996-04-04T00:00:00","postcodeFull":"SS16 4NT","propertyType":"Terraced","oldOrNew":"Established","duration":"Freehold","paon":"94","saon":"","street":"DEWSGREEN","locality":"BASILDON","townOrCity":"BASILDON","district":"BASILDON","county":"ESSEX","ppdCategoryType":"Standard","recordStatus":"Addition","latitude":51.563068,"longitude":0.483283,"postcodeStart":"SS16 4","postcode":["SS16","4NT"]}
{"price":57000,"dateOfTransfer":"1996-10-04T00:00:00","postcodeFull":"SS16 4TN","propertyType":"Semi-detached","oldOrNew":"Established","duration":"Freehold","paon":"17","saon":"","street":"ELMTREE ROAD","locality":"BASILDON","townOrCity":"BASILDON","district":"BASILDON","county":"ESSEX","ppdCategoryType":"Standard","recordStatus":"Addition","latitude":51.560351,"longitude":0.49436,"postcodeStart":"SS16 4","postcode":["SS16","4TN"]}
{"price":51000,"dateOfTransfer":"1996-06-28T00:00:00","postcodeFull":"SS16 4DN","propertyType":"Terraced","oldOrNew":"Established","duration":"Freehold","paon":"21","saon":"","street":"COLLINGWOOD ROAD","locality":"BASILDON","townOrCity":"BASILDON","district":"BASILDON","county":"ESSEX","ppdCategoryType":"Standard","recordStatus":"Addition","latitude":51.564447,"longitude":0.477211,"postcodeStart":"SS16 4","postcode":["SS16","4DN"]}
{"price":24750,"dateOfTransfer":"1996-07-31T00:00:00","postcodeFull":"SS16 4NW","propertyType":"Flat/Maisonette/Townhouse","oldOrNew":"Established","duration":"Leasehold","paon":"KINGSWOOD COURT","saon":"11","street":"CLAY HILL ROAD","locality":"BASILDON","townOrCity":"BASILDON","district":"BASILDON","county":"ESSEX","ppdCategoryType":"Standard","recordStatus":"Addition","latitude":51.565573,"longitude":0.485628,"postcodeStart":"SS16 4","postcode":["SS16","4NW"]}
{"price":43000,"dateOfTransfer":"1996-04-29T00:00:00","postcodeFull":"SS16 4TD","propertyType":"Flat/Maisonette/Townhouse","oldOrNew":"New build","duration":"Leasehold","paon":"137","saon":"","street":"CHESTNUT ROAD","locality":"VANGE","townOrCity":"BASILDON","district":"BASILDON","county":"ESSEX","ppdCategoryType":"Standard","recordStatus":"Addition","latitude":51.561891,"longitude":0.498052,"postcodeStart":"SS16 4","postcode":["SS16","4TD"]}
{"price":68000,"dateOfTransfer":"1996-06-28T00:00:00","postcodeFull":"SS16 4TQ","propertyType":"Terraced","oldOrNew":"New build","duration":"Freehold","paon":"76","saon":"","street":"CHESTNUT ROAD","locality":"VANGE","townOrCity":"BASILDON","district":"BASILDON","county":"ESSEX","ppdCategoryType":"Standard","recordStatus":"Addition","latitude":51.561364,"longitude":0.497879,"postcodeStart":"SS16 4","postcode":["SS16","4TQ"]}
{"price":54000,"dateOfTransfer":"1996-06-28T00:00:00","postcodeFull":"SS16 4RY","propertyType":"Semi-detached","oldOrNew":"Established","duration":"Freehold","paon":"28","saon":"","street":"GOLDINGS CRESCENT","locality":"BASILDON","townOrCity":"BASILDON","district":"BASILDON","county":"ESSEX","ppdCategoryType":"Standard","recordStatus":"Addition","latitude":51.556203,"longitude":0.483025,"postcodeStart":"SS16 4","postcode":["SS16","4RY"]}
{"price":48995,"dateOfTransfer":"1996-09-02T00:00:00","postcodeFull":"SS16 4HJ","propertyType":"Terraced","oldOrNew":"Established","duration":"Freehold","paon":"21","saon":"","street":"REDGRAVE ROAD","locality":"BASILDON","townOrCity":"BASILDON","district":"BASILDON","county":"ESSEX","ppdCategoryType":"Standard","recordStatus":"Addition","latitude":51.564813,"longitude":0.482022,"postcodeStart":"SS16 4","postcode":["SS16","4HJ"]}
{"price":44995,"dateOfTransfer":"1996-08-02T00:00:00","postcodeFull":"SS16 4UT","propertyType":"Terraced","oldOrNew":"Established","duration":"Freehold","paon":"36","saon":"","street":"FLEETWAY","locality":"BASILDON","townOrCity":"BASILDON","district":"BASILDON","county":"ESSEX","ppdCategoryType":"Standard","recordStatus":"Addition","latitude":51.560867,"longitude":0.489959,"postcodeStart":"SS16 4","postcode":["SS16","4UT"]}
{"price":41500,"dateOfTransfer":"1996-12-05T00:00:00","postcodeFull":"SS16 4TQ","propertyType":"Flat/Maisonette/Townhouse","oldOrNew":"New build","duration":"Leasehold","paon":"114","saon":"","street":"CHESTNUT ROAD","locality":"VANGE","townOrCity":"BASILDON","district":"BASILDON","county":"ESSEX","ppdCategoryType":"Standard","recordStatus":"Addition","latitude":51.561364,"longitude":0.497879,"postcodeStart":"SS16 4","postcode":["SS16","4TQ"]}
{"price":37000,"dateOfTransfer":"1996-06-26T00:00:00","postcodeFull":"SS16 4XJ","propertyType":"Flat/Maisonette/Townhouse","oldOrNew":"Established","duration":"Leasehold","paon":"73","saon":"","street":"THE GLEN","locality":"VANGE","townOrCity":"BASILDON","district":"BASILDON","county":"ESSEX","ppdCategoryType":"Standard","recordStatus":"Addition","latitude":51.560618,"longitude":0.498314,"postcodeStart":"SS16 4","postcode":["SS16","4XJ"]}
{"price":41000,"dateOfTransfer":"1996-08-30T00:00:00","postcodeFull":"SS16 4HJ","propertyType":"Terraced","oldOrNew":"Established","duration":"Freehold","paon":"29","saon":"","street":"REDGRAVE ROAD","locality":"BASILDON","townOrCity":"BASILDON","district":"BASILDON","county":"ESSEX","ppdCategoryType":"Standard","recordStatus":"Addition","latitude":51.564813,"longitude":0.482022,"postcodeStart":"SS16 4","postcode":["SS16","4HJ"]}
{"price":33500,"dateOfTransfer":"1996-09-27T00:00:00","postcodeFull":"SS16 4UB","propertyType":"Flat/Maisonette/Townhouse","oldOrNew":"Established","duration":"Leasehold","paon":"CHESTNUT COURT","saon":"12","street":"HIGH ROAD","locality":"VANGE","townOrCity":"BASILDON","district":"BASILDON","county":"ESSEX","ppdCategoryType":"Standard","recordStatus":"Addition","latitude":51.562569,"longitude":0.495781,"postcodeStart":"SS16 4","postcode":["SS16","4UB"]}
{"price":31000,"dateOfTransfer":"1996-08-29T00:00:00","postcodeFull":"SS16 4LP","propertyType":"Terraced","oldOrNew":"Established","duration":"Freehold","paon":"9","saon":"","street":"WENDENE","locality":"BASILDON","townOrCity":"BASILDON","district":"BASILDON","county":"ESSEX","ppdCategoryType":"Standard","recordStatus":"Addition","latitude":51.562564,"longitude":0.490095,"postcodeStart":"SS16 4","postcode":["SS16","4LP"]}
{"price":34995,"dateOfTransfer":"1996-04-10T00:00:00","postcodeFull":"SS16 4NT","propertyType":"Terraced","oldOrNew":"Established","duration":"Freehold","paon":"22","saon":"","street":"DEWSGREEN","locality":"BASILDON","townOrCity":"BASILDON","district":"BASILDON","county":"ESSEX","ppdCategoryType":"Standard","recordStatus":"Addition","latitude":51.563068,"longitude":0.483283,"postcodeStart":"SS16 4","postcode":["SS16","4NT"]}
{"price":42000,"dateOfTransfer":"1996-05-10T00:00:00","postcodeFull":"SS16 4LJ","propertyType":"Terraced","oldOrNew":"Established","duration":"Freehold","paon":"158","saon":"","street":"BYFLETTS","locality":"BASILDON","townOrCity":"BASILDON","district":"BASILDON","county":"ESSEX","ppdCategoryType":"Standard","recordStatus":"Addition","latitude":51.561724,"longitude":0.489862,"postcodeStart":"SS16 4","postcode":["SS16","4LJ"]}
{"price":68000,"dateOfTransfer":"1996-03-01T00:00:00","postcodeFull":"SS16 4TQ","propertyType":"Terraced","oldOrNew":"New build","duration":"Freehold","paon":"42","saon":"","street":"CHESTNUT ROAD","locality":"VANGE","townOrCity":"BASILDON","district":"BASILDON","county":"ESSEX","ppdCategoryType":"Standard","recordStatus":"Addition","latitude":51.561364,"longitude":0.497879,"postcodeStart":"SS16 4","postcode":["SS16","4TQ"]}
{"price":33500,"dateOfTransfer":"1996-05-31T00:00:00","postcodeFull":"SS16 4XJ","propertyType":"Flat/Maisonette/Townhouse","oldOrNew":"New build","duration":"Leasehold","paon":"45","saon":"","street":"THE GLEN","locality":"VANGE","townOrCity":"BASILDON","district":"BASILDON","county":"ESSEX","ppdCategoryType":"Standard","recordStatus":"Addition","latitude":51.560618,"longitude":0.498314,"postcodeStart":"SS16 4","postcode":["SS16","4XJ"]}
{"price":59995,"dateOfTransfer":"1996-10-18T00:00:00","postcodeFull":"SS16 4QL","propertyType":"Semi-detached","oldOrNew":"Established","duration":"Freehold","paon":"42","saon":"","street":"DOWNS GROVE","locality":"BASILDON","townOrCity":"BASILDON","district":"BASILDON","county":"ESSEX","ppdCategoryType":"Standard","recordStatus":"Addition","latitude":51.557276,"longitude":0.480342,"postcodeStart":"SS16 4","postcode":["SS16","4QL"]}
{"price":69000,"dateOfTransfer":"1996-10-25T00:00:00","postcodeFull":"SS16 4TY","propertyType":"Terraced","oldOrNew":"New build","duration":"Freehold","paon":"10","saon":"","street":"WATERVILLE DRIVE","locality":"VANGE","townOrCity":"BASILDON","district":"BASILDON","county":"ESSEX","ppdCategoryType":"Standard","recordStatus":"Addition","latitude":51.561538,"longitude":0.499418,"postcodeStart":"SS16 4","postcode":["SS16","4TY"]}
{"price":30950,"dateOfTransfer":"1996-03-18T00:00:00","postcodeFull":"SS16 4LN","propertyType":"Terraced","oldOrNew":"Established","duration":"Freehold","paon":"8","saon":"","street":"RICKLING","locality":"BASILDON","townOrCity":"BASILDON","district":"BASILDON","county":"ESSEX","ppdCategoryType":"Standard","recordStatus":"Addition","latitude":51.5623,"longitude":0.491076,"postcodeStart":"SS16 4","postcode":["SS16","4LN"]}
{"price":69000,"dateOfTransfer":"1996-08-19T00:00:00","postcodeFull":"SS16 4XJ","propertyType":"Terraced","oldOrNew":"New build","duration":"Freehold","paon":"14","saon":"","street":"THE GLEN","locality":"VANGE","townOrCity":"BASILDON","district":"BASILDON","county":"ESSEX","ppdCategoryType":"Standard","recordStatus":"Addition","latitude":51.560618,"longitude":0.498314,"postcodeStart":"SS16 4","postcode":["SS16","4XJ"]}
{"price":33000,"dateOfTransfer":"1996-12-17T00:00:00","postcodeFull":"SS16 4BU","propertyType":"Terraced","oldOrNew":"Established","duration":"Freehold","paon":"86","saon":"","street":"MAPLEFORD SWEEP","locality":"BASILDON","townOrCity":"BASILDON","district":"BASILDON","county":"ESSEX","ppdCategoryType":"Standard","recordStatus":"Addition","latitude":51.563023,"longitude":0.479053,"postcodeStart":"SS16 4","postcode":["SS16","4BU"]}
{"price":31000,"dateOfTransfer":"1996-07-01T00:00:00","postcodeFull":"SS16 4TT","propertyType":"Semi-detached","oldOrNew":"Established","duration":"Freehold","paon":"15","saon":"","street":"AVONDALE ROAD","locality":"BASILDON","townOrCity":"BASILDON","district":"BASILDON","county":"ESSEX","ppdCategoryType":"Standard","recordStatus":"Addition","latitude":51.561017,"longitude":0.496864,"postcodeStart":"SS16 4","postcode":["SS16","4TT"]}
{"price":35000,"dateOfTransfer":"1996-06-28T00:00:00","postcodeFull":"SS16 4XJ","propertyType":"Flat/Maisonette/Townhouse","oldOrNew":"New build","duration":"Leasehold","paon":"71","saon":"","street":"THE GLEN","locality":"VANGE","townOrCity":"BASILDON","district":"BASILDON","county":"ESSEX","ppdCategoryType":"Standard","recordStatus":"Addition","latitude":51.560618,"longitude":0.498314,"postcodeStart":"SS16 4","postcode":["SS16","4XJ"]}
{"price":41250,"dateOfTransfer":"1996-11-28T00:00:00","postcodeFull":"SS16 4TQ","propertyType":"Flat/Maisonette/Townhouse","oldOrNew":"New build","duration":"Leasehold","paon":"110","saon":"","street":"CHESTNUT ROAD","locality":"VANGE","townOrCity":"BASILDON","district":"BASILDON","county":"ESSEX","ppdCategoryType":"Standard","recordStatus":"Addition","latitude":51.561364,"longitude":0.497879,"postcodeStart":"SS16 4","postcode":["SS16","4TQ"]}
{"price":27500,"dateOfTransfer":"1996-03-29T00:00:00","postcodeFull":"SS16 4TD","propertyType":"Flat/Maisonette/Townhouse","oldOrNew":"New build","duration":"Leasehold","paon":"95","saon":"","street":"CHESTNUT ROAD","locality":"VANGE","townOrCity":"BASILDON","district":"BASILDON","county":"ESSEX","ppdCategoryType":"Standard","recordStatus":"Addition","latitude":51.561891,"longitude":0.498052,"postcodeStart":"SS16 4","postcode":["SS16","4TD"]}
{"price":31500,"dateOfTransfer":"1996-03-29T00:00:00","postcodeFull":"SS16 4TD","propertyType":"Flat/Maisonette/Townhouse","oldOrNew":"New build","duration":"Leasehold","paon":"93","saon":"","street":"CHESTNUT ROAD","locality":"VANGE","townOrCity":"BASILDON","district":"BASILDON","county":"ESSEX","ppdCategoryType":"Standard","recordStatus":"Addition","latitude":51.561891,"longitude":0.498052,"postcodeStart":"SS16 4","postcode":["SS16","4TD"]}
{"price":42500,"dateOfTransfer":"1996-05-13T00:00:00","postcodeFull":"SS16 4TD","propertyType":"Flat/Maisonette/Townhouse","oldOrNew":"New build","duration":"Leasehold","paon":"133","saon":"","street":"CHESTNUT ROAD","locality":"VANGE","townOrCity":"BASILDON","district":"BASILDON","county":"ESSEX","ppdCategoryType":"Standard","recordStatus":"Addition","latitude":51.561891,"longitude":0.498052,"postcodeStart":"SS16 4","postcode":["SS16","4TD"]}
{"price":33000,"dateOfTransfer":"1996-06-28T00:00:00","postcodeFull":"SS16 4UB","propertyType":"Semi-detached","oldOrNew":"Established","duration":"Leasehold","paon":"CHESTNUT COURT","saon":"7","street":"HIGH ROAD","locality":"VANGE","townOrCity":"BASILDON","district":"BASILDON","county":"ESSEX","ppdCategoryType":"Standard","recordStatus":"Addition","latitude":51.562569,"longitude":0.495781,"postcodeStart":"SS16 4","postcode":["SS16","4UB"]}
{"price":33500,"dateOfTransfer":"1996-10-21T00:00:00","postcodeFull":"SS16 4XJ","propertyType":"Flat/Maisonette/Townhouse","oldOrNew":"New build","duration":"Leasehold","paon":"19","saon":"","street":"THE GLEN","locality":"VANGE","townOrCity":"BASILDON","district":"BASILDON","county":"ESSEX","ppdCategoryType":"Standard","recordStatus":"Addition","latitude":51.560618,"longitude":0.498314,"postcodeStart":"SS16 4","postcode":["SS16","4XJ"]}
{"price":48000,"dateOfTransfer":"1996-10-29T00:00:00","postcodeFull":"SS16 4LP","propertyType":"Terraced","oldOrNew":"Established","duration":"Freehold","paon":"12","saon":"","street":"WENDENE","locality":"BASILDON","townOrCity":"BASILDON","district":"BASILDON","county":"ESSEX","ppdCategoryType":"Standard","recordStatus":"Addition","latitude":51.562564,"longitude":0.490095,"postcodeStart":"SS16 4","postcode":["SS16","4LP"]}
{"price":31000,"dateOfTransfer":"1996-03-29T00:00:00","postcodeFull":"SS16 4TD","propertyType":"Flat/Maisonette/Townhouse","oldOrNew":"New build","duration":"Leasehold","paon":"91","saon":"","street":"CHESTNUT ROAD","locality":"VANGE","townOrCity":"BASILDON","district":"BASILDON","county":"ESSEX","ppdCategoryType":"Standard","recordStatus":"Addition","latitude":51.561891,"longitude":0.498052,"postcodeStart":"SS16 4","postcode":["SS16","4TD"]}
{"price":25500,"dateOfTransfer":"1996-03-18T00:00:00","postcodeFull":"SS16 4TD","propertyType":"Flat/Maisonette/Townhouse","oldOrNew":"New build","duration":"Leasehold","paon":"5","saon":"","street":"CHESTNUT ROAD","locality":"VANGE","townOrCity":"BASILDON","district":"BASILDON","county":"ESSEX","ppdCategoryType":"Standard","recordStatus":"Addition","latitude":51.561891,"longitude":0.498052,"postcodeStart":"SS16 4","postcode":["SS16","4TD"]}
{"price":64000,"dateOfTransfer":"1996-02-16T00:00:00","postcodeFull":"SS16 4TQ","propertyType":"Terraced","oldOrNew":"New build","duration":"Freehold","paon":"60","saon":"","street":"CHESTNUT ROAD","locality":"VANGE","townOrCity":"BASILDON","district":"BASILDON","county":"ESSEX","ppdCategoryType":"Standard","recordStatus":"Addition","latitude":51.561364,"longitude":0.497879,"postcodeStart":"SS16 4","postcode":["SS16","4TQ"]}
{"price":44000,"dateOfTransfer":"1996-05-13T00:00:00","postcodeFull":"SS16 4XJ","propertyType":"Flat/Maisonette/Townhouse","oldOrNew":"New build","duration":"Leasehold","paon":"51","saon":"","street":"THE GLEN","locality":"VANGE","townOrCity":"BASILDON","district":"BASILDON","county":"ESSEX","ppdCategoryType":"Standard","recordStatus":"Addition","latitude":51.560618,"longitude":0.498314,"postcodeStart":"SS16 4","postcode":["SS16","4XJ"]}
{"price":43500,"dateOfTransfer":"1996-02-22T00:00:00","postcodeFull":"SS16 4TZ","propertyType":"Flat/Maisonette/Townhouse","oldOrNew":"New build","duration":"Leasehold","paon":"17","saon":"","street":"WATERVILLE DRIVE","locality":"VANGE","townOrCity":"BASILDON","district":"BASILDON","county":"ESSEX","ppdCategoryType":"Standard","recordStatus":"Addition","latitude":51.561926,"longitude":0.499814,"postcodeStart":"SS16 4","postcode":["SS16","4TZ"]}
{"price":33500,"dateOfTransfer":"1996-05-31T00:00:00","postcodeFull":"SS16 4NZ","propertyType":"Terraced","oldOrNew":"Established","duration":"Freehold","paon":"17","saon":"","street":"SWANSTEAD","locality":"BASILDON","townOrCity":"BASILDON","district":"BASILDON","county":"ESSEX","ppdCategoryType":"Standard","recordStatus":"Addition","latitude":51.5613,"longitude":0.4831,"postcodeStart":"SS16 4","postcode":["SS16","4NZ"]}
{"price":45000,"dateOfTransfer":"1996-03-15T00:00:00","postcodeFull":"SS16 4LJ","propertyType":"Terraced","oldOrNew":"Established","duration":"Freehold","paon":"41","saon":"","street":"BYFLETTS","locality":"BASILDON","townOrCity":"BASILDON","district":"BASILDON","county":"ESSEX","ppdCategoryType":"Standard","recordStatus":"Addition","latitude":51.561724,"longitude":0.489862,"postcodeStart":"SS16 4","postcode":["SS16","4LJ"]}
{"price":77950,"dateOfTransfer":"1996-01-19T00:00:00","postcodeFull":"SS16 4LA","propertyType":"Detached","oldOrNew":"Established","duration":"Freehold","paon":"11A","saon":"","street":"KENT VIEW ROAD","locality":"BASILDON","townOrCity":"BASILDON","district":"BASILDON","county":"ESSEX","ppdCategoryType":"Standard","recordStatus":"Addition","latitude":51.562353,"longitude":0.489002,"postcodeStart":"SS16 4","postcode":["SS16","4LA"]}
{"price":68500,"dateOfTransfer":"1996-07-31T00:00:00","postcodeFull":"SS16 4XJ","propertyType":"Terraced","oldOrNew":"New build","duration":"Freehold","paon":"6","saon":"","street":"THE GLEN","locality":"VANGE","townOrCity":"BASILDON","district":"BASILDON","county":"ESSEX","ppdCategoryType":"Standard","recordStatus":"Addition","latitude":51.560618,"longitude":0.498314,"postcodeStart":"SS16 4","postcode":["SS16","4XJ"]}
{"price":33000,"dateOfTransfer":"1996-08-30T00:00:00","postcodeFull":"SS16 4TQ","propertyType":"Flat/Maisonette/Townhouse","oldOrNew":"Established","duration":"Leasehold","paon":"90","saon":"","street":"CHESTNUT ROAD","locality":"VANGE","townOrCity":"BASILDON","district":"BASILDON","county":"ESSEX","ppdCategoryType":"Standard","recordStatus":"Addition","latitude":51.561364,"longitude":0.497879,"postcodeStart":"SS16 4","postcode":["SS16","4TQ"]}
{"price":41000,"dateOfTransfer":"1996-11-18T00:00:00","postcodeFull":"SS16 4TQ","propertyType":"Flat/Maisonette/Townhouse","oldOrNew":"New build","duration":"Leasehold","paon":"102","saon":"","street":"CHESTNUT ROAD","locality":"VANGE","townOrCity":"BASILDON","district":"BASILDON","county":"ESSEX","ppdCategoryType":"Standard","recordStatus":"Addition","latitude":51.561364,"longitude":0.497879,"postcodeStart":"SS16 4","postcode":["SS16","4TQ"]}
{"price":68000,"dateOfTransfer":"1996-04-26T00:00:00","postcodeFull":"SS16 4TQ","propertyType":"Terraced","oldOrNew":"New build","duration":"Freehold","paon":"26","saon":"","street":"CHESTNUT ROAD","locality":"VANGE","townOrCity":"BASILDON","district":"BASILDON","county":"ESSEX","ppdCategoryType":"Standard","recordStatus":"Addition","latitude":51.561364,"longitude":0.497879,"postcodeStart":"SS16 4","postcode":["SS16","4TQ"]}
{"price":51500,"dateOfTransfer":"1996-01-31T00:00:00","postcodeFull":"SS16 4DN","propertyType":"Terraced","oldOrNew":"Established","duration":"Freehold","paon":"23","saon":"","street":"COLLINGWOOD ROAD","locality":"BASILDON","townOrCity":"BASILDON","district":"BASILDON","county":"ESSEX","ppdCategoryType":"Standard","recordStatus":"Addition","latitude":51.564447,"longitude":0.477211,"postcodeStart":"SS16 4","postcode":["SS16","4DN"]}
{"price":41000,"dateOfTransfer":"1996-09-13T00:00:00","postcodeFull":"SS16 4XJ","propertyType":"Flat/Maisonette/Townhouse","oldOrNew":"New build","duration":"Leasehold","paon":"63","saon":"","street":"THE GLEN","locality":"VANGE","townOrCity":"BASILDON","district":"BASILDON","county":"ESSEX","ppdCategoryType":"Standard","recordStatus":"Addition","latitude":51.560618,"longitude":0.498314,"postcodeStart":"SS16 4","postcode":["SS16","4XJ"]}
{"price":36600,"dateOfTransfer":"1996-03-22T00:00:00","postcodeFull":"SS16 4RT","propertyType":"Terraced","oldOrNew":"Established","duration":"Freehold","paon":"64","saon":"","street":"MERRICKS LANE","locality":"BASILDON","townOrCity":"BASILDON","district":"BASILDON","county":"ESSEX","ppdCategoryType":"Standard","recordStatus":"Addition","latitude":51.555032,"longitude":0.482672,"postcodeStart":"SS16 4","postcode":["SS16","4RT"]}
{"price":43000,"dateOfTransfer":"1996-04-30T00:00:00","postcodeFull":"SS16 4TD","propertyType":"Flat/Maisonette/Townhouse","oldOrNew":"New build","duration":"Leasehold","paon":"139","saon":"","street":"CHESTNUT ROAD","locality":"VANGE","townOrCity":"BASILDON","district":"BASILDON","county":"ESSEX","ppdCategoryType":"Standard","recordStatus":"Addition","latitude":51.561891,"longitude":0.498052,"postcodeStart":"SS16 4","postcode":["SS16","4TD"]}
{"price":40500,"dateOfTransfer":"1996-08-16T00:00:00","postcodeFull":"SS16 4XJ","propertyType":"Flat/Maisonette/Townhouse","oldOrNew":"New build","duration":"Leasehold","paon":"65","saon":"","street":"THE GLEN","locality":"VANGE","townOrCity":"BASILDON","district":"BASILDON","county":"ESSEX","ppdCategoryType":"Standard","recordStatus":"Addition","latitude":51.560618,"longitude":0.498314,"postcodeStart":"SS16 4","postcode":["SS16","4XJ"]}
{"price":45000,"dateOfTransfer":"1996-03-08T00:00:00","postcodeFull":"SS16 4EF","propertyType":"Terraced","oldOrNew":"Established","duration":"Freehold","paon":"93","saon":"","street":"SUNNEDON","locality":"BASILDON","townOrCity":"BASILDON","district":"BASILDON","county":"ESSEX","ppdCategoryType":"Standard","recordStatus":"Addition","latitude":51.566775,"longitude":0.478088,"postcodeStart":"SS16 4","postcode":["SS16","4EF"]}
{"price":26500,"dateOfTransfer":"1996-04-29T00:00:00","postcodeFull":"SS16 4TD","propertyType":"Flat/Maisonette/Townhouse","oldOrNew":"New build","duration":"Leasehold","paon":"73","saon":"","street":"CHESTNUT ROAD","locality":"VANGE","townOrCity":"BASILDON","district":"BASILDON","county":"ESSEX","ppdCategoryType":"Standard","recordStatus":"Addition","latitude":51.561891,"longitude":0.498052,"postcodeStart":"SS16 4","postcode":["SS16","4TD"]}
{"price":79000,"dateOfTransfer":"1996-10-31T00:00:00","postcodeFull":"SS16 4TY","propertyType":"Terraced","oldOrNew":"New build","duration":"Freehold","paon":"2","saon":"","street":"WATERVILLE DRIVE","locality":"VANGE","townOrCity":"BASILDON","district":"BASILDON","county":"ESSEX","ppdCategoryType":"Standard","recordStatus":"Addition","latitude":51.561538,"longitude":0.499418,"postcodeStart":"SS16 4","postcode":["SS16","4TY"]}
{"price":57000,"dateOfTransfer":"1996-06-27T00:00:00","postcodeFull":"SS16 4TQ","propertyType":"Terraced","oldOrNew":"New build","duration":"Freehold","paon":"82","saon":"","street":"CHESTNUT ROAD","locality":"VANGE","townOrCity":"BASILDON","district":"BASILDON","county":"ESSEX","ppdCategoryType":"Standard","recordStatus":"Addition","latitude":51.561364,"longitude":0.497879,"postcodeStart":"SS16 4","postcode":["SS16","4TQ"]}
{"price":43950,"dateOfTransfer":"1996-06-28T00:00:00","postcodeFull":"SS16 4DP","propertyType":"Terraced","oldOrNew":"Established","duration":"Freehold","paon":"10","saon":"","street":"COLLINGWOOD ROAD","locality":"BASILDON","townOrCity":"BASILDON","district":"BASILDON","county":"ESSEX","ppdCategoryType":"Standard","recordStatus":"Addition","latitude":51.564463,"longitude":0.479016,"postcodeStart":"SS16 4","postcode":["SS16","4DP"]}
{"price":41250,"dateOfTransfer":"1996-12-23T00:00:00","postcodeFull":"SS16 4XJ","propertyType":"Flat/Maisonette/Townhouse","oldOrNew":"New build","duration":"Leasehold","paon":"17","saon":"","street":"THE GLEN","locality":"VANGE","townOrCity":"BASILDON","district":"BASILDON","county":"ESSEX","ppdCategoryType":"Standard","recordStatus":"Addition","latitude":51.560618,"longitude":0.498314,"postcodeStart":"SS16 4","postcode":["SS16","4XJ"]}
{"price":42750,"dateOfTransfer":"1996-07-31T00:00:00","postcodeFull":"SS16 4XJ","propertyType":"Flat/Maisonette/Townhouse","oldOrNew":"New build","duration":"Leasehold","paon":"35","saon":"","street":"THE GLEN","locality":"VANGE","townOrCity":"BASILDON","district":"BASILDON","county":"ESSEX","ppdCategoryType":"Standard","recordStatus":"Addition","latitude":51.560618,"longitude":0.498314,"postcodeStart":"SS16 4","postcode":["SS16","4XJ"]}
{"price":64000,"dateOfTransfer":"1996-02-01T00:00:00","postcodeFull":"SS16 4TQ","propertyType":"Terraced","oldOrNew":"New build","duration":"Freehold","paon":"62","saon":"","street":"CHESTNUT ROAD","locality":"VANGE","townOrCity":"BASILDON","district":"BASILDON","county":"ESSEX","ppdCategoryType":"Standard","recordStatus":"Addition","latitude":51.561364,"longitude":0.497879,"postcodeStart":"SS16 4","postcode":["SS16","4TQ"]}
{"price":27500,"dateOfTransfer":"1996-07-31T00:00:00","postcodeFull":"SS16 4TD","propertyType":"Flat/Maisonette/Townhouse","oldOrNew":"New build","duration":"Leasehold","paon":"9","saon":"","street":"CHESTNUT ROAD","locality":"VANGE","townOrCity":"BASILDON","district":"BASILDON","county":"ESSEX","ppdCategoryType":"Standard","recordStatus":"Addition","latitude":51.561891,"longitude":0.498052,"postcodeStart":"SS16 4","postcode":["SS16","4TD"]}
