{"price":107500,"dateOfTransfer":"1995-08-29T00:00:00","postcodeFull":"SW7 4SB","propertyType":"Flat/Maisonette/Townhouse","oldOrNew":"Established","duration":"Leasehold","paon":"2","saon":"FLAT 2","street":"SOUTHWELL GARDENS","locality":"LONDON","townOrCity":"LONDON","district":"KENSINGTON AND CHELSEA","county":"GREATER LONDON","ppdCategoryType":"Standard","recordStatus":"Addition","latitude":51.496113,"longitude":-0.184276,"postcodeStart":"SW7 4","postcode":["SW7","4SB"]}
{"price":124000,"dateOfTransfer":"1995-11-20T00:00:00","postcodeFull":"SW7 4AN","propertyType":"Flat/Maisonette/Townhouse","oldOrNew":"Established","duration":"Leasehold","paon":"15 - 16","saon":"FLAT 10","street":"CORNWALL GARDENS","locality":"LONDON","townOrCity":"LONDON","district":"KENSINGTON AND CHELSEA","county":"GREATER LONDON","ppdCategoryType":"Standard","recordStatus":"Addition","latitude":51.497266,"longitude":-0.184717,"postcodeStart":"SW7 4","postcode":["SW7","4AN"]}
{"price":255000,"dateOfTransfer":"1995-03-22T00:00:00","postcodeFull":"SW7 4JZ","propertyType":"Flat/Maisonette/Townhouse","oldOrNew":"Established","duration":"Leasehold","paon":"63","saon":"FLAT 2","street":"HARRINGTON GARDENS","locality":"LONDON","townOrCity":"LONDON","district":"KENSINGTON AND CHELSEA","county":"GREATER LONDON","ppdCategoryType":"Standard","recordStatus":"Addition","latitude":51.492242,"longitude":-0.186413,"postcodeStart":"SW7 4","postcode":["SW7","4JZ"]}
{"price":147500,"dateOfTransfer":"1995-08-04T00:00:00","postcodeFull":"SW7 4NN","propertyType":"Flat/Maisonette/Townhouse","oldOrNew":"Established","duration":"Leasehold","paon":"7","saon":"FLAT 4","street":"ROSARY GARDENS","locality":"LONDON","townOrCity":"LONDON","district":"KENSINGTON AND CHELSEA","county":"GREATER LONDON","ppdCategoryType":"Standard","recordStatus":"Addition","latitude":51.491264,"longitude":-0.182491,"postcodeStart":"SW7 4","postcode":["SW7","4NN"]}
{"price":240000,"dateOfTransfer":"1995-07-24T00:00:00","postcodeFull":"SW7 4HW","propertyType":"Terraced","oldOrNew":"Established","duration":"Freehold","paon":"17","saon":"","street":"OSTEN MEWS","locality":"LONDON","townOrCity":"LONDON","district":"KENSINGTON AND CHELSEA","county":"GREATER LONDON","ppdCategoryType":"Standard","recordStatus":"Addition","latitude":51.496352,"longitude":-0.187605,"postcodeStart":"SW7 4","postcode":["SW7","4HW"]}
{"price":195000,"dateOfTransfer":"1995-09-27T00:00:00","postcodeFull":"SW7 4AU","propertyType":"Flat/Maisonette/Townhouse","oldOrNew":"Established","duration":"Leasehold","paon":"100","saon":"FLAT 6","street":"GLOUCESTER ROAD","locality":"LONDON","townOrCity":"LONDON","district":"KENSINGTON AND CHELSEA","county":"GREATER LONDON","ppdCategoryType":"Standard","recordStatus":"Addition","latitude":51.496383,"longitude":-0.1838,"postcodeStart":"SW7 4","postcode":["SW7","4AU"]}
{"price":324000,"dateOfTransfer":"1995-04-07T00:00:00","postcodeFull":"SW7 4QR","propertyType":"Terraced","oldOrNew":"Established","duration":"Freehold","paon":"33","saon":"","street":"KYNANCE MEWS","locality":"LONDON","townOrCity":"LONDON","district":"KENSINGTON AND CHELSEA","county":"GREATER LONDON","ppdCategoryType":"Standard","recordStatus":"Addition","latitude":51.497345,"longitude":-0.186139,"postcodeStart":"SW7 4","postcode":["SW7","4QR"]}
{"price":153000,"dateOfTransfer":"1995-12-12T00:00:00","postcodeFull":"SW7 4LT","propertyType":"Flat/Maisonette/Townhouse","oldOrNew":"Established","duration":"Leasehold","paon":"46","saon":"FLAT 1","street":"HARRINGTON GARDENS","locality":"LONDON","townOrCity":"LONDON","district":"KENSINGTON AND CHELSEA","county":"GREATER LONDON","ppdCategoryType":"Standard","recordStatus":"Addition","latitude":51.492692,"longitude":-0.186482,"postcodeStart":"SW7 4","postcode":["SW7","4LT"]}
{"price":147000,"dateOfTransfer":"1995-03-17T00:00:00","postcodeFull":"SW7 4RL","propertyType":"Flat/Maisonette/Townhouse","oldOrNew":"Established","duration":"Leasehold","paon":"14","saon":"FLAT 9","street":"SOUTHWELL GARDENS","locality":"LONDON","townOrCity":"LONDON","district":"KENSINGTON AND CHELSEA","county":"GREATER LONDON","ppdCategoryType":"Standard","recordStatus":"Addition","latitude":51.495586,"longitude":-0.184624,"postcodeStart":"SW7 4","postcode":["SW7","4RL"]}
{"price":160000,"dateOfTransfer":"1995-12-15T00:00:00","postcodeFull":"SW7 4DA","propertyType":"Flat/Maisonette/Townhouse","oldOrNew":"Established","duration":"Leasehold","paon":"21 - 23","saon":"FLAT 14","street":"COURTFIELD ROAD","locality":"LONDON","townOrCity":"LONDON","district":"KENSINGTON AND CHELSEA","county":"GREATER LONDON","ppdCategoryType":"Standard","recordStatus":"Addition","latitude":51.493404,"longitude":-0.18484,"postcodeStart":"SW7 4","postcode":["SW7","4DA"]}
{"price":157000,"dateOfTransfer":"1995-09-15T00:00:00","postcodeFull":"SW7 4LT","propertyType":"Flat/Maisonette/Townhouse","oldOrNew":"Established","duration":"Leasehold","paon":"48 - 50","saon":"FLAT 3","street":"HARRINGTON GARDENS","locality":"LONDON","townOrCity":"LONDON","district":"KENSINGTON AND CHELSEA","county":"GREATER LONDON","ppdCategoryType":"Standard","recordStatus":"Addition","latitude":51.492692,"longitude":-0.186482,"postcodeStart":"SW7 4","postcode":["SW7","4LT"]}
{"price":211000,"dateOfTransfer":"1995-10-10T00:00:00","postcodeFull":"SW7 4AA","propertyType":"Flat/Maisonette/Townhouse","oldOrNew":"Established","duration":"Leasehold","paon":"40","saon":"FLAT B","street":"CORNWALL GARDENS","locality":"LONDON","townOrCity":"LONDON","district":"KENSINGTON AND CHELSEA","county":"GREATER LONDON","ppdCategoryType":"Standard","recordStatus":"Addition","latitude":51.497303,"longitude":-0.187466,"postcodeStart":"SW7 4","postcode":["SW7","4AA"]}
{"price":150000,"dateOfTransfer":"1995-12-21T00:00:00","postcodeFull":"SW7 4BD","propertyType":"Flat/Maisonette/Townhouse","oldOrNew":"Established","duration":"Leasehold","paon":"64A","saon":"","street":"CORNWALL GARDENS","locality":"LONDON","townOrCity":"LONDON","district":"KENSINGTON AND CHELSEA","county":"GREATER LONDON","ppdCategoryType":"Standard","recordStatus":"Addition","latitude":51.49653,"longitude":-0.18692,"postcodeStart":"SW7 4","postcode":["SW7","4BD"]}
{"price":195000,"dateOfTransfer":"1995-06-26T00:00:00","postcodeFull":"SW7 4AZ","propertyType":"Flat/Maisonette/Townhouse","oldOrNew":"Established","duration":"Leasehold","paon":"80","saon":"FLAT 2","street":"CORNWALL GARDENS","locality":"LONDON","townOrCity":"LONDON","district":"KENSINGTON AND CHELSEA","county":"GREATER LONDON","ppdCategoryType":"Standard","recordStatus":"Addition","latitude":51.496374,"longitude":-0.185544,"postcodeStart":"SW7 4","postcode":["SW7","4AZ"]}
{"price":59000,"dateOfTransfer":"1995-09-12T00:00:00","postcodeFull":"SW7 4LX","propertyType":"Flat/Maisonette/Townhouse","oldOrNew":"Established","duration":"Leasehold","paon":"11B","saon":"","street":"COLBECK MEWS","locality":"","townOrCity":"LONDON","district":"KENSINGTON AND CHELSEA","county":"GREATER LONDON","ppdCategoryType":"Standard","recordStatus":"Addition","latitude":51.492788,"longitude":-0.186757,"postcodeStart":"SW7 4","postcode":["SW7","4LX"]}
{"price":265000,"dateOfTransfer":"1995-06-21T00:00:00","postcodeFull":"SW7 4TH","propertyType":"Flat/Maisonette/Townhouse","oldOrNew":"Established","duration":"Leasehold","paon":"151","saon":"FLAT 2","street":"GLOUCESTER ROAD","locality":"","townOrCity":"LONDON","district":"KENSINGTON AND CHELSEA","county":"GREATER LONDON","ppdCategoryType":"Standard","recordStatus":"Addition","latitude":51.492015,"longitude":-0.180488,"postcodeStart":"SW7 4","postcode":["SW7","4TH"]}
{"price":75000,"dateOfTransfer":"1995-01-27T00:00:00","postcodeFull":"SW7 4AJ","propertyType":"Flat/Maisonette/Townhouse","oldOrNew":"Established","duration":"Leasehold","paon":"5","saon":"FLAT 11","street":"CORNWALL GARDENS","locality":"LONDON","townOrCity":"LONDON","district":"KENSINGTON AND CHELSEA","county":"GREATER LONDON","ppdCategoryType":"Standard","recordStatus":"Addition","latitude":51.496818,"longitude":-0.184013,"postcodeStart":"SW7 4","postcode":["SW7","4AJ"]}
{"price":123000,"dateOfTransfer":"1995-10-09T00:00:00","postcodeFull":"SW7 4JZ","propertyType":"Flat/Maisonette/Townhouse","oldOrNew":"Established","duration":"Leasehold","paon":"57","saon":"FLAT 2","street":"HARRINGTON GARDENS","locality":"LONDON","townOrCity":"LONDON","district":"KENSINGTON AND CHELSEA","county":"GREATER LONDON","ppdCategoryType":"Standard","recordStatus":"Addition","latitude":51.492242,"longitude":-0.186413,"postcodeStart":"SW7 4","postcode":["SW7","4JZ"]}
{"price":152500,"dateOfTransfer":"1995-03-03T00:00:00","postcodeFull":"SW7 4HJ","propertyType":"Flat/Maisonette/Townhouse","oldOrNew":"Established","duration":"Leasehold","paon":"39","saon":"FLAT E","street":"EMPERORS GATE","locality":"LONDON","townOrCity":"LONDON","district":"KENSINGTON AND CHELSEA","county":"GREATER LONDON","ppdCategoryType":"Standard","recordStatus":"Addition","latitude":51.496305,"longitude":-0.186324,"postcodeStart":"SW7 4","postcode":["SW7","4HJ"]}
{"price":330000,"dateOfTransfer":"1995-11-09T00:00:00","postcodeFull":"SW7 4TF","propertyType":"Terraced","oldOrNew":"Established","duration":"Freehold","paon":"11","saon":"","street":"STANHOPE MEWS SOUTH","locality":"LONDON","townOrCity":"LONDON","district":"KENSINGTON AND CHELSEA","county":"GREATER LONDON","ppdCategoryType":"Standard","recordStatus":"Addition","latitude":51.493255,"longitude":-0.181014,"postcodeStart":"SW7 4","postcode":["SW7","4TF"]}
{"price":360000,"dateOfTransfer":"1995-08-09T00:00:00","postcodeFull":"SW7 4JZ","propertyType":"Flat/Maisonette/Townhouse","oldOrNew":"Established","duration":"Leasehold","paon":"63","saon":"GROUND FLOOR FLAT","street":"HARRINGTON GARDENS","locality":"LONDON","townOrCity":"LONDON","district":"KENSINGTON AND CHELSEA","county":"GREATER LONDON","ppdCategoryType":"Standard","recordStatus":"Addition","latitude":51.492242,"longitude":-0.186413,"postcodeStart":"SW7 4","postcode":["SW7","4JZ"]}
{"price":63500,"dateOfTransfer":"1995-10-31T00:00:00","postcodeFull":"SW7 4TT","propertyType":"Terraced","oldOrNew":"Established","duration":"Freehold","paon":"3","saon":"","street":"HEREFORD SQUARE","locality":"LONDON","townOrCity":"LONDON","district":"KENSINGTON AND CHELSEA","county":"GREATER LONDON","ppdCategoryType":"Standard","recordStatus":"Addition","latitude":51.491801,"longitude":-0.181159,"postcodeStart":"SW7 4","postcode":["SW7","4TT"]}
{"price":35000,"dateOfTransfer":"1995-01-25T00:00:00","postcodeFull":"SW7 4AX","propertyType":"Flat/Maisonette/Townhouse","oldOrNew":"Established","duration":"Leasehold","paon":"90","saon":"FRONT BASEMENT FLAT","street":"CORNWALL GARDENS","locality":"","townOrCity":"LONDON","district":"KENSINGTON AND CHELSEA","county":"GREATER LONDON","ppdCategoryType":"Standard","recordStatus":"Addition","latitude":51.496359,"longitude":-0.184031,"postcodeStart":"SW7 4","postcode":["SW7","4AX"]}
{"price":142000,"dateOfTransfer":"1995-02-13T00:00:00","postcodeFull":"SW7 4LT","propertyType":"Flat/Maisonette/Townhouse","oldOrNew":"Established","duration":"Leasehold","paon":"48 - 50","saon":"FLAT 11","street":"HARRINGTON GARDENS","locality":"LONDON","townOrCity":"LONDON","district":"KENSINGTON AND CHELSEA","county":"GREATER LONDON","ppdCategoryType":"Standard","recordStatus":"Addition","latitude":51.492692,"longitude":-0.186482,"postcodeStart":"SW7 4","postcode":["SW7","4LT"]}
{"price":340000,"dateOfTransfer":"1995-05-17T00:00:00","postcodeFull":"SW7 4AP","propertyType":"Flat/Maisonette/Townhouse","oldOrNew":"Established","duration":"Leasehold","paon":"35","saon":"PENTHOUSE FLAT","street":"CORNWALL GARDENS","locality":"LONDON","townOrCity":"LONDON","district":"KENSINGTON AND CHELSEA","county":"GREATER LONDON","ppdCategoryType":"Standard","recordStatus":"Addition","latitude":51.49729,"longitude":-0.186645,"postcodeStart":"SW7 4","postcode":["SW7","4AP"]}
{"price":117500,"dateOfTransfer":"1995-06-16T00:00:00","postcodeFull":"SW7 4QA","propertyType":"Flat/Maisonette/Townhouse","oldOrNew":"Established","duration":"Leasehold","paon":"14","saon":"FLAT 6","street":"BRECHIN PLACE","locality":"LONDON","townOrCity":"LONDON","district":"KENSINGTON AND CHELSEA","county":"GREATER LONDON","ppdCategoryType":"Standard","recordStatus":"Addition","latitude":51.4915,"longitude":-0.181473,"postcodeStart":"SW7 4","postcode":["SW7","4QA"]}
{"price":175000,"dateOfTransfer":"1995-06-19T00:00:00","postcodeFull":"SW7 4RL","propertyType":"Flat/Maisonette/Townhouse","oldOrNew":"Established","duration":"Leasehold","paon":"14","saon":"FLAT 5","street":"SOUTHWELL GARDENS","locality":"LONDON","townOrCity":"LONDON","district":"KENSINGTON AND CHELSEA","county":"GREATER LONDON","ppdCategoryType":"Standard","recordStatus":"Addition","latitude":51.495586,"longitude":-0.184624,"postcodeStart":"SW7 4","postcode":["SW7","4RL"]}
{"price":420000,"dateOfTransfer":"1995-08-30T00:00:00","postcodeFull":"SW7 4JZ","propertyType":"Flat/Maisonette/Townhouse","oldOrNew":"Established","duration":"Leasehold","paon":"53","saon":"FLAT 2","street":"HARRINGTON GARDENS","locality":"LONDON","townOrCity":"LONDON","district":"KENSINGTON AND CHELSEA","county":"GREATER LONDON","ppdCategoryType":"Standard","recordStatus":"Addition","latitude":51.492242,"longitude":-0.186413,"postcodeStart":"SW7 4","postcode":["SW7","4JZ"]}
{"price":290000,"dateOfTransfer":"1995-09-07T00:00:00","postcodeFull":"SW7 4AZ","propertyType":"Flat/Maisonette/Townhouse","oldOrNew":"Established","duration":"Leasehold","paon":"80","saon":"FLAT 2","street":"CORNWALL GARDENS","locality":"LONDON","townOrCity":"LONDON","district":"KENSINGTON AND CHELSEA","county":"GREATER LONDON","ppdCategoryType":"Standard","recordStatus":"Addition","latitude":51.496374,"longitude":-0.185544,"postcodeStart":"SW7 4","postcode":["SW7","4AZ"]}
{"price":332500,"dateOfTransfer":"1995-02-16T00:00:00","postcodeFull":"SW7 4NS","propertyType":"Flat/Maisonette/Townhouse","oldOrNew":"Established","duration":"Leasehold","paon":"10","saon":"","street":"ROSARY GARDENS","locality":"LONDON","townOrCity":"LONDON","district":"KENSINGTON AND CHELSEA","county":"GREATER LONDON","ppdCategoryType":"Standard","recordStatus":"Addition","latitude":51.491655,"longitude":-0.182216,"postcodeStart":"SW7 4","postcode":["SW7","4NS"]}
{"price":215000,"dateOfTransfer":"1995-10-12T00:00:00","postcodeFull":"SW7 4HW","propertyType":"Terraced","oldOrNew":"Established","duration":"Freehold","paon":"6","saon":"","street":"OSTEN MEWS","locality":"LONDON","townOrCity":"LONDON","district":"KENSINGTON AND CHELSEA","county":"GREATER LONDON","ppdCategoryType":"Standard","recordStatus":"Addition","latitude":51.496352,"longitude":-0.187605,"postcodeStart":"SW7 4","postcode":["SW7","4HW"]}
{"price":60000,"dateOfTransfer":"1995-06-23T00:00:00","postcodeFull":"SW7 4AX","propertyType":"Flat/Maisonette/Townhouse","oldOrNew":"Established","duration":"Leasehold","paon":"89","saon":"","street":"CORNWALL GARDENS","locality":"LONDON","townOrCity":"LONDON","district":"KENSINGTON AND CHELSEA","county":"GREATER LONDON","ppdCategoryType":"Standard","recordStatus":"Addition","latitude":51.496359,"longitude":-0.184031,"postcodeStart":"SW7 4","postcode":["SW7","4AX"]}
{"price":350000,"dateOfTransfer":"1995-09-20T00:00:00","postcodeFull":"SW7 4AA","propertyType":"Flat/Maisonette/Townhouse","oldOrNew":"Established","duration":"Leasehold","paon":"39","saon":"","street":"CORNWALL GARDENS","locality":"LONDON","townOrCity":"LONDON","district":"KENSINGTON AND CHELSEA","county":"GREATER LONDON","ppdCategoryType":"Standard","recordStatus":"Addition","latitude":51.497303,"longitude":-0.187466,"postcodeStart":"SW7 4","postcode":["SW7","4AA"]}
{"price":270000,"dateOfTransfer":"1995-01-27T00:00:00","postcodeFull":"SW7 4BA","propertyType":"Flat/Maisonette/Townhouse","oldOrNew":"Established","duration":"Leasehold","paon":"74","saon":"FLAT 1","street":"CORNWALL GARDENS","locality":"LONDON","townOrCity":"LONDON","district":"KENSINGTON AND CHELSEA","county":"GREATER LONDON","ppdCategoryType":"Standard","recordStatus":"Addition","latitude":51.496454,"longitude":-0.186304,"postcodeStart":"SW7 4","postcode":["SW7","4BA"]}
{"price":303428,"dateOfTransfer":"1995-12-01T00:00:00","postcodeFull":"SW7 4DB","propertyType":"Flat/Maisonette/Townhouse","oldOrNew":"Established","duration":"Leasehold","paon":"33 - 35","saon":"FLAT 3","street":"COURTFIELD ROAD","locality":"LONDON","townOrCity":"LONDON","district":"KENSINGTON AND CHELSEA","county":"GREATER LONDON","ppdCategoryType":"Standard","recordStatus":"Addition","latitude":51.493238,"longitude":-0.18563,"postcodeStart":"SW7 4","postcode":["SW7","4DB"]}
{"price":535000,"dateOfTransfer":"1995-02-01T00:00:00","postcodeFull":"SW7 4TT","propertyType":"Terraced","oldOrNew":"Established","duration":"Leasehold","paon":"3","saon":"","street":"HEREFORD SQUARE","locality":"LONDON","townOrCity":"LONDON","district":"KENSINGTON AND CHELSEA","county":"GREATER LONDON","ppdCategoryType":"Standard","recordStatus":"Addition","latitude":51.491801,"longitude":-0.181159,"postcodeStart":"SW7 4","postcode":["SW7","4TT"]}
{"price":180000,"dateOfTransfer":"1995-01-27T00:00:00","postcodeFull":"SW7 4DB","propertyType":"Flat/Maisonette/Townhouse","oldOrNew":"Established","duration":"Leasehold","paon":"33 - 35","saon":"FLAT 11","street":"COURTFIELD ROAD","locality":"LONDON","townOrCity":"LONDON","district":"KENSINGTON AND CHELSEA","county":"GREATER LONDON","ppdCategoryType":"Standard","recordStatus":"Addition","latitude":51.493238,"longitude":-0.18563,"postcodeStart":"SW7 4","postcode":["SW7","4DB"]}
{"price":195000,"dateOfTransfer":"1995-11-17T00:00:00","postcodeFull":"SW7 4PP","propertyType":"Flat/Maisonette/Townhouse","oldOrNew":"Established","duration":"Leasehold","paon":"7","saon":"7B","street":"GLOUCESTER ROAD","locality":"LONDON","townOrCity":"LONDON","district":"KENSINGTON AND CHELSEA","county":"GREATER LONDON","ppdCategoryType":"Standard","recordStatus":"Addition","latitude":51.498939,"longitude":-0.183569,"postcodeStart":"SW7 4","postcode":["SW7","4PP"]}
{"price":225000,"dateOfTransfer":"1995-10-13T00:00:00","postcodeFull":"SW7 4DB","propertyType":"Flat/Maisonette/Townhouse","oldOrNew":"Established","duration":"Leasehold","paon":"41 - 43","saon":"FLAT 12","street":"COURTFIELD ROAD","locality":"LONDON","townOrCity":"LONDON","district":"KENSINGTON AND CHELSEA","county":"GREATER LONDON","ppdCategoryType":"Standard","recordStatus":"Addition","latitude":51.493238,"longitude":-0.18563,"postcodeStart":"SW7 4","postcode":["SW7","4DB"]}
{"price":59000,"dateOfTransfer":"1995-01-03T00:00:00","postcodeFull":"SW7 4SS","propertyType":"Flat/Maisonette/Townhouse","oldOrNew":"Established","duration":"Leasehold","paon":"101","saon":"FLAT B","street":"GLOUCESTER ROAD","locality":"LONDON","townOrCity":"LONDON","district":"KENSINGTON AND CHELSEA","county":"GREATER LONDON","ppdCategoryType":"Standard","recordStatus":"Addition","latitude":51.494235,"longitude":-0.182128,"postcodeStart":"SW7 4","postcode":["SW7","4SS"]}
{"price":163000,"dateOfTransfer":"1995-12-04T00:00:00","postcodeFull":"SW7 4AZ","propertyType":"Flat/Maisonette/Townhouse","oldOrNew":"Established","duration":"Leasehold","paon":"79D","saon":"","street":"CORNWALL GARDENS","locality":"LONDON","townOrCity":"LONDON","district":"KENSINGTON AND CHELSEA","county":"GREATER LONDON","ppdCategoryType":"Standard","recordStatus":"Addition","latitude":51.496374,"longitude":-0.185544,"postcodeStart":"SW7 4","postcode":["SW7","4AZ"]}
{"price":110000,"dateOfTransfer":"1995-11-17T00:00:00","postcodeFull":"SW7 4NT","propertyType":"Flat/Maisonette/Townhouse","oldOrNew":"Established","duration":"Leasehold","paon":"24","saon":"","street":"ROSARY GARDENS","locality":"LONDON","townOrCity":"LONDON","district":"KENSINGTON AND CHELSEA","county":"GREATER LONDON","ppdCategoryType":"Standard","recordStatus":"Addition","latitude":51.492136,"longitude":-0.182528,"postcodeStart":"SW7 4","postcode":["SW7","4NT"]}
{"price":210000,"dateOfTransfer":"1995-05-05T00:00:00","postcodeFull":"SW7 4HH","propertyType":"Flat/Maisonette/Townhouse","oldOrNew":"Established","duration":"Leasehold","paon":"4","saon":"FLAT 6","street":"EMPERORS GATE","locality":"LONDON","townOrCity":"LONDON","district":"KENSINGTON AND CHELSEA","county":"GREATER LONDON","ppdCategoryType":"Standard","recordStatus":"Addition","latitude":51.4958,"longitude":-0.185638,"postcodeStart":"SW7 4","postcode":["SW7","4HH"]}
{"price":375000,"dateOfTransfer":"1995-11-01T00:00:00","postcodeFull":"SW7 4JZ","propertyType":"Flat/Maisonette/Townhouse","oldOrNew":"Established","duration":"Leasehold","paon":"63","saon":"GROUND FLOOR FLAT","street":"HARRINGTON GARDENS","locality":"LONDON","townOrCity":"LONDON","district":"KENSINGTON AND CHELSEA","county":"GREATER LONDON","ppdCategoryType":"Standard","recordStatus":"Addition","latitude":51.492242,"longitude":-0.186413,"postcodeStart":"SW7 4","postcode":["SW7","4JZ"]}
{"price":195000,"dateOfTransfer":"1995-08-04T00:00:00","postcodeFull":"SW7 4NS","propertyType":"Flat/Maisonette/Townhouse","oldOrNew":"Established","duration":"Leasehold","paon":"4","saon":"","street":"ROSARY GARDENS","locality":"LONDON","townOrCity":"LONDON","district":"KENSINGTON AND CHELSEA","county":"GREATER LONDON","ppdCategoryType":"Standard","recordStatus":"Addition","latitude":51.491655,"longitude":-0.182216,"postcodeStart":"SW7 4","postcode":["SW7","4NS"]}
{"price":314000,"dateOfTransfer":"1995-06-23T00:00:00","postcodeFull":"SW7 4ND","propertyType":"Flat/Maisonette/Townhouse","oldOrNew":"Established","duration":"Leasehold","paon":"14","saon":"FLAT 6","street":"WETHERBY PLACE","locality":"LONDON","townOrCity":"LONDON","district":"KENSINGTON AND CHELSEA","county":"GREATER LONDON","ppdCategoryType":"Standard","recordStatus":"Addition","latitude":51.492691,"longitude":-0.182895,"postcodeStart":"SW7 4","postcode":["SW7","4ND"]}
{"price":220000,"dateOfTransfer":"1995-04-28T00:00:00","postcodeFull":"SW7 4RZ","propertyType":"Terraced","oldOrNew":"Established","duration":"Freehold","paon":"9","saon":"","street":"CORNWALL MEWS SOUTH","locality":"LONDON","townOrCity":"LONDON","district":"KENSINGTON AND CHELSEA","county":"GREATER LONDON","ppdCategoryType":"Standard","recordStatus":"Addition","latitude":51.496168,"longitude":-0.184457,"postcodeStart":"SW7 4","postcode":["SW7","4RZ"]}
{"price":865000,"dateOfTransfer":"1995-03-17T00:00:00","postcodeFull":"SW7 4SB","propertyType":"Terraced","oldOrNew":"Established","duration":"Freehold","paon":"9","saon":"FLAT A-E","street":"SOUTHWELL GARDENS","locality":"","townOrCity":"LONDON","district":"KENSINGTON AND CHELSEA","county":"GREATER LONDON","ppdCategoryType":"Standard","recordStatus":"Addition","latitude":51.496113,"longitude":-0.184276,"postcodeStart":"SW7 4","postcode":["SW7","4SB"]}
{"price":139000,"dateOfTransfer":"1995-02-14T00:00:00","postcodeFull":"SW7 4AA","propertyType":"Flat/Maisonette/Townhouse","oldOrNew":"Established","duration":"Leasehold","paon":"43","saon":"PART OF","street":"PART OF","locality":"TALBOT ROAD","townOrCity":"LONDON","district":"KENSINGTON AND CHELSEA","county":"GREATER LONDON","ppdCategoryType":"Standard","recordStatus":"Addition","latitude":51.497303,"longitude":-0.187466,"postcodeStart":"SW7 4","postcode":["SW7","4AA"]}
{"price":840000,"dateOfTransfer":"1995-11-10T00:00:00","postcodeFull":"SW7 4QF","propertyType":"Flat/Maisonette/Townhouse","oldOrNew":"Established","duration":"Leasehold","paon":"CRANLEY MANSIONS, 160","saon":"FLAT 2","street":"GLOUCESTER ROAD","locality":"LONDON","townOrCity":"LONDON","district":"KENSINGTON AND CHELSEA","county":"GREATER LONDON","ppdCategoryType":"Standard","recordStatus":"Addition","latitude":51.491386,"longitude":-0.180527,"postcodeStart":"SW7 4","postcode":["SW7","4QF"]}
{"price":185000,"dateOfTransfer":"1995-08-25T00:00:00","postcodeFull":"SW7 4AA","propertyType":"Flat/Maisonette/Townhouse","oldOrNew":"Established","duration":"Leasehold","paon":"38","saon":"FLAT 1","street":"CORNWALL GARDENS","locality":"LONDON","townOrCity":"LONDON","district":"KENSINGTON AND CHELSEA","county":"GREATER LONDON","ppdCategoryType":"Standard","recordStatus":"Addition","latitude":51.497303,"longitude":-0.187466,"postcodeStart":"SW7 4","postcode":["SW7","4AA"]}
{"price":223000,"dateOfTransfer":"1995-10-20T00:00:00","postcodeFull":"SW7 4JZ","propertyType":"Flat/Maisonette/Townhouse","oldOrNew":"Established","duration":"Leasehold","paon":"67","saon":"FLAT A-J","street":"HARRINGTON GARDENS","locality":"","townOrCity":"LONDON","district":"KENSINGTON AND CHELSEA","county":"GREATER LONDON","ppdCategoryType":"Standard","recordStatus":"Addition","latitude":51.492242,"longitude":-0.186413,"postcodeStart":"SW7 4","postcode":["SW7","4JZ"]}
{"price":82500,"dateOfTransfer":"1995-11-13T00:00:00","postcodeFull":"SW7 4DA","propertyType":"Flat/Maisonette/Townhouse","oldOrNew":"Established","duration":"Leasehold","paon":"29 - 31","saon":"FLAT 20","street":"COURTFIELD ROAD","locality":"","townOrCity":"LONDON","district":"KENSINGTON AND CHELSEA","county":"GREATER LONDON","ppdCategoryType":"Standard","recordStatus":"Addition","latitude":51.493404,"longitude":-0.18484,"postcodeStart":"SW7 4","postcode":["SW7","4DA"]}
{"price":123500,"dateOfTransfer":"1995-10-06T00:00:00","postcodeFull":"SW7 4JZ","propertyType":"Flat/Maisonette/Townhouse","oldOrNew":"Established","duration":"Leasehold","paon":"57","saon":"FLAT 1","street":"HARRINGTON GARDENS","locality":"LONDON","townOrCity":"LONDON","district":"KENSINGTON AND CHELSEA","county":"GREATER LONDON","ppdCategoryType":"Standard","recordStatus":"Addition","latitude":51.492242,"longitude":-0.186413,"postcodeStart":"SW7 4","postcode":["SW7","4JZ"]}
{"price":95000,"dateOfTransfer":"1995-09-25T00:00:00","postcodeFull":"SW7 4BQ","propertyType":"Flat/Maisonette/Townhouse","oldOrNew":"Established","duration":"Leasehold","paon":"96","saon":"GROUND FLOOR FLAT B","street":"CORNWALL GARDENS","locality":"LONDON","townOrCity":"LONDON","district":"KENSINGTON AND CHELSEA","county":"GREATER LONDON","ppdCategoryType":"Standard","recordStatus":"Addition","latitude":51.496878,"longitude":-0.188477,"postcodeStart":"SW7 4","postcode":["SW7","4BQ"]}
{"price":175000,"dateOfTransfer":"1995-08-07T00:00:00","postcodeFull":"SW7 4NQ","propertyType":"Flat/Maisonette/Townhouse","oldOrNew":"Established","duration":"Leasehold","paon":"37","saon":"FLAT 2","street":"ROSARY GARDENS","locality":"LONDON","townOrCity":"LONDON","district":"KENSINGTON AND CHELSEA","county":"GREATER LONDON","ppdCategoryType":"Standard","recordStatus":"Addition","latitude":51.4921,"longitude":-0.183048,"postcodeStart":"SW7 4","postcode":["SW7","4NQ"]}
{"price":190000,"dateOfTransfer":"1995-03-16T00:00:00","postcodeFull":"SW7 4DB","propertyType":"Flat/Maisonette/Townhouse","oldOrNew":"Established","duration":"Leasehold","paon":"41 - 43","saon":"FLAT 8","street":"COURTFIELD ROAD","locality":"LONDON","townOrCity":"LONDON","district":"KENSINGTON AND CHELSEA","county":"GREATER LONDON","ppdCategoryType":"Standard","recordStatus":"Addition","latitude":51.493238,"longitude":-0.18563,"postcodeStart":"SW7 4","postcode":["SW7","4DB"]}
{"price":99000,"dateOfTransfer":"1995-06-22T00:00:00","postcodeFull":"SW7 4AL","propertyType":"Flat/Maisonette/Townhouse","oldOrNew":"Established","duration":"Leasehold","paon":"6","saon":"FLAT 6","street":"CORNWALL GARDENS","locality":"LONDON","townOrCity":"LONDON","district":"KENSINGTON AND CHELSEA","county":"GREATER LONDON","ppdCategoryType":"Standard","recordStatus":"Addition","latitude":51.497172,"longitude":-0.184177,"postcodeStart":"SW7 4","postcode":["SW7","4AL"]}
{"price":375000,"dateOfTransfer":"1995-07-10T00:00:00","postcodeFull":"SW7 4BA","propertyType":"Flat/Maisonette/Townhouse","oldOrNew":"Established","duration":"Leasehold","paon":"71C","saon":"","street":"CORNWALL GARDENS","locality":"LONDON","townOrCity":"LONDON","district":"KENSINGTON AND CHELSEA","county":"GREATER LONDON","ppdCategoryType":"Standard","recordStatus":"Addition","latitude":51.496454,"longitude":-0.186304,"postcodeStart":"SW7 4","postcode":["SW7","4BA"]}
{"price":390000,"dateOfTransfer":"1995-10-20T00:00:00","postcodeFull":"SW7 4LT","propertyType":"Flat/Maisonette/Townhouse","oldOrNew":"Established","duration":"Leasehold","paon":"36B","saon":"","street":"HARRINGTON GARDENS","locality":"LONDON","townOrCity":"LONDON","district":"KENSINGTON AND CHELSEA","county":"GREATER LONDON","ppdCategoryType":"Standard","recordStatus":"Addition","latitude":51.492692,"longitude":-0.186482,"postcodeStart":"SW7 4","postcode":["SW7","4LT"]}
{"price":314250,"dateOfTransfer":"1995-03-08T00:00:00","postcodeFull":"SW7 4ND","propertyType":"Flat/Maisonette/Townhouse","oldOrNew":"Established","duration":"Leasehold","paon":"4","saon":"FLAT 6","street":"WETHERBY PLACE","locality":"LONDON","townOrCity":"LONDON","district":"KENSINGTON AND CHELSEA","county":"GREATER LONDON","ppdCategoryType":"Standard","recordStatus":"Addition","latitude":51.492691,"longitude":-0.182895,"postcodeStart":"SW7 4","postcode":["SW7","4ND"]}
{"price":238000,"dateOfTransfer":"1995-01-18T00:00:00","postcodeFull":"SW7 4AB","propertyType":"Flat/Maisonette/Townhouse","oldOrNew":"Established","duration":"Leasehold","paon":"STANFORD COURT, 45","saon":"FLAT 22","street":"CORNWALL GARDENS","locality":"LONDON","townOrCity":"LONDON","district":"KENSINGTON AND CHELSEA","county":"GREATER LONDON","ppdCategoryType":"Standard","recordStatus":"Addition","latitude":51.497221,"longitude":-0.188031,"postcodeStart":"SW7 4","postcode":["SW7","4AB"]}
{"price":205000,"dateOfTransfer":"1995-04-07T00:00:00","postcodeFull":"SW7 4HH","propertyType":"Flat/Maisonette/Townhouse","oldOrNew":"Established","duration":"Leasehold","paon":"4","saon":"FLAT D","street":"EMPERORS GATE","locality":"LONDON","townOrCity":"LONDON","district":"KENSINGTON AND CHELSEA","county":"GREATER LONDON","ppdCategoryType":"Standard","recordStatus":"Addition","latitude":51.4958,"longitude":-0.185638,"postcodeStart":"SW7 4","postcode":["SW7","4HH"]}
{"price":175000,"dateOfTransfer":"1995-05-19T00:00:00","postcodeFull":"SW7 4AA","propertyType":"Flat/Maisonette/Townhouse","oldOrNew":"Established","duration":"Leasehold","paon":"43","saon":"PART OF","street":"PART OF","locality":"TALBOT ROAD","townOrCity":"LONDON","district":"KENSINGTON AND CHELSEA","county":"GREATER LONDON","ppdCategoryType":"Standard","recordStatus":"Addition","latitude":51.497303,"longitude":-0.187466,"postcodeStart":"SW7 4","postcode":["SW7","4AA"]}
{"price":359000,"dateOfTransfer":"1995-06-15T00:00:00","postcodeFull":"SW7 4AZ","propertyType":"Flat/Maisonette/Townhouse","oldOrNew":"Established","duration":"Leasehold","paon":"77","saon":"FLAT 3","street":"CORNWALL GARDENS","locality":"LONDON","townOrCity":"LONDON","district":"KENSINGTON AND CHELSEA","county":"GREATER LONDON","ppdCategoryType":"Standard","recordStatus":"Addition","latitude":51.496374,"longitude":-0.185544,"postcodeStart":"SW7 4","postcode":["SW7","4AZ"]}
{"price":279000,"dateOfTransfer":"1995-04-25T00:00:00","postcodeFull":"SW7 4AW","propertyType":"Flat/Maisonette/Townhouse","oldOrNew":"Established","duration":"Leasehold","paon":"27","saon":"FLAT 3","street":"CORNWALL GARDENS","locality":"LONDON","townOrCity":"LONDON","district":"KENSINGTON AND CHELSEA","county":"GREATER LONDON","ppdCategoryType":"Standard","recordStatus":"Addition","latitude":51.497257,"longitude":-0.185681,"postcodeStart":"SW7 4","postcode":["SW7","4AW"]}
{"price":86500,"dateOfTransfer":"1995-12-05T00:00:00","postcodeFull":"SW7 4QN","propertyType":"Flat/Maisonette/Townhouse","oldOrNew":"Established","duration":"Leasehold","paon":"55","saon":"FLAT 1","street":"","locality":"MOSS HALL GROVE","townOrCity":"LONDON","district":"KENSINGTON AND CHELSEA","county":"GREATER LONDON","ppdCategoryType":"Standard","recordStatus":"Addition","latitude":51.496966,"longitude":-0.183114,"postcodeStart":"SW7 4","postcode":["SW7","4QN"]}
{"price":90000,"dateOfTransfer":"1995-05-11T00:00:00","postcodeFull":"SW7 4AN","propertyType":"Flat/Maisonette/Townhouse","oldOrNew":"Established","duration":"Leasehold","paon":"15 - 16","saon":"FLAT 10","street":"CORNWALL GARDENS","locality":"LONDON","townOrCity":"LONDON","district":"KENSINGTON AND CHELSEA","county":"GREATER LONDON","ppdCategoryType":"Standard","recordStatus":"Addition","latitude":51.497266,"longitude":-0.184717,"postcodeStart":"SW7 4","postcode":["SW7","4AN"]}
{"price":130500,"dateOfTransfer":"1995-09-29T00:00:00","postcodeFull":"SW7 4SS","propertyType":"Flat/Maisonette/Townhouse","oldOrNew":"Established","duration":"Leasehold","paon":"105","saon":"FLAT C","street":"GLOUCESTER ROAD","locality":"LONDON","townOrCity":"LONDON","district":"KENSINGTON AND CHELSEA","county":"GREATER LONDON","ppdCategoryType":"Standard","recordStatus":"Addition","latitude":51.494235,"longitude":-0.182128,"postcodeStart":"SW7 4","postcode":["SW7","4SS"]}
{"price":176000,"dateOfTransfer":"1995-06-28T00:00:00","postcodeFull":"SW7 4AA","propertyType":"Flat/Maisonette/Townhouse","oldOrNew":"Established","duration":"Leasehold","paon":"43","saon":"FLAT 5","street":"CORNWALL GARDENS","locality":"LONDON","townOrCity":"LONDON","district":"KENSINGTON AND CHELSEA","county":"GREATER LONDON","ppdCategoryType":"Standard","recordStatus":"Addition","latitude":51.497303,"longitude":-0.187466,"postcodeStart":"SW7 4","postcode":["SW7","4AA"]}
{"price":167500,"dateOfTransfer":"1995-02-07T00:00:00","postcodeFull":"SW7 4AL","propertyType":"Flat/Maisonette/Townhouse","oldOrNew":"Established","duration":"Leasehold","paon":"11","saon":"FLAT D","street":"CORNWALL GARDENS","locality":"LONDON","townOrCity":"LONDON","district":"KENSINGTON AND CHELSEA","county":"GREATER LONDON","ppdCategoryType":"Standard","recordStatus":"Addition","latitude":51.497172,"longitude":-0.184177,"postcodeStart":"SW7 4","postcode":["SW7","4AL"]}
{"price":290000,"dateOfTransfer":"1995-07-07T00:00:00","postcodeFull":"SW7 4SB","propertyType":"Flat/Maisonette/Townhouse","oldOrNew":"Established","duration":"Leasehold","paon":"2","saon":"FLAT 7","street":"SOUTHWELL GARDENS","locality":"LONDON","townOrCity":"LONDON","district":"KENSINGTON AND CHELSEA","county":"GREATER LONDON","ppdCategoryType":"Standard","recordStatus":"Addition","latitude":51.496113,"longitude":-0.184276,"postcodeStart":"SW7 4","postcode":["SW7","4SB"]}
{"price":135000,"dateOfTransfer":"1995-12-18T00:00:00","postcodeFull":"SW7 4RW","propertyType":"Flat/Maisonette/Townhouse","oldOrNew":"Established","duration":"Leasehold","paon":"10","saon":"FLAT 1","street":"","locality":"TALBOT ROAD","townOrCity":"LONDON","district":"KENSINGTON AND CHELSEA","county":"GREATER LONDON","ppdCategoryType":"Standard","recordStatus":"Addition","latitude":51.495318,"longitude":-0.184721,"postcodeStart":"SW7 4","postcode":["SW7","4RW"]}
{"price":136000,"dateOfTransfer":"1995-12-12T00:00:00","postcodeFull":"SW7 4DA","propertyType":"Flat/Maisonette/Townhouse","oldOrNew":"Established","duration":"Leasehold","paon":"15","saon":"FLAT 2","street":"COURTFIELD ROAD","locality":"LONDON","townOrCity":"LONDON","district":"KENSINGTON AND CHELSEA","county":"GREATER LONDON","ppdCategoryType":"Standard","recordStatus":"Addition","latitude":51.493404,"longitude":-0.18484,"postcodeStart":"SW7 4","postcode":["SW7","4DA"]}
{"price":157200,"dateOfTransfer":"1995-02-28T00:00:00","postcodeFull":"SW7 4TE","propertyType":"Flat/Maisonette/Townhouse","oldOrNew":"Established","duration":"Leasehold","paon":"123","saon":"FLAT E/F","street":"GLOUCESTER ROAD","locality":"LONDON","townOrCity":"LONDON","district":"KENSINGTON AND CHELSEA","county":"GREATER LONDON","ppdCategoryType":"Standard","recordStatus":"Addition","latitude":51.493081,"longitude":-0.181381,"postcodeStart":"SW7 4","postcode":["SW7","4TE"]}
{"price":200000,"dateOfTransfer":"1995-08-04T00:00:00","postcodeFull":"SW7 4JZ","propertyType":"Flat/Maisonette/Townhouse","oldOrNew":"Established","duration":"Leasehold","paon":"55D","saon":"","street":"HARRINGTON GARDENS","locality":"LONDON","townOrCity":"LONDON","district":"KENSINGTON AND CHELSEA","county":"GREATER LONDON","ppdCategoryType":"Standard","recordStatus":"Addition","latitude":51.492242,"longitude":-0.186413,"postcodeStart":"SW7 4","postcode":["SW7","4JZ"]}
{"price":145000,"dateOfTransfer":"1995-12-22T00:00:00","postcodeFull":"SW7 4AN","propertyType":"Flat/Maisonette/Townhouse","oldOrNew":"Established","duration":"Leasehold","paon":"15 - 16","saon":"FLAT 18","street":"CORNWALL GARDENS","locality":"LONDON","townOrCity":"LONDON","district":"KENSINGTON AND CHELSEA","county":"GREATER LONDON","ppdCategoryType":"Standard","recordStatus":"Addition","latitude":51.497266,"longitude":-0.184717,"postcodeStart":"SW7 4","postcode":["SW7","4AN"]}
{"price":155000,"dateOfTransfer":"1995-12-08T00:00:00","postcodeFull":"SW7 4DB","propertyType":"Flat/Maisonette/Townhouse","oldOrNew":"Established","duration":"Leasehold","paon":"33 - 35","saon":"FLAT 12","street":"COURTFIELD ROAD","locality":"LONDON","townOrCity":"LONDON","district":"KENSINGTON AND CHELSEA","county":"GREATER LONDON","ppdCategoryType":"Standard","recordStatus":"Addition","latitude":51.493238,"longitude":-0.18563,"postcodeStart":"SW7 4","postcode":["SW7","4DB"]}
{"price":184000,"dateOfTransfer":"1995-08-31T00:00:00","postcodeFull":"SW7 4QA","propertyType":"Flat/Maisonette/Townhouse","oldOrNew":"Established","duration":"Leasehold","paon":"12","saon":"FLAT 4","street":"BRECHIN PLACE","locality":"LONDON","townOrCity":"LONDON","district":"KENSINGTON AND CHELSEA","county":"GREATER LONDON","ppdCategoryType":"Standard","recordStatus":"Addition","latitude":51.4915,"longitude":-0.181473,"postcodeStart":"SW7 4","postcode":["SW7","4QA"]}
{"price":155000,"dateOfTransfer":"1995-01-06T00:00:00","postcodeFull":"SW7 4LT","propertyType":"Flat/Maisonette/Townhouse","oldOrNew":"Established","duration":"Leasehold","paon":"46","saon":"FLAT 6","street":"HARRINGTON GARDENS","locality":"LONDON","townOrCity":"LONDON","district":"KENSINGTON AND CHELSEA","county":"GREATER LONDON","ppdCategoryType":"Standard","recordStatus":"Addition","latitude":51.492692,"longitude":-0.186482,"postcodeStart":"SW7 4","postcode":["SW7","4LT"]}
{"price":345000,"dateOfTransfer":"1995-12-20T00:00:00","postcodeFull":"SW7 4AN","propertyType":"Flat/Maisonette/Townhouse","oldOrNew":"Established","duration":"Leasehold","paon":"13","saon":"FLAT 5","street":"CORNWALL GARDENS","locality":"LONDON","townOrCity":"LONDON","district":"KENSINGTON AND CHELSEA","county":"GREATER LONDON","ppdCategoryType":"Standard","recordStatus":"Addition","latitude":51.497266,"longitude":-0.184717,"postcodeStart":"SW7 4","postcode":["SW7","4AN"]}
{"price":158500,"dateOfTransfer":"1995-06-02T00:00:00","postcodeFull":"SW7 4BE","propertyType":"Flat/Maisonette/Townhouse","oldOrNew":"Established","duration":"Leasehold","paon":"60","saon":"FLAT 6","street":"CORNWALL GARDENS","locality":"LONDON","townOrCity":"LONDON","district":"KENSINGTON AND CHELSEA","county":"GREATER LONDON","ppdCategoryType":"Standard","recordStatus":"Addition","latitude":51.496574,"longitude":-0.18748,"postcodeStart":"SW7 4","postcode":["SW7","4BE"]}
{"price":212000,"dateOfTransfer":"1995-06-01T00:00:00","postcodeFull":"SW7 4JU","propertyType":"Flat/Maisonette/Townhouse","oldOrNew":"Established","duration":"Leasehold","paon":"47D","saon":"","street":"HARRINGTON GARDENS","locality":"LONDON","townOrCity":"LONDON","district":"KENSINGTON AND CHELSEA","county":"GREATER LONDON","ppdCategoryType":"Standard","recordStatus":"Addition","latitude":51.492547,"longitude":-0.185249,"postcodeStart":"SW7 4","postcode":["SW7","4JU"]}
{"price":75000,"dateOfTransfer":"1995-04-25T00:00:00","postcodeFull":"SW7 4BQ","propertyType":"Flat/Maisonette/Townhouse","oldOrNew":"Established","duration":"Leasehold","paon":"96","saon":"FLAT A","street":"CORNWALL GARDENS","locality":"","townOrCity":"LONDON","district":"KENSINGTON AND CHELSEA","county":"GREATER LONDON","ppdCategoryType":"Standard","recordStatus":"Addition","latitude":51.496878,"longitude":-0.188477,"postcodeStart":"SW7 4","postcode":["SW7","4BQ"]}
{"price":44500,"dateOfTransfer":"1995-09-07T00:00:00","postcodeFull":"SW7 4NJ","propertyType":"Flat/Maisonette/Townhouse","oldOrNew":"Established","duration":"Leasehold","paon":"19","saon":"FLAT 3","street":"ROSARY GARDENS","locality":"","townOrCity":"LONDON","district":"KENSINGTON AND CHELSEA","county":"GREATER LONDON","ppdCategoryType":"Standard","recordStatus":"Addition","latitude":51.491563,"longitude":-0.182681,"postcodeStart":"SW7 4","postcode":["SW7","4NJ"]}
{"price":57000,"dateOfTransfer":"1995-03-31T00:00:00","postcodeFull":"SW7 4SP","propertyType":"Flat/Maisonette/Townhouse","oldOrNew":"Established","duration":"Leasehold","paon":"118","saon":"FLAT 2","street":"GLOUCESTER ROAD","locality":"","townOrCity":"LONDON","district":"KENSINGTON AND CHELSEA","county":"GREATER LONDON","ppdCategoryType":"Standard","recordStatus":"Addition","latitude":51.495213,"longitude":-0.18318,"postcodeStart":"SW7 4","postcode":["SW7","4SP"]}
{"price":170000,"dateOfTransfer":"1995-08-01T00:00:00","postcodeFull":"SW7 4DB","propertyType":"Flat/Maisonette/Townhouse","oldOrNew":"Established","duration":"Leasehold","paon":"33 - 35","saon":"FLAT 8","street":"COURTFIELD ROAD","locality":"LONDON","townOrCity":"LONDON","district":"KENSINGTON AND CHELSEA","county":"GREATER LONDON","ppdCategoryType":"Standard","recordStatus":"Addition","latitude":51.493238,"longitude":-0.18563,"postcodeStart":"SW7 4","postcode":["SW7","4DB"]}
{"price":335000,"dateOfTransfer":"1995-08-25T00:00:00","postcodeFull":"SW7 4BQ","propertyType":"Flat/Maisonette/Townhouse","oldOrNew":"Established","duration":"Leasehold","paon":"LANARKSLEA HOUSE, 100","saon":"FLAT 3","street":"CORNWALL GARDENS","locality":"LONDON","townOrCity":"LONDON","district":"KENSINGTON AND CHELSEA","county":"GREATER LONDON","ppdCategoryType":"Standard","recordStatus":"Addition","latitude":51.496878,"longitude":-0.188477,"postcodeStart":"SW7 4","postcode":["SW7","4BQ"]}
{"price":249000,"dateOfTransfer":"1995-08-11T00:00:00","postcodeFull":"SW7 4AJ","propertyType":"Flat/Maisonette/Townhouse","oldOrNew":"Established","duration":"Leasehold","paon":"1 - 3","saon":"FLAT 21","street":"CORNWALL GARDENS","locality":"","townOrCity":"LONDON","district":"KENSINGTON AND CHELSEA","county":"GREATER LONDON","ppdCategoryType":"Standard","recordStatus":"Addition","latitude":51.496818,"longitude":-0.184013,"postcodeStart":"SW7 4","postcode":["SW7","4AJ"]}
{"price":133333,"dateOfTransfer":"1995-09-15T00:00:00","postcodeFull":"SW7 4QR","propertyType":"Terraced","oldOrNew":"Established","duration":"Freehold","paon":"23","saon":"","street":"KYNANCE MEWS","locality":"LONDON","townOrCity":"LONDON","district":"KENSINGTON AND CHELSEA","county":"GREATER LONDON","ppdCategoryType":"Standard","recordStatus":"Addition","latitude":51.497345,"longitude":-0.186139,"postcodeStart":"SW7 4","postcode":["SW7","4QR"]}
{"price":275000,"dateOfTransfer":"1995-05-04T00:00:00","postcodeFull":"SW7 4NJ","propertyType":"Flat/Maisonette/Townhouse","oldOrNew":"Established","duration":"Leasehold","paon":"17","saon":"FLAT 3","street":"ROSARY GARDENS","locality":"LONDON","townOrCity":"LONDON","district":"KENSINGTON AND CHELSEA","county":"GREATER LONDON","ppdCategoryType":"Standard","recordStatus":"Addition","latitude":51.491563,"longitude":-0.182681,"postcodeStart":"SW7 4","postcode":["SW7","4NJ"]}
{"price":450000,"dateOfTransfer":"1995-03-01T00:00:00","postcodeFull":"SW7 4QA","propertyType":"Terraced","oldOrNew":"Established","duration":"Leasehold","paon":"4","saon":"","street":"BRECHIN PLACE","locality":"LONDON","townOrCity":"LONDON","district":"KENSINGTON AND CHELSEA","county":"GREATER LONDON","ppdCategoryType":"Standard","recordStatus":"Addition","latitude":51.4915,"longitude":-0.181473,"postcodeStart":"SW7 4","postcode":["SW7","4QA"]}
{"price":56000,"dateOfTransfer":"1995-02-02T00:00:00","postcodeFull":"SW7 4HH","propertyType":"Flat/Maisonette/Townhouse","oldOrNew":"Established","duration":"Leasehold","paon":"7A","saon":"FLAT 5","street":"EMPERORS GATE","locality":"","townOrCity":"LONDON","district":"KENSINGTON AND CHELSEA","county":"GREATER LONDON","ppdCategoryType":"Standard","recordStatus":"Addition","latitude":51.4958,"longitude":-0.185638,"postcodeStart":"SW7 4","postcode":["SW7","4HH"]}
{"price":155000,"dateOfTransfer":"1995-12-28T00:00:00","postcodeFull":"SW7 4AD","propertyType":"Flat/Maisonette/Townhouse","oldOrNew":"Established","duration":"Leasehold","paon":"CORNWALL GARDENS COURT, 47 - 50","saon":"FLAT 11","street":"CORNWALL GARDENS","locality":"LONDON","townOrCity":"LONDON","district":"KENSINGTON AND CHELSEA","county":"GREATER LONDON","ppdCategoryType":"Standard","recordStatus":"Addition","latitude":51.497249,"longitude":-0.188664,"postcodeStart":"SW7 4","postcode":["SW7","4AD"]}
{"price":345000,"dateOfTransfer":"1995-01-27T00:00:00","postcodeFull":"SW7 4DA","propertyType":"Flat/Maisonette/Townhouse","oldOrNew":"Established","duration":"Leasehold","paon":"17 - 19","saon":"FLAT 16","street":"COURTFIELD ROAD","locality":"LONDON","townOrCity":"LONDON","district":"KENSINGTON AND CHELSEA","county":"GREATER LONDON","ppdCategoryType":"Standard","recordStatus":"Addition","latitude":51.493404,"longitude":-0.18484,"postcodeStart":"SW7 4","postcode":["SW7","4DA"]}
{"price":145000,"dateOfTransfer":"1995-04-06T00:00:00","postcodeFull":"SW7 4BE","propertyType":"Flat/Maisonette/Townhouse","oldOrNew":"Established","duration":"Leasehold","paon":"57","saon":"FLAT 3","street":"CORNWALL GARDENS","locality":"LONDON","townOrCity":"LONDON","district":"KENSINGTON AND CHELSEA","county":"GREATER LONDON","ppdCategoryType":"Standard","recordStatus":"Addition","latitude":51.496574,"longitude":-0.18748,"postcodeStart":"SW7 4","postcode":["SW7","4BE"]}
{"price":267000,"dateOfTransfer":"1995-07-03T00:00:00","postcodeFull":"SW7 4HJ","propertyType":"Flat/Maisonette/Townhouse","oldOrNew":"Established","duration":"Leasehold","paon":"44","saon":"FLAT 3","street":"EMPERORS GATE","locality":"LONDON","townOrCity":"LONDON","district":"KENSINGTON AND CHELSEA","county":"GREATER LONDON","ppdCategoryType":"Standard","recordStatus":"Addition","latitude":51.496305,"longitude":-0.186324,"postcodeStart":"SW7 4","postcode":["SW7","4HJ"]}
{"price":110000,"dateOfTransfer":"1995-08-31T00:00:00","postcodeFull":"SW7 4QA","propertyType":"Flat/Maisonette/Townhouse","oldOrNew":"Established","duration":"Leasehold","paon":"28","saon":"FLAT 3","street":"BRECHIN PLACE","locality":"LONDON","townOrCity":"LONDON","district":"KENSINGTON AND CHELSEA","county":"GREATER LONDON","ppdCategoryType":"Standard","recordStatus":"Addition","latitude":51.4915,"longitude":-0.181473,"postcodeStart":"SW7 4","postcode":["SW7","4QA"]}
{"price":40000,"dateOfTransfer":"1995-10-05T00:00:00","postcodeFull":"SW7 4LT","propertyType":"Flat/Maisonette/Townhouse","oldOrNew":"Established","duration":"Leasehold","paon":"36B","saon":"","street":"HARRINGTON GARDENS","locality":"","townOrCity":"LONDON","district":"KENSINGTON AND CHELSEA","county":"GREATER LONDON","ppdCategoryType":"Standard","recordStatus":"Addition","latitude":51.492692,"longitude":-0.186482,"postcodeStart":"SW7 4","postcode":["SW7","4LT"]}
{"price":143500,"dateOfTransfer":"1995-01-16T00:00:00","postcodeFull":"SW7 4RL","propertyType":"Flat/Maisonette/Townhouse","oldOrNew":"Established","duration":"Leasehold","paon":"12","saon":"FLAT 1","street":"SOUTHWELL GARDENS","locality":"LONDON","townOrCity":"LONDON","district":"KENSINGTON AND CHELSEA","county":"GREATER LONDON","ppdCategoryType":"Standard","recordStatus":"Addition","latitude":51.495586,"longitude":-0.184624,"postcodeStart":"SW7 4","postcode":["SW7","4RL"]}
{"price":285000,"dateOfTransfer":"1995-06-20T00:00:00","postcodeFull":"SW7 4AZ","propertyType":"Flat/Maisonette/Townhouse","oldOrNew":"Established","duration":"Leasehold","paon":"79","saon":"THIRD AND FOURTH FLOOR FLAT","street":"CORNWALL GARDENS","locality":"","townOrCity":"LONDON","district":"KENSINGTON AND CHELSEA","county":"GREATER LONDON","ppdCategoryType":"Standard","recordStatus":"Addition","latitude":51.496374,"longitude":-0.185544,"postcodeStart":"SW7 4","postcode":["SW7","4AZ"]}
{"price":175000,"dateOfTransfer":"1995-12-21T00:00:00","postcodeFull":"SW7 4AP","propertyType":"Flat/Maisonette/Townhouse","oldOrNew":"Established","duration":"Leasehold","paon":"32A","saon":"","street":"CORNWALL GARDENS","locality":"","townOrCity":"LONDON","district":"KENSINGTON AND CHELSEA","county":"GREATER LONDON","ppdCategoryType":"Standard","recordStatus":"Addition","latitude":51.49729,"longitude":-0.186645,"postcodeStart":"SW7 4","postcode":["SW7","4AP"]}
{"price":95000,"dateOfTransfer":"1995-12-01T00:00:00","postcodeFull":"SW7 4JU","propertyType":"Flat/Maisonette/Townhouse","oldOrNew":"Established","duration":"Leasehold","paon":"51A","saon":"BASEMENT","street":"HARRINGTON GARDENS","locality":"","townOrCity":"LONDON","district":"KENSINGTON AND CHELSEA","county":"GREATER LONDON","ppdCategoryType":"Standard","recordStatus":"Addition","latitude":51.492547,"longitude":-0.185249,"postcodeStart":"SW7 4","postcode":["SW7","4JU"]}
{"price":188000,"dateOfTransfer":"1995-03-31T00:00:00","postcodeFull":"SW7 4ND","propertyType":"Flat/Maisonette/Townhouse","oldOrNew":"Established","duration":"Leasehold","paon":"16","saon":"A","street":"WETHERBY PLACE","locality":"LONDON","townOrCity":"LONDON","district":"KENSINGTON AND CHELSEA","county":"GREATER LONDON","ppdCategoryType":"Standard","recordStatus":"Addition","latitude":51.492691,"longitude":-0.182895,"postcodeStart":"SW7 4","postcode":["SW7","4ND"]}
{"price":185000,"dateOfTransfer":"1995-04-28T00:00:00","postcodeFull":"SW7 4HH","propertyType":"Flat/Maisonette/Townhouse","oldOrNew":"Established","duration":"Leasehold","paon":"4","saon":"FLAT E","street":"EMPERORS GATE","locality":"LONDON","townOrCity":"LONDON","district":"KENSINGTON AND CHELSEA","county":"GREATER LONDON","ppdCategoryType":"Standard","recordStatus":"Addition","latitude":51.4958,"longitude":-0.185638,"postcodeStart":"SW7 4","postcode":["SW7","4HH"]}
{"price":124000,"dateOfTransfer":"1995-01-11T00:00:00","postcodeFull":"SW7 4RP","propertyType":"Flat/Maisonette/Townhouse","oldOrNew":"Established","duration":"Leasehold","paon":"6","saon":"","street":"ST STEPHENS WALK","locality":"LONDON","townOrCity":"LONDON","district":"KENSINGTON AND CHELSEA","county":"GREATER LONDON","ppdCategoryType":"Standard","recordStatus":"Addition","latitude":51.495577,"longitude":-0.184721,"postcodeStart":"SW7 4","postcode":["SW7","4RP"]}
{"price":173500,"dateOfTransfer":"1995-01-30T00:00:00","postcodeFull":"SW7 4HJ","propertyType":"Flat/Maisonette/Townhouse","oldOrNew":"Established","duration":"Leasehold","paon":"44","saon":"FLAT 3","street":"EMPERORS GATE","locality":"LONDON","townOrCity":"LONDON","district":"KENSINGTON AND CHELSEA","county":"GREATER LONDON","ppdCategoryType":"Standard","recordStatus":"Addition","latitude":51.496305,"longitude":-0.186324,"postcodeStart":"SW7 4","postcode":["SW7","4HJ"]}
{"price":60000,"dateOfTransfer":"1995-06-08T00:00:00","postcodeFull":"SW7 4JZ","propertyType":"Flat/Maisonette/Townhouse","oldOrNew":"Established","duration":"Leasehold","paon":"61","saon":"FLAT 2","street":"HARRINGTON GARDENS","locality":"LONDON","townOrCity":"LONDON","district":"KENSINGTON AND CHELSEA","county":"GREATER LONDON","ppdCategoryType":"Standard","recordStatus":"Addition","latitude":51.492242,"longitude":-0.186413,"postcodeStart":"SW7 4","postcode":["SW7","4JZ"]}
{"price":167997,"dateOfTransfer":"1995-05-18T00:00:00","postcodeFull":"SW7 4AW","propertyType":"Flat/Maisonette/Townhouse","oldOrNew":"Established","duration":"Leasehold","paon":"24","saon":"FLAT 3","street":"CORNWALL GARDENS","locality":"LONDON","townOrCity":"LONDON","district":"KENSINGTON AND CHELSEA","county":"GREATER LONDON","ppdCategoryType":"Standard","recordStatus":"Addition","latitude":51.497257,"longitude":-0.185681,"postcodeStart":"SW7 4","postcode":["SW7","4AW"]}
{"price":402500,"dateOfTransfer":"1995-12-01T00:00:00","postcodeFull":"SW7 4JZ","propertyType":"Flat/Maisonette/Townhouse","oldOrNew":"Established","duration":"Leasehold","paon":"69","saon":"BASEMENT AND GROUND FLOOR FLAT","street":"HARRINGTON GARDENS","locality":"LONDON","townOrCity":"LONDON","district":"KENSINGTON AND CHELSEA","county":"GREATER LONDON","ppdCategoryType":"Standard","recordStatus":"Addition","latitude":51.492242,"longitude":-0.186413,"postcodeStart":"SW7 4","postcode":["SW7","4JZ"]}
{"price":595000,"dateOfTransfer":"1995-12-04T00:00:00","postcodeFull":"SW7 4QS","propertyType":"Terraced","oldOrNew":"Established","duration":"Freehold","paon":"8","saon":"","street":"KYNANCE PLACE","locality":"LONDON","townOrCity":"LONDON","district":"KENSINGTON AND CHELSEA","county":"GREATER LONDON","ppdCategoryType":"Standard","recordStatus":"Addition","latitude":51.497627,"longitude":-0.184519,"postcodeStart":"SW7 4","postcode":["SW7","4QS"]}
{"price":87000,"dateOfTransfer":"1995-08-07T00:00:00","postcodeFull":"SW7 4HH","propertyType":"Flat/Maisonette/Townhouse","oldOrNew":"Established","duration":"Leasehold","paon":"7","saon":"FLAT 3","street":"EMPERORS GATE","locality":"LONDON","townOrCity":"LONDON","district":"KENSINGTON AND CHELSEA","county":"GREATER LONDON","ppdCategoryType":"Standard","recordStatus":"Addition","latitude":51.4958,"longitude":-0.185638,"postcodeStart":"SW7 4","postcode":["SW7","4HH"]}
{"price":320000,"dateOfTransfer":"1995-01-20T00:00:00","postcodeFull":"SW7 4AD","propertyType":"Terraced","oldOrNew":"Established","duration":"Leasehold","paon":"CORNWALL GARDENS COURT, 47 - 50","saon":"FLAT 25","street":"CORNWALL GARDENS","locality":"","townOrCity":"LONDON","district":"KENSINGTON AND CHELSEA","county":"GREATER LONDON","ppdCategoryType":"Standard","recordStatus":"Addition","latitude":51.497249,"longitude":-0.188664,"postcodeStart":"SW7 4","postcode":["SW7","4AD"]}
{"price":25000,"dateOfTransfer":"1995-03-31T00:00:00","postcodeFull":"SW7 4AP","propertyType":"Flat/Maisonette/Townhouse","oldOrNew":"Established","duration":"Leasehold","paon":"29A - 29B","saon":"","street":"CORNWALL GARDENS","locality":"","townOrCity":"LONDON","district":"KENSINGTON AND CHELSEA","county":"GREATER LONDON","ppdCategoryType":"Standard","recordStatus":"Addition","latitude":51.49729,"longitude":-0.186645,"postcodeStart":"SW7 4","postcode":["SW7","4AP"]}
{"price":200000,"dateOfTransfer":"1995-08-01T00:00:00","postcodeFull":"SW7 4LT","propertyType":"Flat/Maisonette/Townhouse","oldOrNew":"Established","duration":"Leasehold","paon":"48 - 50","saon":"FLAT 18","street":"HARRINGTON GARDENS","locality":"LONDON","townOrCity":"LONDON","district":"KENSINGTON AND CHELSEA","county":"GREATER LONDON","ppdCategoryType":"Standard","recordStatus":"Addition","latitude":51.492692,"longitude":-0.186482,"postcodeStart":"SW7 4","postcode":["SW7","4LT"]}
{"price":235000,"dateOfTransfer":"1995-10-31T00:00:00","postcodeFull":"SW7 4JZ","propertyType":"Flat/Maisonette/Townhouse","oldOrNew":"Established","duration":"Leasehold","paon":"55A","saon":"","street":"HARRINGTON GARDENS","locality":"LONDON","townOrCity":"LONDON","district":"KENSINGTON AND CHELSEA","county":"GREATER LONDON","ppdCategoryType":"Standard","recordStatus":"Addition","latitude":51.492242,"longitude":-0.186413,"postcodeStart":"SW7 4","postcode":["SW7","4JZ"]}
{"price":240000,"dateOfTransfer":"1995-11-21T00:00:00","postcodeFull":"SW7 4LT","propertyType":"Flat/Maisonette/Townhouse","oldOrNew":"Established","duration":"Leasehold","paon":"48 - 50","saon":"FLAT 18","street":"HARRINGTON GARDENS","locality":"LONDON","townOrCity":"LONDON","district":"KENSINGTON AND CHELSEA","county":"GREATER LONDON","ppdCategoryType":"Standard","recordStatus":"Addition","latitude":51.492692,"longitude":-0.186482,"postcodeStart":"SW7 4","postcode":["SW7","4LT"]}
{"price":585000,"dateOfTransfer":"1995-06-30T00:00:00","postcodeFull":"SW7 4AE","propertyType":"Flat/Maisonette/Townhouse","oldOrNew":"Established","duration":"Leasehold","paon":"CORNWALL HOUSE","saon":"FLAT 4","street":"CORNWALL GARDENS","locality":"LONDON","townOrCity":"LONDON","district":"KENSINGTON AND CHELSEA","county":"GREATER LONDON","ppdCategoryType":"Standard","recordStatus":"Addition","latitude":51.49702,"longitude":-0.187809,"postcodeStart":"SW7 4","postcode":["SW7","4AE"]}
{"price":88500,"dateOfTransfer":"1995-07-28T00:00:00","postcodeFull":"SW7 4DB","propertyType":"Flat/Maisonette/Townhouse","oldOrNew":"Established","duration":"Leasehold","paon":"41 - 43","saon":"FLAT 20","street":"COURTFIELD ROAD","locality":"LONDON","townOrCity":"LONDON","district":"KENSINGTON AND CHELSEA","county":"GREATER LONDON","ppdCategoryType":"Standard","recordStatus":"Addition","latitude":51.493238,"longitude":-0.18563,"postcodeStart":"SW7 4","postcode":["SW7","4DB"]}
{"price":375000,"dateOfTransfer":"1995-11-30T00:00:00","postcodeFull":"SW7 4BQ","propertyType":"Flat/Maisonette/Townhouse","oldOrNew":"Established","duration":"Leasehold","paon":"LANARKSLEA HOUSE, 100","saon":"FLAT 4","street":"CORNWALL GARDENS","locality":"LONDON","townOrCity":"LONDON","district":"KENSINGTON AND CHELSEA","county":"GREATER LONDON","ppdCategoryType":"Standard","recordStatus":"Addition","latitude":51.496878,"longitude":-0.188477,"postcodeStart":"SW7 4","postcode":["SW7","4BQ"]}
{"price":200000,"dateOfTransfer":"1995-03-20T00:00:00","postcodeFull":"SW7 4RZ","propertyType":"Terraced","oldOrNew":"Established","duration":"Freehold","paon":"7","saon":"","street":"CORNWALL MEWS SOUTH","locality":"LONDON","townOrCity":"LONDON","district":"KENSINGTON AND CHELSEA","county":"GREATER LONDON","ppdCategoryType":"Standard","recordStatus":"Addition","latitude":51.496168,"longitude":-0.184457,"postcodeStart":"SW7 4","postcode":["SW7","4RZ"]}
{"price":300000,"dateOfTransfer":"1995-12-21T00:00:00","postcodeFull":"SW7 4TH","propertyType":"Terraced","oldOrNew":"Established","duration":"Freehold","paon":"129A","saon":"","street":"GLOUCESTER ROAD","locality":"LONDON","townOrCity":"LONDON","district":"KENSINGTON AND CHELSEA","county":"GREATER LONDON","ppdCategoryType":"Standard","recordStatus":"Addition","latitude":51.492015,"longitude":-0.180488,"postcodeStart":"SW7 4","postcode":["SW7","4TH"]}
{"price":157000,"dateOfTransfer":"1995-01-20T00:00:00","postcodeFull":"SW7 4AX","propertyType":"Flat/Maisonette/Townhouse","oldOrNew":"Established","duration":"Leasehold","paon":"93","saon":"FLAT 2","street":"CORNWALL GARDENS","locality":"LONDON","townOrCity":"LONDON","district":"KENSINGTON AND CHELSEA","county":"GREATER LONDON","ppdCategoryType":"Standard","recordStatus":"Addition","latitude":51.496359,"longitude":-0.184031,"postcodeStart":"SW7 4","postcode":["SW7","4AX"]}
{"price":90000,"dateOfTransfer":"1995-05-19T00:00:00","postcodeFull":"SW7 4EF","propertyType":"Flat/Maisonette/Townhouse","oldOrNew":"Established","duration":"Leasehold","paon":"142D","saon":"","street":"CROMWELL ROAD","locality":"LONDON","townOrCity":"LONDON","district":"KENSINGTON AND CHELSEA","county":"GREATER LONDON","ppdCategoryType":"Standard","recordStatus":"Addition","latitude":51.49487,"longitude":-0.18804,"postcodeStart":"SW7 4","postcode":["SW7","4EF"]}
{"price":155000,"dateOfTransfer":"1995-09-20T00:00:00","postcodeFull":"SW7 4ND","propertyType":"Flat/Maisonette/Townhouse","oldOrNew":"Established","duration":"Leasehold","paon":"4","saon":"FLAT 3","street":"WETHERBY PLACE","locality":"LONDON","townOrCity":"LONDON","district":"KENSINGTON AND CHELSEA","county":"GREATER LONDON","ppdCategoryType":"Standard","recordStatus":"Addition","latitude":51.492691,"longitude":-0.182895,"postcodeStart":"SW7 4","postcode":["SW7","4ND"]}
{"price":253000,"dateOfTransfer":"1995-06-30T00:00:00","postcodeFull":"SW7 4QN","propertyType":"Flat/Maisonette/Townhouse","oldOrNew":"Established","duration":"Leasehold","paon":"51","saon":"FLAT 2","street":"GLOUCESTER ROAD","locality":"LONDON","townOrCity":"LONDON","district":"KENSINGTON AND CHELSEA","county":"GREATER LONDON","ppdCategoryType":"Standard","recordStatus":"Addition","latitude":51.496966,"longitude":-0.183114,"postcodeStart":"SW7 4","postcode":["SW7","4QN"]}
{"price":295000,"dateOfTransfer":"1995-05-22T00:00:00","postcodeFull":"SW7 4QR","propertyType":"Terraced","oldOrNew":"Established","duration":"Freehold","paon":"32","saon":"","street":"KYNANCE MEWS","locality":"LONDON","townOrCity":"LONDON","district":"KENSINGTON AND CHELSEA","county":"GREATER LONDON","ppdCategoryType":"Standard","recordStatus":"Addition","latitude":51.497345,"longitude":-0.186139,"postcodeStart":"SW7 4","postcode":["SW7","4QR"]}
{"price":360000,"dateOfTransfer":"1995-12-15T00:00:00","postcodeFull":"SW7 4TS","propertyType":"Flat/Maisonette/Townhouse","oldOrNew":"Established","duration":"Leasehold","paon":"23","saon":"FLAT 1","street":"HEREFORD SQUARE","locality":"LONDON","townOrCity":"LONDON","district":"KENSINGTON AND CHELSEA","county":"GREATER LONDON","ppdCategoryType":"Standard","recordStatus":"Addition","latitude":51.492228,"longitude":-0.182049,"postcodeStart":"SW7 4","postcode":["SW7","4TS"]}
{"price":124000,"dateOfTransfer":"1995-09-27T00:00:00","postcodeFull":"SW7 4DG","propertyType":"Flat/Maisonette/Townhouse","oldOrNew":"Established","duration":"Leasehold","paon":"13","saon":"FLAT 6","street":"ASHBURN GARDENS","locality":"LONDON","townOrCity":"LONDON","district":"KENSINGTON AND CHELSEA","county":"GREATER LONDON","ppdCategoryType":"Standard","recordStatus":"Addition","latitude":51.493879,"longitude":-0.185902,"postcodeStart":"SW7 4","postcode":["SW7","4DG"]}
{"price":310000,"dateOfTransfer":"1995-12-20T00:00:00","postcodeFull":"SW7 4DA","propertyType":"Flat/Maisonette/Townhouse","oldOrNew":"Established","duration":"Leasehold","paon":"17 - 19","saon":"FLAT 17","street":"COURTFIELD ROAD","locality":"LONDON","townOrCity":"LONDON","district":"KENSINGTON AND CHELSEA","county":"GREATER LONDON","ppdCategoryType":"Standard","recordStatus":"Addition","latitude":51.493404,"longitude":-0.18484,"postcodeStart":"SW7 4","postcode":["SW7","4DA"]}
{"price":142000,"dateOfTransfer":"1995-04-13T00:00:00","postcodeFull":"SW7 4JZ","propertyType":"Flat/Maisonette/Townhouse","oldOrNew":"Established","duration":"Leasehold","paon":"75","saon":"FLAT 1","street":"HARRINGTON GARDENS","locality":"LONDON","townOrCity":"LONDON","district":"KENSINGTON AND CHELSEA","county":"GREATER LONDON","ppdCategoryType":"Standard","recordStatus":"Addition","latitude":51.492242,"longitude":-0.186413,"postcodeStart":"SW7 4","postcode":["SW7","4JZ"]}
{"price":169500,"dateOfTransfer":"1995-05-05T00:00:00","postcodeFull":"SW7 4NS","propertyType":"Flat/Maisonette/Townhouse","oldOrNew":"Established","duration":"Leasehold","paon":"10","saon":"","street":"ROSARY GARDENS","locality":"LONDON","townOrCity":"LONDON","district":"KENSINGTON AND CHELSEA","county":"GREATER LONDON","ppdCategoryType":"Standard","recordStatus":"Addition","latitude":51.491655,"longitude":-0.182216,"postcodeStart":"SW7 4","postcode":["SW7","4NS"]}
{"price":135000,"dateOfTransfer":"1996-07-29T00:00:00","postcodeFull":"SW7 4RL","propertyType":"Flat/Maisonette/Townhouse","oldOrNew":"Established","duration":"Leasehold","paon":"14","saon":"FLAT 10","street":"SOUTHWELL GARDENS","locality":"LONDON","townOrCity":"LONDON","district":"KENSINGTON AND CHELSEA","county":"GREATER LONDON","ppdCategoryType":"Standard","recordStatus":"Addition","latitude":51.495586,"longitude":-0.184624,"postcodeStart":"SW7 4","postcode":["SW7","4RL"]}
{"price":217000,"dateOfTransfer":"1996-07-24T00:00:00","postcodeFull":"SW7 4DG","propertyType":"Flat/Maisonette/Townhouse","oldOrNew":"Established","duration":"Leasehold","paon":"14","saon":"FLAT 1","street":"ASHBURN GARDENS","locality":"LONDON","townOrCity":"LONDON","district":"KENSINGTON AND CHELSEA","county":"GREATER LONDON","ppdCategoryType":"Standard","recordStatus":"Addition","latitude":51.493879,"longitude":-0.185902,"postcodeStart":"SW7 4","postcode":["SW7","4DG"]}
{"price":197500,"dateOfTransfer":"1996-08-06T00:00:00","postcodeFull":"SW7 4DG","propertyType":"Flat/Maisonette/Townhouse","oldOrNew":"Established","duration":"Leasehold","paon":"WICKHAM COURT, 7 - 8","saon":"FLAT 15","street":"ASHBURN GARDENS","locality":"LONDON","townOrCity":"LONDON","district":"KENSINGTON AND CHELSEA","county":"GREATER LONDON","ppdCategoryType":"Standard","recordStatus":"Addition","latitude":51.493879,"longitude":-0.185902,"postcodeStart":"SW7 4","postcode":["SW7","4DG"]}
{"price":239500,"dateOfTransfer":"1996-01-15T00:00:00","postcodeFull":"SW7 4LT","propertyType":"Flat/Maisonette/Townhouse","oldOrNew":"Established","duration":"Leasehold","paon":"48 - 50","saon":"FLAT 17","street":"HARRINGTON GARDENS","locality":"LONDON","townOrCity":"LONDON","district":"KENSINGTON AND CHELSEA","county":"GREATER LONDON","ppdCategoryType":"Standard","recordStatus":"Addition","latitude":51.492692,"longitude":-0.186482,"postcodeStart":"SW7 4","postcode":["SW7","4LT"]}
{"price":325000,"dateOfTransfer":"1996-06-14T00:00:00","postcodeFull":"SW7 4LT","propertyType":"Flat/Maisonette/Townhouse","oldOrNew":"Established","duration":"Leasehold","paon":"48 - 50","saon":"FLAT 17","street":"HARRINGTON GARDENS","locality":"LONDON","townOrCity":"LONDON","district":"KENSINGTON AND CHELSEA","county":"GREATER LONDON","ppdCategoryType":"Standard","recordStatus":"Addition","latitude":51.492692,"longitude":-0.186482,"postcodeStart":"SW7 4","postcode":["SW7","4LT"]}
{"price":100000,"dateOfTransfer":"1996-06-18T00:00:00","postcodeFull":"SW7 4DA","propertyType":"Flat/Maisonette/Townhouse","oldOrNew":"Established","duration":"Leasehold","paon":"15 - 15A","saon":"FLAT 10","street":"COURTFIELD ROAD","locality":"LONDON","townOrCity":"LONDON","district":"KENSINGTON AND CHELSEA","county":"GREATER LONDON","ppdCategoryType":"Standard","recordStatus":"Addition","latitude":51.493404,"longitude":-0.18484,"postcodeStart":"SW7 4","postcode":["SW7","4DA"]}
{"price":2725000,"dateOfTransfer":"1996-08-07T00:00:00","postcodeFull":"SW7 4DG","propertyType":"Flat/Maisonette/Townhouse","oldOrNew":"Established","duration":"Freehold","paon":"MANOR COURT APARTMENTS, 1 - 2","saon":"","street":"ASHBURN GARDENS","locality":"LONDON","townOrCity":"LONDON","district":"KENSINGTON AND CHELSEA","county":"GREATER LONDON","ppdCategoryType":"Standard","recordStatus":"Addition","latitude":51.493879,"longitude":-0.185902,"postcodeStart":"SW7 4","postcode":["SW7","4DG"]}
{"price":240000,"dateOfTransfer":"1996-02-27T00:00:00","postcodeFull":"SW7 4AB","propertyType":"Flat/Maisonette/Townhouse","oldOrNew":"Established","duration":"Leasehold","paon":"STANFORD COURT, 45","saon":"FLAT 5","street":"CORNWALL GARDENS","locality":"LONDON","townOrCity":"LONDON","district":"KENSINGTON AND CHELSEA","county":"GREATER LONDON","ppdCategoryType":"Standard","recordStatus":"Addition","latitude":51.497221,"longitude":-0.188031,"postcodeStart":"SW7 4","postcode":["SW7","4AB"]}
{"price":152500,"dateOfTransfer":"1996-09-20T00:00:00","postcodeFull":"SW7 4AY","propertyType":"Flat/Maisonette/Townhouse","oldOrNew":"Established","duration":"Leasehold","paon":"84","saon":"FLAT 1-6","street":"CORNWALL GARDENS","locality":"","townOrCity":"LONDON","district":"KENSINGTON AND CHELSEA","county":"GREATER LONDON","ppdCategoryType":"Standard","recordStatus":"Addition","latitude":51.496341,"longitude":-0.184623,"postcodeStart":"SW7 4","postcode":["SW7","4AY"]}
{"price":175000,"dateOfTransfer":"1996-11-08T00:00:00","postcodeFull":"SW7 4QD","propertyType":"Flat/Maisonette/Townhouse","oldOrNew":"Established","duration":"Leasehold","paon":"25","saon":"FLAT 2","street":"BRECHIN PLACE","locality":"LONDON","townOrCity":"LONDON","district":"KENSINGTON AND CHELSEA","county":"GREATER LONDON","ppdCategoryType":"Standard","recordStatus":"Addition","latitude":51.491098,"longitude":-0.181691,"postcodeStart":"SW7 4","postcode":["SW7","4QD"]}
{"price":140000,"dateOfTransfer":"1996-11-21T00:00:00","postcodeFull":"SW7 4DB","propertyType":"Flat/Maisonette/Townhouse","oldOrNew":"Established","duration":"Leasehold","paon":"39","saon":"FLAT 4","street":"COURTFIELD ROAD","locality":"LONDON","townOrCity":"LONDON","district":"KENSINGTON AND CHELSEA","county":"GREATER LONDON","ppdCategoryType":"Standard","recordStatus":"Addition","latitude":51.493238,"longitude":-0.18563,"postcodeStart":"SW7 4","postcode":["SW7","4DB"]}
{"price":312350,"dateOfTransfer":"1996-03-01T00:00:00","postcodeFull":"SW7 4AZ","propertyType":"Flat/Maisonette/Townhouse","oldOrNew":"Established","duration":"Leasehold","paon":"78","saon":"GROUND FLOOR FLAT","street":"CORNWALL GARDENS","locality":"LONDON","townOrCity":"LONDON","district":"KENSINGTON AND CHELSEA","county":"GREATER LONDON","ppdCategoryType":"Standard","recordStatus":"Addition","latitude":51.496374,"longitude":-0.185544,"postcodeStart":"SW7 4","postcode":["SW7","4AZ"]}
{"price":720000,"dateOfTransfer":"1996-08-01T00:00:00","postcodeFull":"SW7 4AW","propertyType":"Flat/Maisonette/Townhouse","oldOrNew":"Established","duration":"Leasehold","paon":"18","saon":"FLAT 3","street":"CORNWALL GARDENS","locality":"LONDON","townOrCity":"LONDON","district":"KENSINGTON AND CHELSEA","county":"GREATER LONDON","ppdCategoryType":"Standard","recordStatus":"Addition","latitude":51.497257,"longitude":-0.185681,"postcodeStart":"SW7 4","postcode":["SW7","4AW"]}
{"price":925000,"dateOfTransfer":"1996-04-19T00:00:00","postcodeFull":"SW7 4ES","propertyType":"Terraced","oldOrNew":"Established","duration":"Freehold","paon":"114","saon":"","street":"CROMWELL ROAD","locality":"","townOrCity":"LONDON","district":"KENSINGTON AND CHELSEA","county":"GREATER LONDON","ppdCategoryType":"Standard","recordStatus":"Addition","latitude":51.495258,"longitude":-0.185377,"postcodeStart":"SW7 4","postcode":["SW7","4ES"]}
{"price":210000,"dateOfTransfer":"1996-03-06T00:00:00","postcodeFull":"SW7 4BQ","propertyType":"Flat/Maisonette/Townhouse","oldOrNew":"Established","duration":"Leasehold","paon":"LANARKSLEA HOUSE, 100","saon":"FLAT 6","street":"CORNWALL GARDENS","locality":"LONDON","townOrCity":"LONDON","district":"KENSINGTON AND CHELSEA","county":"GREATER LONDON","ppdCategoryType":"Standard","recordStatus":"Addition","latitude":51.496878,"longitude":-0.188477,"postcodeStart":"SW7 4","postcode":["SW7","4BQ"]}
{"price":425000,"dateOfTransfer":"1996-10-02T00:00:00","postcodeFull":"SW7 4EF","propertyType":"Terraced","oldOrNew":"Established","duration":"Freehold","paon":"156","saon":"","street":"CROMWELL ROAD","locality":"","townOrCity":"LONDON","district":"KENSINGTON AND CHELSEA","county":"GREATER LONDON","ppdCategoryType":"Standard","recordStatus":"Addition","latitude":51.49487,"longitude":-0.18804,"postcodeStart":"SW7 4","postcode":["SW7","4EF"]}
{"price":331250,"dateOfTransfer":"1996-12-18T00:00:00","postcodeFull":"SW7 4SB","propertyType":"Flat/Maisonette/Townhouse","oldOrNew":"Established","duration":"Leasehold","paon":"6","saon":"FLAT 7","street":"SOUTHWELL GARDENS","locality":"","townOrCity":"LONDON","district":"KENSINGTON AND CHELSEA","county":"GREATER LONDON","ppdCategoryType":"Standard","recordStatus":"Addition","latitude":51.496113,"longitude":-0.184276,"postcodeStart":"SW7 4","postcode":["SW7","4SB"]}
{"price":5000,"dateOfTransfer":"1996-05-09T00:00:00","postcodeFull":"SW7 4NT","propertyType":"Terraced","oldOrNew":"Established","duration":"Freehold","paon":"26A","saon":"","street":"ROSARY GARDENS","locality":"","townOrCity":"LONDON","district":"KENSINGTON AND CHELSEA","county":"GREATER LONDON","ppdCategoryType":"Standard","recordStatus":"Addition","latitude":51.492136,"longitude":-0.182528,"postcodeStart":"SW7 4","postcode":["SW7","4NT"]}
{"price":259000,"dateOfTransfer":"1996-09-16T00:00:00","postcodeFull":"SW7 4JA","propertyType":"Flat/Maisonette/Townhouse","oldOrNew":"Established","duration":"Leasehold","paon":"31","saon":"FLAT 1","street":"EMPERORS GATE","locality":"LONDON","townOrCity":"LONDON","district":"KENSINGTON AND CHELSEA","county":"GREATER LONDON","ppdCategoryType":"Standard","recordStatus":"Addition","latitude":51.496045,"longitude":-0.186997,"postcodeStart":"SW7 4","postcode":["SW7","4JA"]}
{"price":170000,"dateOfTransfer":"1996-03-18T00:00:00","postcodeFull":"SW7 4BE","propertyType":"Flat/Maisonette/Townhouse","oldOrNew":"Established","duration":"Leasehold","paon":"60A","saon":"FLAT 1","street":"CORNWALL GARDENS","locality":"LONDON","townOrCity":"LONDON","district":"KENSINGTON AND CHELSEA","county":"GREATER LONDON","ppdCategoryType":"Standard","recordStatus":"Addition","latitude":51.496574,"longitude":-0.18748,"postcodeStart":"SW7 4","postcode":["SW7","4BE"]}
{"price":200000,"dateOfTransfer":"1996-07-12T00:00:00","postcodeFull":"SW7 4PP","propertyType":"Flat/Maisonette/Townhouse","oldOrNew":"Established","duration":"Leasehold","paon":"7","saon":"7A","street":"GLOUCESTER ROAD","locality":"LONDON","townOrCity":"LONDON","district":"KENSINGTON AND CHELSEA","county":"GREATER LONDON","ppdCategoryType":"Standard","recordStatus":"Addition","latitude":51.498939,"longitude":-0.183569,"postcodeStart":"SW7 4","postcode":["SW7","4PP"]}
{"price":235000,"dateOfTransfer":"1996-05-24T00:00:00","postcodeFull":"SW7 4QB","propertyType":"Flat/Maisonette/Townhouse","oldOrNew":"Established","duration":"Leasehold","paon":"5","saon":"FLAT 6","street":"BRECHIN PLACE","locality":"LONDON","townOrCity":"LONDON","district":"KENSINGTON AND CHELSEA","county":"GREATER LONDON","ppdCategoryType":"Standard","recordStatus":"Addition","latitude":51.491339,"longitude":-0.180961,"postcodeStart":"SW7 4","postcode":["SW7","4QB"]}
{"price":179000,"dateOfTransfer":"1996-09-27T00:00:00","postcodeFull":"SW7 4BA","propertyType":"Flat/Maisonette/Townhouse","oldOrNew":"Established","duration":"Leasehold","paon":"72","saon":"FLAT 4","street":"CORNWALL GARDENS","locality":"","townOrCity":"LONDON","district":"KENSINGTON AND CHELSEA","county":"GREATER LONDON","ppdCategoryType":"Standard","recordStatus":"Addition","latitude":51.496454,"longitude":-0.186304,"postcodeStart":"SW7 4","postcode":["SW7","4BA"]}
{"price":215000,"dateOfTransfer":"1996-02-09T00:00:00","postcodeFull":"SW7 4HW","propertyType":"Terraced","oldOrNew":"Established","duration":"Freehold","paon":"1","saon":"","street":"OSTEN MEWS","locality":"LONDON","townOrCity":"LONDON","district":"KENSINGTON AND CHELSEA","county":"GREATER LONDON","ppdCategoryType":"Standard","recordStatus":"Addition","latitude":51.496352,"longitude":-0.187605,"postcodeStart":"SW7 4","postcode":["SW7","4HW"]}
{"price":160000,"dateOfTransfer":"1996-05-31T00:00:00","postcodeFull":"SW7 4HP","propertyType":"Terraced","oldOrNew":"Established","duration":"Freehold","paon":"14","saon":"","street":"MCLEODS MEWS","locality":"LONDON","townOrCity":"LONDON","district":"KENSINGTON AND CHELSEA","county":"GREATER LONDON","ppdCategoryType":"Standard","recordStatus":"Addition","latitude":51.49578,"longitude":-0.186691,"postcodeStart":"SW7 4","postcode":["SW7","4HP"]}
{"price":145000,"dateOfTransfer":"1996-12-02T00:00:00","postcodeFull":"SW7 4ND","propertyType":"Flat/Maisonette/Townhouse","oldOrNew":"Established","duration":"Leasehold","paon":"FLAT 5, 18","saon":"","street":"WETHERBY PLACE","locality":"","townOrCity":"LONDON","district":"KENSINGTON AND CHELSEA","county":"GREATER LONDON","ppdCategoryType":"Standard","recordStatus":"Addition","latitude":51.492691,"longitude":-0.182895,"postcodeStart":"SW7 4","postcode":["SW7","4ND"]}
{"price":137000,"dateOfTransfer":"1996-11-07T00:00:00","postcodeFull":"SW7 4NT","propertyType":"Flat/Maisonette/Townhouse","oldOrNew":"Established","duration":"Leasehold","paon":"32","saon":"FLAT 3","street":"ROSARY GARDENS","locality":"LONDON","townOrCity":"LONDON","district":"KENSINGTON AND CHELSEA","county":"GREATER LONDON","ppdCategoryType":"Standard","recordStatus":"Addition","latitude":51.492136,"longitude":-0.182528,"postcodeStart":"SW7 4","postcode":["SW7","4NT"]}
{"price":220000,"dateOfTransfer":"1996-09-11T00:00:00","postcodeFull":"SW7 4DA","propertyType":"Flat/Maisonette/Townhouse","oldOrNew":"Established","duration":"Leasehold","paon":"29 - 31","saon":"FLAT 8","street":"COURTFIELD ROAD","locality":"","townOrCity":"LONDON","district":"KENSINGTON AND CHELSEA","county":"GREATER LONDON","ppdCategoryType":"Standard","recordStatus":"Addition","latitude":51.493404,"longitude":-0.18484,"postcodeStart":"SW7 4","postcode":["SW7","4DA"]}
{"price":158000,"dateOfTransfer":"1996-05-14T00:00:00","postcodeFull":"SW7 4DB","propertyType":"Flat/Maisonette/Townhouse","oldOrNew":"Established","duration":"Leasehold","paon":"41 - 43","saon":"FLAT 10","street":"COURTFIELD ROAD","locality":"LONDON","townOrCity":"LONDON","district":"KENSINGTON AND CHELSEA","county":"GREATER LONDON","ppdCategoryType":"Standard","recordStatus":"Addition","latitude":51.493238,"longitude":-0.18563,"postcodeStart":"SW7 4","postcode":["SW7","4DB"]}
{"price":300000,"dateOfTransfer":"1996-05-24T00:00:00","postcodeFull":"SW7 4JA","propertyType":"Flat/Maisonette/Townhouse","oldOrNew":"Established","duration":"Leasehold","paon":"34","saon":"FLAT 6","street":"EMPERORS GATE","locality":"LONDON","townOrCity":"LONDON","district":"KENSINGTON AND CHELSEA","county":"GREATER LONDON","ppdCategoryType":"Standard","recordStatus":"Addition","latitude":51.496045,"longitude":-0.186997,"postcodeStart":"SW7 4","postcode":["SW7","4JA"]}
{"price":252000,"dateOfTransfer":"1996-07-05T00:00:00","postcodeFull":"SW7 4QR","propertyType":"Flat/Maisonette/Townhouse","oldOrNew":"Established","duration":"Freehold","paon":"20","saon":"","street":"KYNANCE MEWS","locality":"LONDON","townOrCity":"LONDON","district":"KENSINGTON AND CHELSEA","county":"GREATER LONDON","ppdCategoryType":"Standard","recordStatus":"Addition","latitude":51.497345,"longitude":-0.186139,"postcodeStart":"SW7 4","postcode":["SW7","4QR"]}
{"price":155000,"dateOfTransfer":"1996-03-26T00:00:00","postcodeFull":"SW7 4ND","propertyType":"Flat/Maisonette/Townhouse","oldOrNew":"Established","duration":"Leasehold","paon":"18","saon":"FLAT 3","street":"WETHERBY PLACE","locality":"LONDON","townOrCity":"LONDON","district":"KENSINGTON AND CHELSEA","county":"GREATER LONDON","ppdCategoryType":"Standard","recordStatus":"Addition","latitude":51.492691,"longitude":-0.182895,"postcodeStart":"SW7 4","postcode":["SW7","4ND"]}
{"price":215000,"dateOfTransfer":"1996-05-13T00:00:00","postcodeFull":"SW7 4AL","propertyType":"Flat/Maisonette/Townhouse","oldOrNew":"Established","duration":"Leasehold","paon":"11","saon":"FLAT C","street":"CORNWALL GARDENS","locality":"LONDON","townOrCity":"LONDON","district":"KENSINGTON AND CHELSEA","county":"GREATER LONDON","ppdCategoryType":"Standard","recordStatus":"Addition","latitude":51.497172,"longitude":-0.184177,"postcodeStart":"SW7 4","postcode":["SW7","4AL"]}
{"price":140000,"dateOfTransfer":"1996-03-01T00:00:00","postcodeFull":"SW7 4NS","propertyType":"Flat/Maisonette/Townhouse","oldOrNew":"Established","duration":"Leasehold","paon":"2","saon":"FLAT 2","street":"ROSARY GARDENS","locality":"LONDON","townOrCity":"LONDON","district":"KENSINGTON AND CHELSEA","county":"GREATER LONDON","ppdCategoryType":"Standard","recordStatus":"Addition","latitude":51.491655,"longitude":-0.182216,"postcodeStart":"SW7 4","postcode":["SW7","4NS"]}
{"price":244000,"dateOfTransfer":"1996-08-30T00:00:00","postcodeFull":"SW7 4LT","propertyType":"Flat/Maisonette/Townhouse","oldOrNew":"Established","duration":"Leasehold","paon":"28","saon":"FLAT 1","street":"HARRINGTON GARDENS","locality":"LONDON","townOrCity":"LONDON","district":"KENSINGTON AND CHELSEA","county":"GREATER LONDON","ppdCategoryType":"Standard","recordStatus":"Addition","latitude":51.492692,"longitude":-0.186482,"postcodeStart":"SW7 4","postcode":["SW7","4LT"]}
{"price":95000,"dateOfTransfer":"1996-03-26T00:00:00","postcodeFull":"SW7 4AJ","propertyType":"Flat/Maisonette/Townhouse","oldOrNew":"Established","duration":"Leasehold","paon":"5","saon":"FLAT 9","street":"CORNWALL GARDENS","locality":"LONDON","townOrCity":"LONDON","district":"KENSINGTON AND CHELSEA","county":"GREATER LONDON","ppdCategoryType":"Standard","recordStatus":"Addition","latitude":51.496818,"longitude":-0.184013,"postcodeStart":"SW7 4","postcode":["SW7","4AJ"]}
{"price":180000,"dateOfTransfer":"1996-03-01T00:00:00","postcodeFull":"SW7 4NS","propertyType":"Flat/Maisonette/Townhouse","oldOrNew":"Established","duration":"Leasehold","paon":"2","saon":"FLAT 10","street":"ROSARY GARDENS","locality":"LONDON","townOrCity":"LONDON","district":"KENSINGTON AND CHELSEA","county":"GREATER LONDON","ppdCategoryType":"Standard","recordStatus":"Addition","latitude":51.491655,"longitude":-0.182216,"postcodeStart":"SW7 4","postcode":["SW7","4NS"]}
{"price":220000,"dateOfTransfer":"1996-10-07T00:00:00","postcodeFull":"SW7 4AX","propertyType":"Flat/Maisonette/Townhouse","oldOrNew":"Established","duration":"Leasehold","paon":"93","saon":"FLAT 6","street":"CORNWALL GARDENS","locality":"LONDON","townOrCity":"LONDON","district":"KENSINGTON AND CHELSEA","county":"GREATER LONDON","ppdCategoryType":"Standard","recordStatus":"Addition","latitude":51.496359,"longitude":-0.184031,"postcodeStart":"SW7 4","postcode":["SW7","4AX"]}
{"price":122500,"dateOfTransfer":"1996-09-13T00:00:00","postcodeFull":"SW7 4AL","propertyType":"Flat/Maisonette/Townhouse","oldOrNew":"Established","duration":"Leasehold","paon":"7","saon":"FLAT 2","street":"CORNWALL GARDENS","locality":"LONDON","townOrCity":"LONDON","district":"KENSINGTON AND CHELSEA","county":"GREATER LONDON","ppdCategoryType":"Standard","recordStatus":"Addition","latitude":51.497172,"longitude":-0.184177,"postcodeStart":"SW7 4","postcode":["SW7","4AL"]}
{"price":265000,"dateOfTransfer":"1996-07-12T00:00:00","postcodeFull":"SW7 4LT","propertyType":"Flat/Maisonette/Townhouse","oldOrNew":"Established","duration":"Leasehold","paon":"48 - 50","saon":"FLAT 1","street":"HARRINGTON GARDENS","locality":"LONDON","townOrCity":"LONDON","district":"KENSINGTON AND CHELSEA","county":"GREATER LONDON","ppdCategoryType":"Standard","recordStatus":"Addition","latitude":51.492692,"longitude":-0.186482,"postcodeStart":"SW7 4","postcode":["SW7","4LT"]}
{"price":340000,"dateOfTransfer":"1996-07-17T00:00:00","postcodeFull":"SW7 4RL","propertyType":"Flat/Maisonette/Townhouse","oldOrNew":"Established","duration":"Leasehold","paon":"12","saon":"FLAT 4","street":"SOUTHWELL GARDENS","locality":"LONDON","townOrCity":"LONDON","district":"KENSINGTON AND CHELSEA","county":"GREATER LONDON","ppdCategoryType":"Standard","recordStatus":"Addition","latitude":51.495586,"longitude":-0.184624,"postcodeStart":"SW7 4","postcode":["SW7","4RL"]}
{"price":181000,"dateOfTransfer":"1996-04-19T00:00:00","postcodeFull":"SW7 4QA","propertyType":"Flat/Maisonette/Townhouse","oldOrNew":"Established","duration":"Leasehold","paon":"8","saon":"FLAT 4","street":"BRECHIN PLACE","locality":"LONDON","townOrCity":"LONDON","district":"KENSINGTON AND CHELSEA","county":"GREATER LONDON","ppdCategoryType":"Standard","recordStatus":"Addition","latitude":51.4915,"longitude":-0.181473,"postcodeStart":"SW7 4","postcode":["SW7","4QA"]}
{"price":260000,"dateOfTransfer":"1996-12-10T00:00:00","postcodeFull":"SW7 4TF","propertyType":"Flat/Maisonette/Townhouse","oldOrNew":"Established","duration":"Leasehold","paon":"1","saon":"FIRST AND SECOND FLOOR FLAT","street":"STANHOPE MEWS SOUTH","locality":"LONDON","townOrCity":"LONDON","district":"KENSINGTON AND CHELSEA","county":"GREATER LONDON","ppdCategoryType":"Standard","recordStatus":"Addition","latitude":51.493255,"longitude":-0.181014,"postcodeStart":"SW7 4","postcode":["SW7","4TF"]}
{"price":105000,"dateOfTransfer":"1996-10-04T00:00:00","postcodeFull":"SW7 4QN","propertyType":"Flat/Maisonette/Townhouse","oldOrNew":"Established","duration":"Leasehold","paon":"55 - 57","saon":"FLAT 5","street":"GLOUCESTER ROAD","locality":"LONDON","townOrCity":"LONDON","district":"KENSINGTON AND CHELSEA","county":"GREATER LONDON","ppdCategoryType":"Standard","recordStatus":"Addition","latitude":51.496966,"longitude":-0.183114,"postcodeStart":"SW7 4","postcode":["SW7","4QN"]}
{"price":220000,"dateOfTransfer":"1996-05-31T00:00:00","postcodeFull":"SW7 4AA","propertyType":"Flat/Maisonette/Townhouse","oldOrNew":"Established","duration":"Leasehold","paon":"42","saon":"FLAT 4","street":"CORNWALL GARDENS","locality":"LONDON","townOrCity":"LONDON","district":"KENSINGTON AND CHELSEA","county":"GREATER LONDON","ppdCategoryType":"Standard","recordStatus":"Addition","latitude":51.497303,"longitude":-0.187466,"postcodeStart":"SW7 4","postcode":["SW7","4AA"]}
{"price":55000,"dateOfTransfer":"1996-08-21T00:00:00","postcodeFull":"SW7 4RZ","propertyType":"Flat/Maisonette/Townhouse","oldOrNew":"Established","duration":"Leasehold","paon":"14","saon":"REAR BASEMENT FLAT","street":"CORNWALL MEWS SOUTH","locality":"LONDON","townOrCity":"LONDON","district":"KENSINGTON AND CHELSEA","county":"GREATER LONDON","ppdCategoryType":"Standard","recordStatus":"Addition","latitude":51.496168,"longitude":-0.184457,"postcodeStart":"SW7 4","postcode":["SW7","4RZ"]}
{"price":305000,"dateOfTransfer":"1996-06-19T00:00:00","postcodeFull":"SW7 4QR","propertyType":"Terraced","oldOrNew":"Established","duration":"Freehold","paon":"16","saon":"","street":"KYNANCE MEWS","locality":"LONDON","townOrCity":"LONDON","district":"KENSINGTON AND CHELSEA","county":"GREATER LONDON","ppdCategoryType":"Standard","recordStatus":"Addition","latitude":51.497345,"longitude":-0.186139,"postcodeStart":"SW7 4","postcode":["SW7","4QR"]}
{"price":40000,"dateOfTransfer":"1996-05-31T00:00:00","postcodeFull":"SW7 4QL","propertyType":"Flat/Maisonette/Townhouse","oldOrNew":"Established","duration":"Leasehold","paon":"45","saon":"FLAT B","street":"GLOUCESTER ROAD","locality":"","townOrCity":"LONDON","district":"KENSINGTON AND CHELSEA","county":"GREATER LONDON","ppdCategoryType":"Standard","recordStatus":"Addition","latitude":51.497329,"longitude":-0.183359,"postcodeStart":"SW7 4","postcode":["SW7","4QL"]}
{"price":180000,"dateOfTransfer":"1996-12-16T00:00:00","postcodeFull":"SW7 4DB","propertyType":"Flat/Maisonette/Townhouse","oldOrNew":"Established","duration":"Leasehold","paon":"45 - 47","saon":"FLAT 9","street":"COURTFIELD ROAD","locality":"LONDON","townOrCity":"LONDON","district":"KENSINGTON AND CHELSEA","county":"GREATER LONDON","ppdCategoryType":"Standard","recordStatus":"Addition","latitude":51.493238,"longitude":-0.18563,"postcodeStart":"SW7 4","postcode":["SW7","4DB"]}
{"price":36500,"dateOfTransfer":"1996-02-27T00:00:00","postcodeFull":"SW7 4NH","propertyType":"Flat/Maisonette/Townhouse","oldOrNew":"Established","duration":"Leasehold","paon":"27","saon":"FLAT 7","street":"ROSARY GARDENS","locality":"","townOrCity":"LONDON","district":"KENSINGTON AND CHELSEA","county":"GREATER LONDON","ppdCategoryType":"Standard","recordStatus":"Addition","latitude":51.491882,"longitude":-0.182874,"postcodeStart":"SW7 4","postcode":["SW7","4NH"]}
{"price":12000,"dateOfTransfer":"1996-08-30T00:00:00","postcodeFull":"SW7 4BA","propertyType":"Terraced","oldOrNew":"Established","duration":"Freehold","paon":"73","saon":"","street":"CORNWALL GARDENS","locality":"","townOrCity":"LONDON","district":"KENSINGTON AND CHELSEA","county":"GREATER LONDON","ppdCategoryType":"Standard","recordStatus":"Addition","latitude":51.496454,"longitude":-0.186304,"postcodeStart":"SW7 4","postcode":["SW7","4BA"]}
{"price":355000,"dateOfTransfer":"1996-08-22T00:00:00","postcodeFull":"SW7 4TH","propertyType":"Flat/Maisonette/Townhouse","oldOrNew":"Established","duration":"Leasehold","paon":"147","saon":"FLAT 4","street":"GLOUCESTER ROAD","locality":"LONDON","townOrCity":"LONDON","district":"KENSINGTON AND CHELSEA","county":"GREATER LONDON","ppdCategoryType":"Standard","recordStatus":"Addition","latitude":51.492015,"longitude":-0.180488,"postcodeStart":"SW7 4","postcode":["SW7","4TH"]}
{"price":675000,"dateOfTransfer":"1996-05-30T00:00:00","postcodeFull":"SW7 4TT","propertyType":"Terraced","oldOrNew":"Established","duration":"Freehold","paon":"3","saon":"","street":"HEREFORD SQUARE","locality":"LONDON","townOrCity":"LONDON","district":"KENSINGTON AND CHELSEA","county":"GREATER LONDON","ppdCategoryType":"Standard","recordStatus":"Addition","latitude":51.491801,"longitude":-0.181159,"postcodeStart":"SW7 4","postcode":["SW7","4TT"]}
{"price":158000,"dateOfTransfer":"1996-08-23T00:00:00","postcodeFull":"SW7 4QA","propertyType":"Flat/Maisonette/Townhouse","oldOrNew":"Established","duration":"Leasehold","paon":"22","saon":"BASEMENT FLAT","street":"BRECHIN PLACE","locality":"LONDON","townOrCity":"LONDON","district":"KENSINGTON AND CHELSEA","county":"GREATER LONDON","ppdCategoryType":"Standard","recordStatus":"Addition","latitude":51.4915,"longitude":-0.181473,"postcodeStart":"SW7 4","postcode":["SW7","4QA"]}
{"price":52000,"dateOfTransfer":"1996-02-23T00:00:00","postcodeFull":"SW7 4HJ","propertyType":"Flat/Maisonette/Townhouse","oldOrNew":"Established","duration":"Leasehold","paon":"40","saon":"","street":"EMPERORS GATE","locality":"","townOrCity":"LONDON","district":"KENSINGTON AND CHELSEA","county":"GREATER LONDON","ppdCategoryType":"Standard","recordStatus":"Addition","latitude":51.496305,"longitude":-0.186324,"postcodeStart":"SW7 4","postcode":["SW7","4HJ"]}
{"price":376000,"dateOfTransfer":"1996-01-31T00:00:00","postcodeFull":"SW7 4BE","propertyType":"Flat/Maisonette/Townhouse","oldOrNew":"Established","duration":"Leasehold","paon":"61","saon":"FLAT 6","street":"CORNWALL GARDENS","locality":"LONDON","townOrCity":"LONDON","district":"KENSINGTON AND CHELSEA","county":"GREATER LONDON","ppdCategoryType":"Standard","recordStatus":"Addition","latitude":51.496574,"longitude":-0.18748,"postcodeStart":"SW7 4","postcode":["SW7","4BE"]}
{"price":155000,"dateOfTransfer":"1996-04-19T00:00:00","postcodeFull":"SW7 4AL","propertyType":"Flat/Maisonette/Townhouse","oldOrNew":"Established","duration":"Leasehold","paon":"7","saon":"FLAT 7","street":"CORNWALL GARDENS","locality":"LONDON","townOrCity":"LONDON","district":"KENSINGTON AND CHELSEA","county":"GREATER LONDON","ppdCategoryType":"Standard","recordStatus":"Addition","latitude":51.497172,"longitude":-0.184177,"postcodeStart":"SW7 4","postcode":["SW7","4AL"]}
{"price":982500,"dateOfTransfer":"1996-01-25T00:00:00","postcodeFull":"SW7 4TS","propertyType":"Terraced","oldOrNew":"Established","duration":"Freehold","paon":"15","saon":"","street":"HEREFORD SQUARE","locality":"LONDON","townOrCity":"LONDON","district":"KENSINGTON AND CHELSEA","county":"GREATER LONDON","ppdCategoryType":"Standard","recordStatus":"Addition","latitude":51.492228,"longitude":-0.182049,"postcodeStart":"SW7 4","postcode":["SW7","4TS"]}
{"price":371500,"dateOfTransfer":"1996-05-30T00:00:00","postcodeFull":"SW7 4DA","propertyType":"Flat/Maisonette/Townhouse","oldOrNew":"Established","duration":"Leasehold","paon":"21 - 23","saon":"FLAT 15","street":"COURTFIELD ROAD","locality":"LONDON","townOrCity":"LONDON","district":"KENSINGTON AND CHELSEA","county":"GREATER LONDON","ppdCategoryType":"Standard","recordStatus":"Addition","latitude":51.493404,"longitude":-0.18484,"postcodeStart":"SW7 4","postcode":["SW7","4DA"]}
{"price":188000,"dateOfTransfer":"1996-04-22T00:00:00","postcodeFull":"SW7 4NT","propertyType":"Flat/Maisonette/Townhouse","oldOrNew":"Established","duration":"Leasehold","paon":"26E","saon":"","street":"ROSARY GARDENS","locality":"LONDON","townOrCity":"LONDON","district":"KENSINGTON AND CHELSEA","county":"GREATER LONDON","ppdCategoryType":"Standard","recordStatus":"Addition","latitude":51.492136,"longitude":-0.182528,"postcodeStart":"SW7 4","postcode":["SW7","4NT"]}
{"price":325000,"dateOfTransfer":"1996-09-30T00:00:00","postcodeFull":"SW7 4AZ","propertyType":"Flat/Maisonette/Townhouse","oldOrNew":"Established","duration":"Leasehold","paon":"82","saon":"FLAT 1","street":"CORNWALL GARDENS","locality":"LONDON","townOrCity":"LONDON","district":"KENSINGTON AND CHELSEA","county":"GREATER LONDON","ppdCategoryType":"Standard","recordStatus":"Addition","latitude":51.496374,"longitude":-0.185544,"postcodeStart":"SW7 4","postcode":["SW7","4AZ"]}
{"price":235000,"dateOfTransfer":"1996-08-22T00:00:00","postcodeFull":"SW7 4AD","propertyType":"Flat/Maisonette/Townhouse","oldOrNew":"Established","duration":"Leasehold","paon":"CORNWALL GARDENS COURT, 47 - 50","saon":"FLAT 1","street":"CORNWALL GARDENS","locality":"LONDON","townOrCity":"LONDON","district":"KENSINGTON AND CHELSEA","county":"GREATER LONDON","ppdCategoryType":"Standard","recordStatus":"Addition","latitude":51.497249,"longitude":-0.188664,"postcodeStart":"SW7 4","postcode":["SW7","4AD"]}
{"price":242400,"dateOfTransfer":"1996-06-21T00:00:00","postcodeFull":"SW7 4NS","propertyType":"Flat/Maisonette/Townhouse","oldOrNew":"Established","duration":"Leasehold","paon":"4","saon":"THIRD FLOOR FLAT","street":"ROSARY GARDENS","locality":"LONDON","townOrCity":"LONDON","district":"KENSINGTON AND CHELSEA","county":"GREATER LONDON","ppdCategoryType":"Standard","recordStatus":"Addition","latitude":51.491655,"longitude":-0.182216,"postcodeStart":"SW7 4","postcode":["SW7","4NS"]}
{"price":180000,"dateOfTransfer":"1996-04-11T00:00:00","postcodeFull":"SW7 4PB","propertyType":"Flat/Maisonette/Townhouse","oldOrNew":"Established","duration":"Leasehold","paon":"CAMPBELL COURT, 1 - 7","saon":"FLAT 6","street":"QUEENS GATE GARDENS","locality":"LONDON","townOrCity":"LONDON","district":"KENSINGTON AND CHELSEA","county":"GREATER LONDON","ppdCategoryType":"Standard","recordStatus":"Addition","latitude":51.496553,"longitude":-0.183159,"postcodeStart":"SW7 4","postcode":["SW7","4PB"]}
{"price":255000,"dateOfTransfer":"1996-09-10T00:00:00","postcodeFull":"SW7 4AL","propertyType":"Flat/Maisonette/Townhouse","oldOrNew":"Established","duration":"Leasehold","paon":"8","saon":"FLAT 5","street":"CORNWALL GARDENS","locality":"LONDON","townOrCity":"LONDON","district":"KENSINGTON AND CHELSEA","county":"GREATER LONDON","ppdCategoryType":"Standard","recordStatus":"Addition","latitude":51.497172,"longitude":-0.184177,"postcodeStart":"SW7 4","postcode":["SW7","4AL"]}
{"price":159000,"dateOfTransfer":"1996-03-14T00:00:00","postcodeFull":"SW7 4AD","propertyType":"Flat/Maisonette/Townhouse","oldOrNew":"Established","duration":"Leasehold","paon":"CORNWALL GARDENS COURT, 47 - 50","saon":"FLAT 1","street":"CORNWALL GARDENS","locality":"LONDON","townOrCity":"LONDON","district":"KENSINGTON AND CHELSEA","county":"GREATER LONDON","ppdCategoryType":"Standard","recordStatus":"Addition","latitude":51.497249,"longitude":-0.188664,"postcodeStart":"SW7 4","postcode":["SW7","4AD"]}
{"price":258000,"dateOfTransfer":"1996-10-11T00:00:00","postcodeFull":"SW7 4AD","propertyType":"Flat/Maisonette/Townhouse","oldOrNew":"Established","duration":"Leasehold","paon":"CORNWALL GARDENS COURT, 47 - 50","saon":"PENTHOUSE 26","street":"CORNWALL GARDENS","locality":"LONDON","townOrCity":"LONDON","district":"KENSINGTON AND CHELSEA","county":"GREATER LONDON","ppdCategoryType":"Standard","recordStatus":"Addition","latitude":51.497249,"longitude":-0.188664,"postcodeStart":"SW7 4","postcode":["SW7","4AD"]}
{"price":120000,"dateOfTransfer":"1996-08-23T00:00:00","postcodeFull":"SW7 4RU","propertyType":"Flat/Maisonette/Townhouse","oldOrNew":"Established","duration":"Leasehold","paon":"4","saon":"FLAT 5","street":"GRENVILLE PLACE","locality":"LONDON","townOrCity":"LONDON","district":"KENSINGTON AND CHELSEA","county":"GREATER LONDON","ppdCategoryType":"Standard","recordStatus":"Addition","latitude":51.496048,"longitude":-0.185302,"postcodeStart":"SW7 4","postcode":["SW7","4RU"]}
{"price":473840,"dateOfTransfer":"1996-03-12T00:00:00","postcodeFull":"SW7 4AN","propertyType":"Flat/Maisonette/Townhouse","oldOrNew":"Established","duration":"Leasehold","paon":"13","saon":"FLAT 4","street":"CORNWALL GARDENS","locality":"LONDON","townOrCity":"LONDON","district":"KENSINGTON AND CHELSEA","county":"GREATER LONDON","ppdCategoryType":"Standard","recordStatus":"Addition","latitude":51.497266,"longitude":-0.184717,"postcodeStart":"SW7 4","postcode":["SW7","4AN"]}
{"price":190000,"dateOfTransfer":"1996-11-01T00:00:00","postcodeFull":"SW7 4DB","propertyType":"Flat/Maisonette/Townhouse","oldOrNew":"Established","duration":"Leasehold","paon":"33 - 35","saon":"FLAT 7","street":"COURTFIELD ROAD","locality":"LONDON","townOrCity":"LONDON","district":"KENSINGTON AND CHELSEA","county":"GREATER LONDON","ppdCategoryType":"Standard","recordStatus":"Addition","latitude":51.493238,"longitude":-0.18563,"postcodeStart":"SW7 4","postcode":["SW7","4DB"]}
{"price":162000,"dateOfTransfer":"1996-09-30T00:00:00","postcodeFull":"SW7 4RU","propertyType":"Flat/Maisonette/Townhouse","oldOrNew":"Established","duration":"Leasehold","paon":"4","saon":"FLAT 4","street":"GRENVILLE PLACE","locality":"LONDON","townOrCity":"LONDON","district":"KENSINGTON AND CHELSEA","county":"GREATER LONDON","ppdCategoryType":"Standard","recordStatus":"Addition","latitude":51.496048,"longitude":-0.185302,"postcodeStart":"SW7 4","postcode":["SW7","4RU"]}
{"price":200000,"dateOfTransfer":"1996-05-03T00:00:00","postcodeFull":"SW7 4LT","propertyType":"Flat/Maisonette/Townhouse","oldOrNew":"Established","duration":"Leasehold","paon":"28","saon":"FLAT 5","street":"HARRINGTON GARDENS","locality":"LONDON","townOrCity":"LONDON","district":"KENSINGTON AND CHELSEA","county":"GREATER LONDON","ppdCategoryType":"Standard","recordStatus":"Addition","latitude":51.492692,"longitude":-0.186482,"postcodeStart":"SW7 4","postcode":["SW7","4LT"]}
{"price":295000,"dateOfTransfer":"1996-07-31T00:00:00","postcodeFull":"SW7 4DG","propertyType":"Flat/Maisonette/Townhouse","oldOrNew":"Established","duration":"Leasehold","paon":"6","saon":"FLAT 2","street":"ASHBURN GARDENS","locality":"LONDON","townOrCity":"LONDON","district":"KENSINGTON AND CHELSEA","county":"GREATER LONDON","ppdCategoryType":"Standard","recordStatus":"Addition","latitude":51.493879,"longitude":-0.185902,"postcodeStart":"SW7 4","postcode":["SW7","4DG"]}
{"price":215000,"dateOfTransfer":"1996-09-18T00:00:00","postcodeFull":"SW7 4RW","propertyType":"Flat/Maisonette/Townhouse","oldOrNew":"Established","duration":"Leasehold","paon":"16","saon":"FLAT 3","street":"GRENVILLE PLACE","locality":"LONDON","townOrCity":"LONDON","district":"KENSINGTON AND CHELSEA","county":"GREATER LONDON","ppdCategoryType":"Standard","recordStatus":"Addition","latitude":51.495318,"longitude":-0.184721,"postcodeStart":"SW7 4","postcode":["SW7","4RW"]}
{"price":285000,"dateOfTransfer":"1996-07-31T00:00:00","postcodeFull":"SW7 4AA","propertyType":"Flat/Maisonette/Townhouse","oldOrNew":"Established","duration":"Leasehold","paon":"43","saon":"FLAT 3","street":"CORNWALL GARDENS","locality":"LONDON","townOrCity":"LONDON","district":"KENSINGTON AND CHELSEA","county":"GREATER LONDON","ppdCategoryType":"Standard","recordStatus":"Addition","latitude":51.497303,"longitude":-0.187466,"postcodeStart":"SW7 4","postcode":["SW7","4AA"]}
{"price":370000,"dateOfTransfer":"1996-01-12T00:00:00","postcodeFull":"SW7 4DB","propertyType":"Flat/Maisonette/Townhouse","oldOrNew":"Established","duration":"Leasehold","paon":"41 - 43","saon":"FLAT 15","street":"COURTFIELD ROAD","locality":"LONDON","townOrCity":"LONDON","district":"KENSINGTON AND CHELSEA","county":"GREATER LONDON","ppdCategoryType":"Standard","recordStatus":"Addition","latitude":51.493238,"longitude":-0.18563,"postcodeStart":"SW7 4","postcode":["SW7","4DB"]}
{"price":174500,"dateOfTransfer":"1996-04-19T00:00:00","postcodeFull":"SW7 4DG","propertyType":"Flat/Maisonette/Townhouse","oldOrNew":"Established","duration":"Leasehold","paon":"13","saon":"FLAT 3","street":"ASHBURN GARDENS","locality":"LONDON","townOrCity":"LONDON","district":"KENSINGTON AND CHELSEA","county":"GREATER LONDON","ppdCategoryType":"Standard","recordStatus":"Addition","latitude":51.493879,"longitude":-0.185902,"postcodeStart":"SW7 4","postcode":["SW7","4DG"]}
