{"price":48250,"dateOfTransfer":"1995-04-03T00:00:00","postcodeFull":"SY10 8DN","propertyType":"Semi-detached","oldOrNew":"Established","duration":"Freehold","paon":"3","saon":"","street":"LADY IDA","locality":"KINNERLEY","townOrCity":"OSWESTRY","district":"OSWESTRY","county":"SHROPSHIRE","ppdCategoryType":"Standard","recordStatus":"Addition","latitude":52.784402,"longitude":-2.981449,"postcodeStart":"SY10 8","postcode":["SY10","8DN"]}
{"price":56000,"dateOfTransfer":"1995-06-29T00:00:00","postcodeFull":"SY10 8LX","propertyType":"Detached","oldOrNew":"Established","duration":"Freehold","paon":"THE PADDOCKS","saon":"","street":"","locality":"PORTH Y WAEN","townOrCity":"OSWESTRY","district":"OSWESTRY","county":"SHROPSHIRE","ppdCategoryType":"Standard","recordStatus":"Addition","latitude":52.806067,"longitude":-3.093524,"postcodeStart":"SY10 8","postcode":["SY10","8LX"]}
{"price":55000,"dateOfTransfer":"1995-07-21T00:00:00","postcodeFull":"SY10 8QP","propertyType":"Detached","oldOrNew":"Established","duration":"Freehold","paon":"BRIARLEY","saon":"","street":"","locality":"MAESBROOK","townOrCity":"OSWESTRY","district":"OSWESTRY","county":"SHROPSHIRE","ppdCategoryType":"Standard","recordStatus":"Addition","latitude":52.784345,"longitude":-3.0373,"postcodeStart":"SY10 8","postcode":["SY10","8QP"]}
{"price":95000,"dateOfTransfer":"1995-10-20T00:00:00","postcodeFull":"SY10 8EW","propertyType":"Detached","oldOrNew":"Established","duration":"Freehold","paon":"TURFMOOR COTTAGE","saon":"","street":"","locality":"TURFMOOR","townOrCity":"OSWESTRY","district":"NORTH SHROPSHIRE","county":"SHROPSHIRE","ppdCategoryType":"Standard","recordStatus":"Addition","latitude":52.762872,"longitude":-2.957105,"postcodeStart":"SY10 8","postcode":["SY10","8EW"]}
{"price":105000,"dateOfTransfer":"1995-04-21T00:00:00","postcodeFull":"SY10 8JS","propertyType":"Detached","oldOrNew":"Established","duration":"Freehold","paon":"PENYGARREG HOUSE","saon":"","street":"PENYGARREG LANE","locality":"PANT","townOrCity":"OSWESTRY","district":"OSWESTRY","county":"SHROPSHIRE","ppdCategoryType":"Standard","recordStatus":"Addition","latitude":52.797555,"longitude":-3.071715,"postcodeStart":"SY10 8","postcode":["SY10","8JS"]}
{"price":35000,"dateOfTransfer":"1995-04-28T00:00:00","postcodeFull":"SY10 8LN","propertyType":"Semi-detached","oldOrNew":"Established","duration":"Freehold","paon":"6","saon":"","street":"DOLGOCH","locality":"PORTH Y WAEN","townOrCity":"OSWESTRY","district":"OSWESTRY","county":"SHROPSHIRE","ppdCategoryType":"Standard","recordStatus":"Addition","latitude":52.810865,"longitude":-3.074075,"postcodeStart":"SY10 8","postcode":["SY10","8LN"]}
{"price":45000,"dateOfTransfer":"1995-12-14T00:00:00","postcodeFull":"SY10 8PE","propertyType":"Detached","oldOrNew":"Established","duration":"Freehold","paon":"ROSE COTTAGE","saon":"","street":"","locality":"MELVERLEY","townOrCity":"OSWESTRY","district":"OSWESTRY","county":"SHROPSHIRE","ppdCategoryType":"Standard","recordStatus":"Addition","latitude":52.760031,"longitude":-2.999573,"postcodeStart":"SY10 8","postcode":["SY10","8PE"]}
{"price":57000,"dateOfTransfer":"1995-12-01T00:00:00","postcodeFull":"SY10 8EN","propertyType":"Detached","oldOrNew":"Established","duration":"Freehold","paon":"FAIRFIELDS","saon":"","street":"","locality":"EDGERLEY","townOrCity":"OSWESTRY","district":"OSWESTRY","county":"SHROPSHIRE","ppdCategoryType":"Standard","recordStatus":"Addition","latitude":52.764145,"longitude":-2.96647,"postcodeStart":"SY10 8","postcode":["SY10","8EN"]}
{"price":45000,"dateOfTransfer":"1995-02-10T00:00:00","postcodeFull":"SY10 8RE","propertyType":"Semi-detached","oldOrNew":"New build","duration":"Freehold","paon":"7","saon":"","street":"SYCAMORE FIELDS","locality":"MAESBURY MARSH","townOrCity":"OSWESTRY","district":"OSWESTRY","county":"SHROPSHIRE","ppdCategoryType":"Standard","recordStatus":"Addition","latitude":52.81894,"longitude":-3.02302,"postcodeStart":"SY10 8","postcode":["SY10","8RE"]}
{"price":142000,"dateOfTransfer":"1995-07-26T00:00:00","postcodeFull":"SY10 8JR","propertyType":"Detached","oldOrNew":"Established","duration":"Freehold","paon":"TY NI","saon":"","street":"PENYGARREG RISE","locality":"PANT","townOrCity":"OSWESTRY","district":"NORTH SHROPSHIRE","county":"SHROPSHIRE","ppdCategoryType":"Standard","recordStatus":"Addition","latitude":52.796481,"longitude":-3.073112,"postcodeStart":"SY10 8","postcode":["SY10","8JR"]}
{"price":58000,"dateOfTransfer":"1995-03-31T00:00:00","postcodeFull":"SY10 8DF","propertyType":"Detached","oldOrNew":"Established","duration":"Freehold","paon":"CHURCH HOUSE","saon":"","street":"","locality":"KINNERLEY","townOrCity":"OSWESTRY","district":"OSWESTRY","county":"SHROPSHIRE","ppdCategoryType":"Standard","recordStatus":"Addition","latitude":52.780903,"longitude":-2.981593,"postcodeStart":"SY10 8","postcode":["SY10","8DF"]}
{"price":75000,"dateOfTransfer":"1995-03-20T00:00:00","postcodeFull":"SY10 8NQ","propertyType":"Detached","oldOrNew":"Established","duration":"Freehold","paon":"RIVERSLEA","saon":"","street":"","locality":"LLANYBLODWEL","townOrCity":"OSWESTRY","district":"OSWESTRY","county":"SHROPSHIRE","ppdCategoryType":"Standard","recordStatus":"Addition","latitude":52.798461,"longitude":-3.129049,"postcodeStart":"SY10 8","postcode":["SY10","8NQ"]}
{"price":68500,"dateOfTransfer":"1995-02-27T00:00:00","postcodeFull":"SY10 8DT","propertyType":"Semi-detached","oldOrNew":"Established","duration":"Freehold","paon":"THE HOLLIES","saon":"","street":"","locality":"KNOCKIN HEATH","townOrCity":"OSWESTRY","district":"OSWESTRY","county":"SHROPSHIRE","ppdCategoryType":"Standard","recordStatus":"Addition","latitude":52.785316,"longitude":-2.962061,"postcodeStart":"SY10 8","postcode":["SY10","8DT"]}
{"price":17500,"dateOfTransfer":"1995-07-31T00:00:00","postcodeFull":"SY10 8EJ","propertyType":"Semi-detached","oldOrNew":"Established","duration":"Freehold","paon":"BRIDGE COTTAGE FARM HALL","saon":"2","street":"","locality":"KINNERLEY","townOrCity":"OSWESTRY","district":"OSWESTRY","county":"SHROPSHIRE","ppdCategoryType":"Standard","recordStatus":"Addition","latitude":52.77298,"longitude":-2.98094,"postcodeStart":"SY10 8","postcode":["SY10","8EJ"]}
{"price":39500,"dateOfTransfer":"1995-09-01T00:00:00","postcodeFull":"SY10 8LF","propertyType":"Detached","oldOrNew":"Established","duration":"Freehold","paon":"THE MOUNT","saon":"","street":"TREGARTHEN LANE","locality":"PANT","townOrCity":"OSWESTRY","district":"OSWESTRY","county":"SHROPSHIRE","ppdCategoryType":"Standard","recordStatus":"Addition","latitude":52.795311,"longitude":-3.079224,"postcodeStart":"SY10 8","postcode":["SY10","8LF"]}
{"price":94000,"dateOfTransfer":"1995-03-17T00:00:00","postcodeFull":"SY10 8NF","propertyType":"Detached","oldOrNew":"Established","duration":"Freehold","paon":"FISHERS COTTAGE","saon":"","street":"","locality":"LLANYBLODWEL","townOrCity":"OSWESTRY","district":"OSWESTRY","county":"SHROPSHIRE","ppdCategoryType":"Standard","recordStatus":"Addition","latitude":52.80968,"longitude":-3.147884,"postcodeStart":"SY10 8","postcode":["SY10","8NF"]}
{"price":63000,"dateOfTransfer":"1995-11-07T00:00:00","postcodeFull":"SY10 8LG","propertyType":"Detached","oldOrNew":"Established","duration":"Freehold","paon":"CHERRY COTTAGE","saon":"","street":"","locality":"PANT","townOrCity":"OSWESTRY","district":"OSWESTRY","county":"SHROPSHIRE","ppdCategoryType":"Standard","recordStatus":"Addition","latitude":52.798634,"longitude":-3.08156,"postcodeStart":"SY10 8","postcode":["SY10","8LG"]}
{"price":77750,"dateOfTransfer":"1995-03-03T00:00:00","postcodeFull":"SY10 8LL","propertyType":"Detached","oldOrNew":"Established","duration":"Freehold","paon":"THE CONIFERS","saon":"","street":"TURNERS LANE","locality":"LLYNCLYS","townOrCity":"OSWESTRY","district":"OSWESTRY","county":"SHROPSHIRE","ppdCategoryType":"Standard","recordStatus":"Addition","latitude":52.808015,"longitude":-3.073129,"postcodeStart":"SY10 8","postcode":["SY10","8LL"]}
{"price":83500,"dateOfTransfer":"1995-04-28T00:00:00","postcodeFull":"SY10 8EN","propertyType":"Detached","oldOrNew":"Established","duration":"Freehold","paon":"LITTLE OWL COTTAGE","saon":"","street":"","locality":"EDGERLEY","townOrCity":"OSWESTRY","district":"OSWESTRY","county":"SHROPSHIRE","ppdCategoryType":"Standard","recordStatus":"Addition","latitude":52.764145,"longitude":-2.96647,"postcodeStart":"SY10 8","postcode":["SY10","8EN"]}
{"price":105000,"dateOfTransfer":"1995-11-01T00:00:00","postcodeFull":"SY10 8NQ","propertyType":"Detached","oldOrNew":"Established","duration":"Freehold","paon":"THE FIRS","saon":"","street":"","locality":"LLANYBLODWEL","townOrCity":"OSWESTRY","district":"OSWESTRY","county":"SHROPSHIRE","ppdCategoryType":"Standard","recordStatus":"Addition","latitude":52.798461,"longitude":-3.129049,"postcodeStart":"SY10 8","postcode":["SY10","8NQ"]}
{"price":150783,"dateOfTransfer":"1995-11-24T00:00:00","postcodeFull":"SY10 8DE","propertyType":"Detached","oldOrNew":"Established","duration":"Freehold","paon":"EDGEFIELD HOUSE","saon":"","street":"VICARAGE LANE","locality":"KINNERLEY","townOrCity":"OSWESTRY","district":"OSWESTRY","county":"SHROPSHIRE","ppdCategoryType":"Standard","recordStatus":"Addition","latitude":52.781934,"longitude":-2.985175,"postcodeStart":"SY10 8","postcode":["SY10","8DE"]}
{"price":82500,"dateOfTransfer":"1995-12-15T00:00:00","postcodeFull":"SY10 8BJ","propertyType":"Detached","oldOrNew":"Established","duration":"Freehold","paon":"WERN VILLA","saon":"","street":"","locality":"CRICKHEATH","townOrCity":"OSWESTRY","district":"OSWESTRY","county":"SHROPSHIRE","ppdCategoryType":"Standard","recordStatus":"Addition","latitude":52.804019,"longitude":-3.051551,"postcodeStart":"SY10 8","postcode":["SY10","8BJ"]}
{"price":60000,"dateOfTransfer":"1995-04-12T00:00:00","postcodeFull":"SY10 8LQ","propertyType":"Detached","oldOrNew":"Established","duration":"Freehold","paon":"18","saon":"","street":"DELFAN","locality":"PANT","townOrCity":"OSWESTRY","district":"OSWESTRY","county":"SHROPSHIRE","ppdCategoryType":"Standard","recordStatus":"Addition","latitude":52.794458,"longitude":-3.079113,"postcodeStart":"SY10 8","postcode":["SY10","8LQ"]}
{"price":80000,"dateOfTransfer":"1995-02-24T00:00:00","postcodeFull":"SY10 8DW","propertyType":"Detached","oldOrNew":"Established","duration":"Freehold","paon":"LAUREL BANK","saon":"","street":"","locality":"KINNERLEY","townOrCity":"OSWESTRY","district":"OSWESTRY","county":"SHROPSHIRE","ppdCategoryType":"Standard","recordStatus":"Addition","latitude":52.785223,"longitude":-2.979926,"postcodeStart":"SY10 8","postcode":["SY10","8DW"]}
{"price":45500,"dateOfTransfer":"1995-08-01T00:00:00","postcodeFull":"SY10 8HL","propertyType":"Semi-detached","oldOrNew":"New build","duration":"Freehold","paon":"ROSE COTTAGE","saon":"","street":"","locality":"KNOCKIN","townOrCity":"OSWESTRY","district":"OSWESTRY","county":"SHROPSHIRE","ppdCategoryType":"Standard","recordStatus":"Addition","latitude":52.79343,"longitude":-2.993042,"postcodeStart":"SY10 8","postcode":["SY10","8HL"]}
{"price":65000,"dateOfTransfer":"1995-06-16T00:00:00","postcodeFull":"SY10 8JB","propertyType":"Detached","oldOrNew":"Established","duration":"Freehold","paon":"THE SYCAMORES","saon":"","street":"","locality":"MAESBURY MARSH","townOrCity":"OSWESTRY","district":"OSWESTRY","county":"SHROPSHIRE","ppdCategoryType":"Standard","recordStatus":"Addition","latitude":52.818839,"longitude":-3.020109,"postcodeStart":"SY10 8","postcode":["SY10","8JB"]}
{"price":37500,"dateOfTransfer":"1995-12-20T00:00:00","postcodeFull":"SY10 8AG","propertyType":"Semi-detached","oldOrNew":"Established","duration":"Freehold","paon":"14","saon":"","street":"BRYNMELYN","locality":"LLYNCLYS","townOrCity":"OSWESTRY","district":"OSWESTRY","county":"SHROPSHIRE","ppdCategoryType":"Standard","recordStatus":"Addition","latitude":52.809591,"longitude":-3.061476,"postcodeStart":"SY10 8","postcode":["SY10","8AG"]}
{"price":77550,"dateOfTransfer":"1995-08-31T00:00:00","postcodeFull":"SY10 8NN","propertyType":"Detached","oldOrNew":"Established","duration":"Freehold","paon":"JOHN OSMAN GROUND CARE LTD UNIT 14","saon":"","street":"MAES Y CLAWDD","locality":"OSWESTRY","townOrCity":"OSWESTRY","district":"OSWESTRY","county":"SHROPSHIRE","ppdCategoryType":"Standard","recordStatus":"Addition","latitude":52.845586,"longitude":-3.033994,"postcodeStart":"SY10 8","postcode":["SY10","8NN"]}
{"price":28000,"dateOfTransfer":"1995-04-04T00:00:00","postcodeFull":"SY10 8DF","propertyType":"Detached","oldOrNew":"New build","duration":"Freehold","paon":"ROWAN","saon":"","street":"","locality":"KINNERLEY","townOrCity":"OSWESTRY","district":"OSWESTRY","county":"SHROPSHIRE","ppdCategoryType":"Standard","recordStatus":"Addition","latitude":52.780903,"longitude":-2.981593,"postcodeStart":"SY10 8","postcode":["SY10","8DF"]}
{"price":130000,"dateOfTransfer":"1995-06-23T00:00:00","postcodeFull":"SY10 8DE","propertyType":"Detached","oldOrNew":"Established","duration":"Freehold","paon":"RIVENDELL","saon":"","street":"VICARAGE LANE","locality":"KINNERLEY","townOrCity":"OSWESTRY","district":"OSWESTRY","county":"SHROPSHIRE","ppdCategoryType":"Standard","recordStatus":"Addition","latitude":52.781934,"longitude":-2.985175,"postcodeStart":"SY10 8","postcode":["SY10","8DE"]}
{"price":40000,"dateOfTransfer":"1995-09-29T00:00:00","postcodeFull":"SY10 8BG","propertyType":"Detached","oldOrNew":"Established","duration":"Freehold","paon":"BRIDGE COTTAGE","saon":"","street":"","locality":"MORTON","townOrCity":"OSWESTRY","district":"OSWESTRY","county":"SHROPSHIRE","ppdCategoryType":"Standard","recordStatus":"Addition","latitude":52.803495,"longitude":-3.029347,"postcodeStart":"SY10 8","postcode":["SY10","8BG"]}
{"price":30000,"dateOfTransfer":"1995-06-12T00:00:00","postcodeFull":"SY10 8BD","propertyType":"Detached","oldOrNew":"Established","duration":"Freehold","paon":"GRONWEN COTTAGE","saon":"","street":"","locality":"MORTON","townOrCity":"OSWESTRY","district":"OSWESTRY","county":"SHROPSHIRE","ppdCategoryType":"Standard","recordStatus":"Addition","latitude":52.814901,"longitude":-3.033727,"postcodeStart":"SY10 8","postcode":["SY10","8BD"]}
{"price":52000,"dateOfTransfer":"1995-07-28T00:00:00","postcodeFull":"SY10 8PH","propertyType":"Detached","oldOrNew":"Established","duration":"Freehold","paon":"HENDRE VILLA","saon":"","street":"","locality":"MELVERLEY","townOrCity":"OSWESTRY","district":"OSWESTRY","county":"SHROPSHIRE","ppdCategoryType":"Standard","recordStatus":"Addition","latitude":52.751292,"longitude":-2.996573,"postcodeStart":"SY10 8","postcode":["SY10","8PH"]}
{"price":51000,"dateOfTransfer":"1995-03-24T00:00:00","postcodeFull":"SY10 8JS","propertyType":"Detached","oldOrNew":"Established","duration":"Freehold","paon":"BREIDDEN VIEW","saon":"","street":"PENYGARREG LANE","locality":"PANT","townOrCity":"OSWESTRY","district":"OSWESTRY","county":"SHROPSHIRE","ppdCategoryType":"Standard","recordStatus":"Addition","latitude":52.797555,"longitude":-3.071715,"postcodeStart":"SY10 8","postcode":["SY10","8JS"]}
{"price":129000,"dateOfTransfer":"1995-10-05T00:00:00","postcodeFull":"SY10 8DE","propertyType":"Detached","oldOrNew":"Established","duration":"Freehold","paon":"BRINDLEWOOD","saon":"","street":"VICARAGE LANE","locality":"KINNERLEY","townOrCity":"OSWESTRY","district":"OSWESTRY","county":"SHROPSHIRE","ppdCategoryType":"Standard","recordStatus":"Addition","latitude":52.781934,"longitude":-2.985175,"postcodeStart":"SY10 8","postcode":["SY10","8DE"]}
{"price":48000,"dateOfTransfer":"1995-09-22T00:00:00","postcodeFull":"SY10 8RE","propertyType":"Semi-detached","oldOrNew":"Established","duration":"Freehold","paon":"2","saon":"","street":"SYCAMORE FIELDS","locality":"MAESBURY MARSH","townOrCity":"OSWESTRY","district":"OSWESTRY","county":"SHROPSHIRE","ppdCategoryType":"Standard","recordStatus":"Addition","latitude":52.81894,"longitude":-3.02302,"postcodeStart":"SY10 8","postcode":["SY10","8RE"]}
{"price":37500,"dateOfTransfer":"1995-08-29T00:00:00","postcodeFull":"SY10 8AJ","propertyType":"Detached","oldOrNew":"Established","duration":"Freehold","paon":"IVY COTTAGE","saon":"","street":"","locality":"MORTON","townOrCity":"OSWESTRY","district":"OSWESTRY","county":"SHROPSHIRE","ppdCategoryType":"Standard","recordStatus":"Addition","latitude":52.814229,"longitude":-3.051857,"postcodeStart":"SY10 8","postcode":["SY10","8AJ"]}
{"price":135000,"dateOfTransfer":"1995-04-07T00:00:00","postcodeFull":"SY10 8BP","propertyType":"Detached","oldOrNew":"Established","duration":"Freehold","paon":"YEW TREE FARM","saon":"","street":"","locality":"CRICKHEATH","townOrCity":"OSWESTRY","district":"OSWESTRY","county":"SHROPSHIRE","ppdCategoryType":"Standard","recordStatus":"Addition","latitude":52.799315,"longitude":-3.05482,"postcodeStart":"SY10 8","postcode":["SY10","8BP"]}
{"price":60000,"dateOfTransfer":"1995-01-20T00:00:00","postcodeFull":"SY10 8LQ","propertyType":"Detached","oldOrNew":"Established","duration":"Freehold","paon":"17","saon":"","street":"DELFAN","locality":"PANT","townOrCity":"OSWESTRY","district":"OSWESTRY","county":"SHROPSHIRE","ppdCategoryType":"Standard","recordStatus":"Addition","latitude":52.794458,"longitude":-3.079113,"postcodeStart":"SY10 8","postcode":["SY10","8LQ"]}
{"price":60000,"dateOfTransfer":"1996-08-30T00:00:00","postcodeFull":"SY10 8NQ","propertyType":"Detached","oldOrNew":"Established","duration":"Freehold","paon":"CROSSING COTTAGE","saon":"","street":"","locality":"LLANYBLODWEL","townOrCity":"OSWESTRY","district":"OSWESTRY","county":"SHROPSHIRE","ppdCategoryType":"Standard","recordStatus":"Addition","latitude":52.798461,"longitude":-3.129049,"postcodeStart":"SY10 8","postcode":["SY10","8NQ"]}
{"price":83000,"dateOfTransfer":"1996-05-28T00:00:00","postcodeFull":"SY10 8EN","propertyType":"Detached","oldOrNew":"Established","duration":"Freehold","paon":"HEATHLANDS","saon":"","street":"","locality":"EDGERLEY","townOrCity":"OSWESTRY","district":"OSWESTRY","county":"SHROPSHIRE","ppdCategoryType":"Standard","recordStatus":"Addition","latitude":52.764145,"longitude":-2.96647,"postcodeStart":"SY10 8","postcode":["SY10","8EN"]}
{"price":37500,"dateOfTransfer":"1996-05-08T00:00:00","postcodeFull":"SY10 8HU","propertyType":"Semi-detached","oldOrNew":"Established","duration":"Freehold","paon":"WHIPLANE COTTAGES","saon":"2","street":"WHIP LANE","locality":"KNOCKIN","townOrCity":"OSWESTRY","district":"SHROPSHIRE","county":"SHROPSHIRE","ppdCategoryType":"Standard","recordStatus":"Addition","latitude":52.80352,"longitude":-3.008119,"postcodeStart":"SY10 8","postcode":["SY10","8HU"]}
{"price":52000,"dateOfTransfer":"1996-12-04T00:00:00","postcodeFull":"SY10 8LY","propertyType":"Detached","oldOrNew":"Established","duration":"Freehold","paon":"HAZELDENE","saon":"","street":"","locality":"PORTH Y WAEN","townOrCity":"OSWESTRY","district":"OSWESTRY","county":"SHROPSHIRE","ppdCategoryType":"Standard","recordStatus":"Addition","latitude":52.806581,"longitude":-3.097822,"postcodeStart":"SY10 8","postcode":["SY10","8LY"]}
{"price":112000,"dateOfTransfer":"1996-12-13T00:00:00","postcodeFull":"SY10 8LG","propertyType":"Detached","oldOrNew":"Established","duration":"Freehold","paon":"GREEN CORNER","saon":"","street":"","locality":"PANT","townOrCity":"OSWESTRY","district":"OSWESTRY","county":"SHROPSHIRE","ppdCategoryType":"Standard","recordStatus":"Addition","latitude":52.798634,"longitude":-3.08156,"postcodeStart":"SY10 8","postcode":["SY10","8LG"]}
{"price":53500,"dateOfTransfer":"1996-12-06T00:00:00","postcodeFull":"SY10 8GY","propertyType":"Semi-detached","oldOrNew":"New build","duration":"Freehold","paon":"4","saon":"","street":"ST MARYS CLOSE","locality":"KNOCKIN","townOrCity":"OSWESTRY","district":"OSWESTRY","county":"SHROPSHIRE","ppdCategoryType":"Standard","recordStatus":"Addition","latitude":52.795175,"longitude":-2.990783,"postcodeStart":"SY10 8","postcode":["SY10","8GY"]}
{"price":20000,"dateOfTransfer":"1996-05-31T00:00:00","postcodeFull":"SY10 8ND","propertyType":"Detached","oldOrNew":"Established","duration":"Freehold","paon":"DEERBOURNE","saon":"","street":"","locality":"LLANYBLODWEL","townOrCity":"OSWESTRY","district":"OSWESTRY","county":"SHROPSHIRE","ppdCategoryType":"Standard","recordStatus":"Addition","latitude":52.80165,"longitude":-3.134976,"postcodeStart":"SY10 8","postcode":["SY10","8ND"]}
{"price":105000,"dateOfTransfer":"1996-04-04T00:00:00","postcodeFull":"SY10 8JB","propertyType":"Detached","oldOrNew":"Established","duration":"Freehold","paon":"NAVIGATION INN","saon":"","street":"","locality":"MAESBURY MARSH","townOrCity":"OSWESTRY","district":"SHROPSHIRE","county":"SHROPSHIRE","ppdCategoryType":"Standard","recordStatus":"Addition","latitude":52.818839,"longitude":-3.020109,"postcodeStart":"SY10 8","postcode":["SY10","8JB"]}
{"price":40500,"dateOfTransfer":"1996-02-29T00:00:00","postcodeFull":"SY10 8HA","propertyType":"Detached","oldOrNew":"Established","duration":"Freehold","paon":"BORDER VETERINARY CENTRE","saon":"","street":"MAESBURY ROAD INDUSTRIAL ESTATE","locality":"","townOrCity":"OSWESTRY","district":"SHROPSHIRE","county":"SHROPSHIRE","ppdCategoryType":"Standard","recordStatus":"Addition","latitude":52.848088,"longitude":-3.042888,"postcodeStart":"SY10 8","postcode":["SY10","8HA"]}
{"price":140000,"dateOfTransfer":"1996-05-01T00:00:00","postcodeFull":"SY10 8HQ","propertyType":"Detached","oldOrNew":"Established","duration":"Freehold","paon":"AVENUE MILL","saon":"","street":"","locality":"KNOCKIN","townOrCity":"OSWESTRY","district":"SHROPSHIRE","county":"SHROPSHIRE","ppdCategoryType":"Standard","recordStatus":"Addition","latitude":52.792074,"longitude":-2.981635,"postcodeStart":"SY10 8","postcode":["SY10","8HQ"]}
{"price":84000,"dateOfTransfer":"1996-05-03T00:00:00","postcodeFull":"SY10 8LL","propertyType":"Detached","oldOrNew":"Established","duration":"Freehold","paon":"HASEP","saon":"","street":"","locality":"LLYNCLYS","townOrCity":"OSWESTRY","district":"OSWESTRY","county":"SHROPSHIRE","ppdCategoryType":"Standard","recordStatus":"Addition","latitude":52.808015,"longitude":-3.073129,"postcodeStart":"SY10 8","postcode":["SY10","8LL"]}
{"price":55000,"dateOfTransfer":"1996-03-22T00:00:00","postcodeFull":"SY10 8AN","propertyType":"Detached","oldOrNew":"Established","duration":"Freehold","paon":"BANK HOUSE","saon":"","street":"","locality":"MORTON","townOrCity":"OSWESTRY","district":"OSWESTRY","county":"SHROPSHIRE","ppdCategoryType":"Standard","recordStatus":"Addition","latitude":52.818096,"longitude":-3.0472,"postcodeStart":"SY10 8","postcode":["SY10","8AN"]}
{"price":75000,"dateOfTransfer":"1996-09-20T00:00:00","postcodeFull":"SY10 8BJ","propertyType":"Detached","oldOrNew":"New build","duration":"Freehold","paon":"THE MALLARDS","saon":"","street":"","locality":"CRICKHEATH","townOrCity":"OSWESTRY","district":"SHROPSHIRE","county":"SHROPSHIRE","ppdCategoryType":"Standard","recordStatus":"Addition","latitude":52.804019,"longitude":-3.051551,"postcodeStart":"SY10 8","postcode":["SY10","8BJ"]}
{"price":58000,"dateOfTransfer":"1996-07-31T00:00:00","postcodeFull":"SY10 8LQ","propertyType":"Detached","oldOrNew":"Established","duration":"Freehold","paon":"2","saon":"","street":"DELFAN","locality":"PANT","townOrCity":"OSWESTRY","district":"OSWESTRY","county":"SHROPSHIRE","ppdCategoryType":"Standard","recordStatus":"Addition","latitude":52.794458,"longitude":-3.079113,"postcodeStart":"SY10 8","postcode":["SY10","8LQ"]}
{"price":55000,"dateOfTransfer":"1996-03-11T00:00:00","postcodeFull":"SY10 8AT","propertyType":"Detached","oldOrNew":"Established","duration":"Freehold","paon":"SYLFAEN","saon":"","street":"BALL LANE","locality":"MAESBURY","townOrCity":"OSWESTRY","district":"OSWESTRY","county":"SHROPSHIRE","ppdCategoryType":"Standard","recordStatus":"Addition","latitude":52.827966,"longitude":-3.03402,"postcodeStart":"SY10 8","postcode":["SY10","8AT"]}
{"price":82000,"dateOfTransfer":"1996-12-20T00:00:00","postcodeFull":"SY10 8QP","propertyType":"Detached","oldOrNew":"Established","duration":"Freehold","paon":"BRONAWEL","saon":"","street":"","locality":"MAESBROOK","townOrCity":"OSWESTRY","district":"OSWESTRY","county":"SHROPSHIRE","ppdCategoryType":"Standard","recordStatus":"Addition","latitude":52.784345,"longitude":-3.0373,"postcodeStart":"SY10 8","postcode":["SY10","8QP"]}
{"price":58000,"dateOfTransfer":"1996-10-25T00:00:00","postcodeFull":"SY10 8JU","propertyType":"Detached","oldOrNew":"Established","duration":"Freehold","paon":"4","saon":"","street":"RHIEW REVEL LANE","locality":"PANT","townOrCity":"OSWESTRY","district":"OSWESTRY","county":"SHROPSHIRE","ppdCategoryType":"Standard","recordStatus":"Addition","latitude":52.788904,"longitude":-3.078961,"postcodeStart":"SY10 8","postcode":["SY10","8JU"]}
{"price":26166,"dateOfTransfer":"1996-11-11T00:00:00","postcodeFull":"SY10 8AG","propertyType":"Semi-detached","oldOrNew":"Established","duration":"Freehold","paon":"24","saon":"","street":"BRYNMELYN","locality":"LLYNCLYS","townOrCity":"OSWESTRY","district":"OSWESTRY","county":"SHROPSHIRE","ppdCategoryType":"Standard","recordStatus":"Addition","latitude":52.809591,"longitude":-3.061476,"postcodeStart":"SY10 8","postcode":["SY10","8AG"]}
{"price":290000,"dateOfTransfer":"1996-02-01T00:00:00","postcodeFull":"SY10 8QR","propertyType":"Detached","oldOrNew":"Established","duration":"Freehold","paon":"THE COURTYARD","saon":"","street":"","locality":"MAESBROOK","townOrCity":"OSWESTRY","district":"OSWESTRY","county":"SHROPSHIRE","ppdCategoryType":"Standard","recordStatus":"Addition","latitude":52.786819,"longitude":-3.043275,"postcodeStart":"SY10 8","postcode":["SY10","8QR"]}
{"price":72000,"dateOfTransfer":"1996-05-28T00:00:00","postcodeFull":"SY10 8DF","propertyType":"Detached","oldOrNew":"Established","duration":"Freehold","paon":"MAESERCROFT","saon":"","street":"","locality":"KINNERLEY","townOrCity":"OSWESTRY","district":"OSWESTRY","county":"SHROPSHIRE","ppdCategoryType":"Standard","recordStatus":"Addition","latitude":52.780903,"longitude":-2.981593,"postcodeStart":"SY10 8","postcode":["SY10","8DF"]}
{"price":53500,"dateOfTransfer":"1996-12-06T00:00:00","postcodeFull":"SY10 8GZ","propertyType":"Semi-detached","oldOrNew":"New build","duration":"Freehold","paon":"19","saon":"","street":"CHURCH LANE","locality":"KNOCKIN","townOrCity":"OSWESTRY","district":"OSWESTRY","county":"SHROPSHIRE","ppdCategoryType":"Standard","recordStatus":"Addition","latitude":52.795233,"longitude":-2.990206,"postcodeStart":"SY10 8","postcode":["SY10","8GZ"]}
{"price":45000,"dateOfTransfer":"1996-05-03T00:00:00","postcodeFull":"SY10 8LN","propertyType":"Semi-detached","oldOrNew":"Established","duration":"Freehold","paon":"15","saon":"","street":"DOLGOCH","locality":"PORTH Y WAEN","townOrCity":"OSWESTRY","district":"OSWESTRY","county":"SHROPSHIRE","ppdCategoryType":"Standard","recordStatus":"Addition","latitude":52.810865,"longitude":-3.074075,"postcodeStart":"SY10 8","postcode":["SY10","8LN"]}
{"price":161000,"dateOfTransfer":"1996-11-29T00:00:00","postcodeFull":"SY10 8HY","propertyType":"Detached","oldOrNew":"Established","duration":"Freehold","paon":"WOOLSTON GRANGE","saon":"","street":"","locality":"WOOLSTON","townOrCity":"OSWESTRY","district":"OSWESTRY","county":"SHROPSHIRE","ppdCategoryType":"Standard","recordStatus":"Addition","latitude":52.812384,"longitude":-3.005015,"postcodeStart":"SY10 8","postcode":["SY10","8HY"]}
{"price":53500,"dateOfTransfer":"1996-11-29T00:00:00","postcodeFull":"SY10 8GY","propertyType":"Semi-detached","oldOrNew":"New build","duration":"Freehold","paon":"6","saon":"","street":"ST MARYS CLOSE","locality":"KNOCKIN","townOrCity":"OSWESTRY","district":"OSWESTRY","county":"SHROPSHIRE","ppdCategoryType":"Standard","recordStatus":"Addition","latitude":52.795175,"longitude":-2.990783,"postcodeStart":"SY10 8","postcode":["SY10","8GY"]}
{"price":60000,"dateOfTransfer":"1996-09-12T00:00:00","postcodeFull":"SY10 8LY","propertyType":"Detached","oldOrNew":"Established","duration":"Freehold","paon":"LAUREL HOUSE","saon":"","street":"","locality":"PORTH Y WAEN","townOrCity":"OSWESTRY","district":"OSWESTRY","county":"SHROPSHIRE","ppdCategoryType":"Standard","recordStatus":"Addition","latitude":52.806581,"longitude":-3.097822,"postcodeStart":"SY10 8","postcode":["SY10","8LY"]}
{"price":47500,"dateOfTransfer":"1996-04-04T00:00:00","postcodeFull":"SY10 8QL","propertyType":"Detached","oldOrNew":"Established","duration":"Freehold","paon":"THE MOAT","saon":"","street":"","locality":"MAESBROOK","townOrCity":"OSWESTRY","district":"OSWESTRY","county":"SHROPSHIRE","ppdCategoryType":"Standard","recordStatus":"Addition","latitude":52.77459,"longitude":-3.021888,"postcodeStart":"SY10 8","postcode":["SY10","8QL"]}
{"price":27000,"dateOfTransfer":"1996-01-05T00:00:00","postcodeFull":"SY10 8JH","propertyType":"Detached","oldOrNew":"Established","duration":"Freehold","paon":"CHAIN COTTAGE","saon":"","street":"","locality":"MAESBURY MARSH","townOrCity":"OSWESTRY","district":"OSWESTRY","county":"SHROPSHIRE","ppdCategoryType":"Standard","recordStatus":"Addition","latitude":52.821911,"longitude":-3.024603,"postcodeStart":"SY10 8","postcode":["SY10","8JH"]}
{"price":76000,"dateOfTransfer":"1996-11-22T00:00:00","postcodeFull":"SY10 8AJ","propertyType":"Semi-detached","oldOrNew":"Established","duration":"Freehold","paon":"THE OLD SCHOOL","saon":"","street":"","locality":"MORTON","townOrCity":"OSWESTRY","district":"OSWESTRY","county":"SHROPSHIRE","ppdCategoryType":"Standard","recordStatus":"Addition","latitude":52.814229,"longitude":-3.051857,"postcodeStart":"SY10 8","postcode":["SY10","8AJ"]}
{"price":58000,"dateOfTransfer":"1996-07-25T00:00:00","postcodeFull":"SY10 8HJ","propertyType":"Detached","oldOrNew":"Established","duration":"Freehold","paon":"PORCH COTTAGE","saon":"","street":"","locality":"KNOCKIN","townOrCity":"OSWESTRY","district":"OSWESTRY","county":"SHROPSHIRE","ppdCategoryType":"Standard","recordStatus":"Addition","latitude":52.794214,"longitude":-2.991681,"postcodeStart":"SY10 8","postcode":["SY10","8HJ"]}
{"price":60000,"dateOfTransfer":"1996-05-01T00:00:00","postcodeFull":"SY10 8EA","propertyType":"Detached","oldOrNew":"Established","duration":"Freehold","paon":"FOX COTTAGE","saon":"","street":"","locality":"KNOCKIN HEATH","townOrCity":"OSWESTRY","district":"OSWESTRY","county":"SHROPSHIRE","ppdCategoryType":"Standard","recordStatus":"Addition","latitude":52.78273,"longitude":-2.954469,"postcodeStart":"SY10 8","postcode":["SY10","8EA"]}
{"price":77500,"dateOfTransfer":"1996-11-29T00:00:00","postcodeFull":"SY10 8GY","propertyType":"Detached","oldOrNew":"New build","duration":"Freehold","paon":"8","saon":"","street":"ST MARYS CLOSE","locality":"KNOCKIN","townOrCity":"OSWESTRY","district":"OSWESTRY","county":"SHROPSHIRE","ppdCategoryType":"Standard","recordStatus":"Addition","latitude":52.795175,"longitude":-2.990783,"postcodeStart":"SY10 8","postcode":["SY10","8GY"]}
{"price":84000,"dateOfTransfer":"1996-07-16T00:00:00","postcodeFull":"SY10 8JS","propertyType":"Detached","oldOrNew":"Established","duration":"Freehold","paon":"MAGNOLIA","saon":"","street":"PENYGARREG LANE","locality":"PANT","townOrCity":"OSWESTRY","district":"OSWESTRY","county":"SHROPSHIRE","ppdCategoryType":"Standard","recordStatus":"Addition","latitude":52.797555,"longitude":-3.071715,"postcodeStart":"SY10 8","postcode":["SY10","8JS"]}
{"price":49500,"dateOfTransfer":"1996-03-18T00:00:00","postcodeFull":"SY10 8LL","propertyType":"Semi-detached","oldOrNew":"Established","duration":"Freehold","paon":"BRYNTIRION","saon":"","street":"","locality":"LLYNCLYS","townOrCity":"OSWESTRY","district":"OSWESTRY","county":"SHROPSHIRE","ppdCategoryType":"Standard","recordStatus":"Addition","latitude":52.808015,"longitude":-3.073129,"postcodeStart":"SY10 8","postcode":["SY10","8LL"]}
{"price":160100,"dateOfTransfer":"1996-09-16T00:00:00","postcodeFull":"SY10 8HR","propertyType":"Detached","oldOrNew":"Established","duration":"Freehold","paon":"THE WAEN","saon":"","street":"","locality":"KNOCKIN","townOrCity":"OSWESTRY","district":"OSWESTRY","county":"SHROPSHIRE","ppdCategoryType":"Standard","recordStatus":"Addition","latitude":52.792398,"longitude":-3.00626,"postcodeStart":"SY10 8","postcode":["SY10","8HR"]}
{"price":87500,"dateOfTransfer":"1996-02-02T00:00:00","postcodeFull":"SY10 8HS","propertyType":"Detached","oldOrNew":"Established","duration":"Freehold","paon":"OLD ABBEY","saon":"","street":"","locality":"OSBASTON","townOrCity":"OSWESTRY","district":"OSWESTRY","county":"SHROPSHIRE","ppdCategoryType":"Standard","recordStatus":"Addition","latitude":52.799072,"longitude":-3.006283,"postcodeStart":"SY10 8","postcode":["SY10","8HS"]}
{"price":38000,"dateOfTransfer":"1996-12-19T00:00:00","postcodeFull":"SY10 8AJ","propertyType":"Semi-detached","oldOrNew":"Established","duration":"Freehold","paon":"SUNNYHURST","saon":"1","street":"","locality":"MORTON","townOrCity":"OSWESTRY","district":"OSWESTRY","county":"SHROPSHIRE","ppdCategoryType":"Standard","recordStatus":"Addition","latitude":52.814229,"longitude":-3.051857,"postcodeStart":"SY10 8","postcode":["SY10","8AJ"]}
{"price":70000,"dateOfTransfer":"1996-04-30T00:00:00","postcodeFull":"SY10 8AE","propertyType":"Detached","oldOrNew":"Established","duration":"Freehold","paon":"THE GROVE","saon":"","street":"","locality":"LLYNCLYS","townOrCity":"OSWESTRY","district":"OSWESTRY","county":"SHROPSHIRE","ppdCategoryType":"Standard","recordStatus":"Addition","latitude":52.812122,"longitude":-3.065367,"postcodeStart":"SY10 8","postcode":["SY10","8AE"]}
{"price":73250,"dateOfTransfer":"1996-11-29T00:00:00","postcodeFull":"SY10 8HJ","propertyType":"Detached","oldOrNew":"New build","duration":"Freehold","paon":"CAEDWEN","saon":"","street":"","locality":"KNOCKIN","townOrCity":"OSWESTRY","district":"OSWESTRY","county":"SHROPSHIRE","ppdCategoryType":"Standard","recordStatus":"Addition","latitude":52.794214,"longitude":-2.991681,"postcodeStart":"SY10 8","postcode":["SY10","8HJ"]}
{"price":72000,"dateOfTransfer":"1996-03-29T00:00:00","postcodeFull":"SY10 8LY","propertyType":"Detached","oldOrNew":"Established","duration":"Freehold","paon":"CALA SONA","saon":"","street":"","locality":"PORTH Y WAEN","townOrCity":"OSWESTRY","district":"OSWESTRY","county":"SHROPSHIRE","ppdCategoryType":"Standard","recordStatus":"Addition","latitude":52.806581,"longitude":-3.097822,"postcodeStart":"SY10 8","postcode":["SY10","8LY"]}
{"price":59500,"dateOfTransfer":"1996-12-20T00:00:00","postcodeFull":"SY10 8GY","propertyType":"Detached","oldOrNew":"New build","duration":"Freehold","paon":"2","saon":"","street":"ST MARYS CLOSE","locality":"KNOCKIN","townOrCity":"OSWESTRY","district":"OSWESTRY","county":"SHROPSHIRE","ppdCategoryType":"Standard","recordStatus":"Addition","latitude":52.795175,"longitude":-2.990783,"postcodeStart":"SY10 8","postcode":["SY10","8GY"]}
{"price":36000,"dateOfTransfer":"1996-04-30T00:00:00","postcodeFull":"SY10 8BQ","propertyType":"Detached","oldOrNew":"Established","duration":"Freehold","paon":"REDWITH COTTAGE","saon":"","street":"","locality":"MORTON","townOrCity":"OSWESTRY","district":"OSWESTRY","county":"SHROPSHIRE","ppdCategoryType":"Standard","recordStatus":"Addition","latitude":52.81,"longitude":-3.048194,"postcodeStart":"SY10 8","postcode":["SY10","8BQ"]}
{"price":140000,"dateOfTransfer":"1996-07-10T00:00:00","postcodeFull":"SY10 8AD","propertyType":"Detached","oldOrNew":"Established","duration":"Freehold","paon":"KINTON HOUSE","saon":"","street":"","locality":"SWEENEY","townOrCity":"OSWESTRY","district":"OSWESTRY","county":"SHROPSHIRE","ppdCategoryType":"Standard","recordStatus":"Addition","latitude":52.821551,"longitude":-3.05843,"postcodeStart":"SY10 8","postcode":["SY10","8AD"]}
{"price":83000,"dateOfTransfer":"1996-03-20T00:00:00","postcodeFull":"SY10 8DH","propertyType":"Detached","oldOrNew":"Established","duration":"Freehold","paon":"WAVERLEY","saon":"","street":"","locality":"KINNERLEY","townOrCity":"OSWESTRY","district":"OSWESTRY","county":"SHROPSHIRE","ppdCategoryType":"Standard","recordStatus":"Addition","latitude":52.781917,"longitude":-2.990035,"postcodeStart":"SY10 8","postcode":["SY10","8DH"]}
{"price":188000,"dateOfTransfer":"1996-01-17T00:00:00","postcodeFull":"SY10 8DE","propertyType":"Detached","oldOrNew":"Established","duration":"Freehold","paon":"THE OLD VICARAGE","saon":"","street":"VICARAGE LANE","locality":"KINNERLEY","townOrCity":"OSWESTRY","district":"SHROPSHIRE","county":"SHROPSHIRE","ppdCategoryType":"Standard","recordStatus":"Addition","latitude":52.781934,"longitude":-2.985175,"postcodeStart":"SY10 8","postcode":["SY10","8DE"]}
{"price":30000,"dateOfTransfer":"1996-11-20T00:00:00","postcodeFull":"SY10 8EL","propertyType":"Detached","oldOrNew":"Established","duration":"Freehold","paon":"BURNT HOUSE","saon":"","street":"","locality":"KINNERLEY","townOrCity":"OSWESTRY","district":"OSWESTRY","county":"SHROPSHIRE","ppdCategoryType":"Standard","recordStatus":"Addition","latitude":52.77081,"longitude":-2.980269,"postcodeStart":"SY10 8","postcode":["SY10","8EL"]}
{"price":84000,"dateOfTransfer":"1997-10-16T00:00:00","postcodeFull":"SY10 8LL","propertyType":"Detached","oldOrNew":"Established","duration":"Freehold","paon":"TREMEMAWR","saon":"","street":"TURNERS LANE","locality":"LLYNCLYS","townOrCity":"OSWESTRY","district":"OSWESTRY","county":"SHROPSHIRE","ppdCategoryType":"Standard","recordStatus":"Addition","latitude":52.808015,"longitude":-3.073129,"postcodeStart":"SY10 8","postcode":["SY10","8LL"]}
{"price":76000,"dateOfTransfer":"1997-12-05T00:00:00","postcodeFull":"SY10 8EB","propertyType":"Detached","oldOrNew":"Established","duration":"Freehold","paon":"SEVEN OAKS","saon":"","street":"CHAPEL LANE","locality":"KNOCKIN HEATH","townOrCity":"OSWESTRY","district":"OSWESTRY","county":"SHROPSHIRE","ppdCategoryType":"Standard","recordStatus":"Addition","latitude":52.7831,"longitude":-2.958112,"postcodeStart":"SY10 8","postcode":["SY10","8EB"]}
{"price":66000,"dateOfTransfer":"1997-07-25T00:00:00","postcodeFull":"SY10 8HH","propertyType":"Detached","oldOrNew":"Established","duration":"Freehold","paon":"ROSE COTTAGE","saon":"","street":"CHURCH LANE","locality":"KNOCKIN","townOrCity":"OSWESTRY","district":"OSWESTRY","county":"SHROPSHIRE","ppdCategoryType":"Standard","recordStatus":"Addition","latitude":52.795084,"longitude":-2.989802,"postcodeStart":"SY10 8","postcode":["SY10","8HH"]}
{"price":53500,"dateOfTransfer":"1997-01-03T00:00:00","postcodeFull":"SY10 8GZ","propertyType":"Semi-detached","oldOrNew":"New build","duration":"Freehold","paon":"17","saon":"","street":"CHURCH LANE","locality":"KNOCKIN","townOrCity":"OSWESTRY","district":"OSWESTRY","county":"SHROPSHIRE","ppdCategoryType":"Standard","recordStatus":"Addition","latitude":52.795233,"longitude":-2.990206,"postcodeStart":"SY10 8","postcode":["SY10","8GZ"]}
{"price":48000,"dateOfTransfer":"1997-08-01T00:00:00","postcodeFull":"SY10 8AU","propertyType":"Detached","oldOrNew":"Established","duration":"Freehold","paon":"3","saon":"","street":"PAINT MILL COTTAGES","locality":"MAESBURY","townOrCity":"OSWESTRY","district":"OSWESTRY","county":"SHROPSHIRE","ppdCategoryType":"Standard","recordStatus":"Addition","latitude":52.824464,"longitude":-3.033998,"postcodeStart":"SY10 8","postcode":["SY10","8AU"]}
{"price":80000,"dateOfTransfer":"1997-11-07T00:00:00","postcodeFull":"SY10 8AE","propertyType":"Detached","oldOrNew":"Established","duration":"Freehold","paon":"THE GROVE","saon":"","street":"","locality":"LLYNCLYS","townOrCity":"OSWESTRY","district":"OSWESTRY","county":"SHROPSHIRE","ppdCategoryType":"Standard","recordStatus":"Addition","latitude":52.812122,"longitude":-3.065367,"postcodeStart":"SY10 8","postcode":["SY10","8AE"]}
{"price":80000,"dateOfTransfer":"1997-12-19T00:00:00","postcodeFull":"SY10 8AP","propertyType":"Detached","oldOrNew":"Established","duration":"Freehold","paon":"CLEMENT COTTAGE","saon":"","street":"","locality":"GWERN Y BRENIN","townOrCity":"OSWESTRY","district":"OSWESTRY","county":"SHROPSHIRE","ppdCategoryType":"Standard","recordStatus":"Addition","latitude":52.826029,"longitude":-3.039972,"postcodeStart":"SY10 8","postcode":["SY10","8AP"]}
{"price":89000,"dateOfTransfer":"1997-04-14T00:00:00","postcodeFull":"SY10 8HJ","propertyType":"Detached","oldOrNew":"Established","duration":"Freehold","paon":"DUNVEGAN","saon":"","street":"","locality":"KNOCKIN","townOrCity":"OSWESTRY","district":"OSWESTRY","county":"SHROPSHIRE","ppdCategoryType":"Standard","recordStatus":"Addition","latitude":52.794214,"longitude":-2.991681,"postcodeStart":"SY10 8","postcode":["SY10","8HJ"]}
{"price":78500,"dateOfTransfer":"1997-11-17T00:00:00","postcodeFull":"SY10 8DT","propertyType":"Detached","oldOrNew":"Established","duration":"Freehold","paon":"WHITE COTTAGE","saon":"","street":"","locality":"KNOCKIN HEATH","townOrCity":"OSWESTRY","district":"OSWESTRY","county":"SHROPSHIRE","ppdCategoryType":"Standard","recordStatus":"Addition","latitude":52.785316,"longitude":-2.962061,"postcodeStart":"SY10 8","postcode":["SY10","8DT"]}
{"price":45000,"dateOfTransfer":"1997-05-30T00:00:00","postcodeFull":"SY10 8PF","propertyType":"Detached","oldOrNew":"Established","duration":"Freehold","paon":"FIR TREE","saon":"","street":"","locality":"MELVERLEY","townOrCity":"OSWESTRY","district":"OSWESTRY","county":"SHROPSHIRE","ppdCategoryType":"Standard","recordStatus":"Addition","latitude":52.757798,"longitude":-2.992528,"postcodeStart":"SY10 8","postcode":["SY10","8PF"]}
{"price":67500,"dateOfTransfer":"1997-06-20T00:00:00","postcodeFull":"SY10 8LG","propertyType":"Detached","oldOrNew":"Established","duration":"Freehold","paon":"LITTLE HAVEN","saon":"","street":"","locality":"PANT","townOrCity":"OSWESTRY","district":"OSWESTRY","county":"SHROPSHIRE","ppdCategoryType":"Standard","recordStatus":"Addition","latitude":52.798634,"longitude":-3.08156,"postcodeStart":"SY10 8","postcode":["SY10","8LG"]}
{"price":280000,"dateOfTransfer":"1997-08-29T00:00:00","postcodeFull":"SY10 8HY","propertyType":"Detached","oldOrNew":"Established","duration":"Freehold","paon":"WOOLSTON FARM COTTAGE","saon":"","street":"","locality":"WOOLSTON","townOrCity":"OSWESTRY","district":"OSWESTRY","county":"SHROPSHIRE","ppdCategoryType":"Standard","recordStatus":"Addition","latitude":52.812384,"longitude":-3.005015,"postcodeStart":"SY10 8","postcode":["SY10","8HY"]}
{"price":67500,"dateOfTransfer":"1997-05-30T00:00:00","postcodeFull":"SY10 8JR","propertyType":"Detached","oldOrNew":"Established","duration":"Freehold","paon":"1","saon":"","street":"PENYGARREG RISE","locality":"PANT","townOrCity":"OSWESTRY","district":"OSWESTRY","county":"SHROPSHIRE","ppdCategoryType":"Standard","recordStatus":"Addition","latitude":52.796481,"longitude":-3.073112,"postcodeStart":"SY10 8","postcode":["SY10","8JR"]}
{"price":47000,"dateOfTransfer":"1997-05-02T00:00:00","postcodeFull":"SY10 8HX","propertyType":"Semi-detached","oldOrNew":"Established","duration":"Freehold","paon":"MOORSIDE COTTAGES","saon":"1","street":"","locality":"WOOLSTON","townOrCity":"OSWESTRY","district":"OSWESTRY","county":"SHROPSHIRE","ppdCategoryType":"Standard","recordStatus":"Addition","latitude":52.810408,"longitude":-2.997776,"postcodeStart":"SY10 8","postcode":["SY10","8HX"]}
{"price":95250,"dateOfTransfer":"1997-08-08T00:00:00","postcodeFull":"SY10 8PP","propertyType":"Detached","oldOrNew":"Established","duration":"Freehold","paon":"OUR HOUSE","saon":"","street":"BRIGGS LANE","locality":"PANT","townOrCity":"OSWESTRY","district":"OSWESTRY","county":"SHROPSHIRE","ppdCategoryType":"Standard","recordStatus":"Addition","latitude":52.792473,"longitude":-3.078939,"postcodeStart":"SY10 8","postcode":["SY10","8PP"]}
{"price":77000,"dateOfTransfer":"1997-08-20T00:00:00","postcodeFull":"SY10 8BJ","propertyType":"Detached","oldOrNew":"New build","duration":"Freehold","paon":"CANAL REACH","saon":"","street":"","locality":"CRICKHEATH","townOrCity":"OSWESTRY","district":"OSWESTRY","county":"SHROPSHIRE","ppdCategoryType":"Standard","recordStatus":"Addition","latitude":52.804019,"longitude":-3.051551,"postcodeStart":"SY10 8","postcode":["SY10","8BJ"]}
{"price":57000,"dateOfTransfer":"1997-01-22T00:00:00","postcodeFull":"SY10 8JA","propertyType":"Semi-detached","oldOrNew":"Established","duration":"Freehold","paon":"ST. WINIFREDS COTTAGE","saon":"","street":"","locality":"MAESBURY MARSH","townOrCity":"OSWESTRY","district":"SHROPSHIRE","county":"SHROPSHIRE","ppdCategoryType":"Standard","recordStatus":"Addition","latitude":52.816813,"longitude":-3.018444,"postcodeStart":"SY10 8","postcode":["SY10","8JA"]}
{"price":59995,"dateOfTransfer":"1997-03-27T00:00:00","postcodeFull":"SY10 8GY","propertyType":"Detached","oldOrNew":"New build","duration":"Freehold","paon":"1","saon":"","street":"ST MARYS CLOSE","locality":"KNOCKIN","townOrCity":"OSWESTRY","district":"OSWESTRY","county":"SHROPSHIRE","ppdCategoryType":"Standard","recordStatus":"Addition","latitude":52.795175,"longitude":-2.990783,"postcodeStart":"SY10 8","postcode":["SY10","8GY"]}
{"price":66500,"dateOfTransfer":"1997-03-27T00:00:00","postcodeFull":"SY10 8GY","propertyType":"Detached","oldOrNew":"New build","duration":"Freehold","paon":"3","saon":"","street":"ST MARYS CLOSE","locality":"KNOCKIN","townOrCity":"OSWESTRY","district":"OSWESTRY","county":"SHROPSHIRE","ppdCategoryType":"Standard","recordStatus":"Addition","latitude":52.795175,"longitude":-2.990783,"postcodeStart":"SY10 8","postcode":["SY10","8GY"]}
{"price":180000,"dateOfTransfer":"1997-09-15T00:00:00","postcodeFull":"SY10 8QE","propertyType":"Detached","oldOrNew":"Established","duration":"Freehold","paon":"PAPER MILL","saon":"","street":"","locality":"MAESBROOK","townOrCity":"OSWESTRY","district":"OSWESTRY","county":"SHROPSHIRE","ppdCategoryType":"Standard","recordStatus":"Addition","latitude":52.779232,"longitude":-3.044265,"postcodeStart":"SY10 8","postcode":["SY10","8QE"]}
{"price":96000,"dateOfTransfer":"1997-04-10T00:00:00","postcodeFull":"SY10 8AX","propertyType":"Detached","oldOrNew":"Established","duration":"Freehold","paon":"STATEFIELD","saon":"","street":"","locality":"MAESBURY","townOrCity":"OSWESTRY","district":"NORTH SHROPSHIRE","county":"SHROPSHIRE","ppdCategoryType":"Standard","recordStatus":"Addition","latitude":52.826445,"longitude":-3.031448,"postcodeStart":"SY10 8","postcode":["SY10","8AX"]}
{"price":105000,"dateOfTransfer":"1997-07-22T00:00:00","postcodeFull":"SY10 8JS","propertyType":"Detached","oldOrNew":"Established","duration":"Freehold","paon":"THE CREST","saon":"","street":"PENYGARREG LANE","locality":"PANT","townOrCity":"OSWESTRY","district":"OSWESTRY","county":"SHROPSHIRE","ppdCategoryType":"Standard","recordStatus":"Addition","latitude":52.797555,"longitude":-3.071715,"postcodeStart":"SY10 8","postcode":["SY10","8JS"]}
{"price":83500,"dateOfTransfer":"1997-09-03T00:00:00","postcodeFull":"SY10 8AJ","propertyType":"Detached","oldOrNew":"Established","duration":"Freehold","paon":"IVY COTTAGE","saon":"(BEBBINGTON)","street":"","locality":"MORTON","townOrCity":"OSWESTRY","district":"OSWESTRY","county":"SHROPSHIRE","ppdCategoryType":"Standard","recordStatus":"Addition","latitude":52.814229,"longitude":-3.051857,"postcodeStart":"SY10 8","postcode":["SY10","8AJ"]}
{"price":95000,"dateOfTransfer":"1997-03-21T00:00:00","postcodeFull":"SY10 8EN","propertyType":"Detached","oldOrNew":"Established","duration":"Freehold","paon":"BARN COTTAGE","saon":"","street":"","locality":"EDGERLEY","townOrCity":"OSWESTRY","district":"OSWESTRY","county":"SHROPSHIRE","ppdCategoryType":"Standard","recordStatus":"Addition","latitude":52.764145,"longitude":-2.96647,"postcodeStart":"SY10 8","postcode":["SY10","8EN"]}
{"price":102500,"dateOfTransfer":"1997-08-11T00:00:00","postcodeFull":"SY10 8DJ","propertyType":"Detached","oldOrNew":"Established","duration":"Freehold","paon":"PEAR TREE COTTAGE","saon":"","street":"","locality":"KINNERLEY","townOrCity":"OSWESTRY","district":"OSWESTRY","county":"SHROPSHIRE","ppdCategoryType":"Standard","recordStatus":"Addition","latitude":52.777778,"longitude":-3.000588,"postcodeStart":"SY10 8","postcode":["SY10","8DJ"]}
{"price":56000,"dateOfTransfer":"1997-06-03T00:00:00","postcodeFull":"SY10 8LY","propertyType":"Detached","oldOrNew":"Established","duration":"Freehold","paon":"CHILLINGWORTH","saon":"","street":"","locality":"PORTH Y WAEN","townOrCity":"OSWESTRY","district":"OSWESTRY","county":"SHROPSHIRE","ppdCategoryType":"Standard","recordStatus":"Addition","latitude":52.806581,"longitude":-3.097822,"postcodeStart":"SY10 8","postcode":["SY10","8LY"]}
{"price":52000,"dateOfTransfer":"1997-08-08T00:00:00","postcodeFull":"SY10 8LF","propertyType":"Semi-detached","oldOrNew":"Established","duration":"Freehold","paon":"RACHIE","saon":"","street":"TREGARTHEN LANE","locality":"PANT","townOrCity":"OSWESTRY","district":"OSWESTRY","county":"SHROPSHIRE","ppdCategoryType":"Standard","recordStatus":"Addition","latitude":52.795311,"longitude":-3.079224,"postcodeStart":"SY10 8","postcode":["SY10","8LF"]}
{"price":83500,"dateOfTransfer":"1997-06-12T00:00:00","postcodeFull":"SY10 8DT","propertyType":"Semi-detached","oldOrNew":"Established","duration":"Freehold","paon":"THE HOLLIES","saon":"","street":"","locality":"KNOCKIN HEATH","townOrCity":"OSWESTRY","district":"OSWESTRY","county":"SHROPSHIRE","ppdCategoryType":"Standard","recordStatus":"Addition","latitude":52.785316,"longitude":-2.962061,"postcodeStart":"SY10 8","postcode":["SY10","8DT"]}
{"price":85000,"dateOfTransfer":"1997-03-06T00:00:00","postcodeFull":"SY10 8JB","propertyType":"Detached","oldOrNew":"Established","duration":"Freehold","paon":"DESANDRA","saon":"","street":"","locality":"MAESBURY MARSH","townOrCity":"OSWESTRY","district":"OSWESTRY","county":"SHROPSHIRE","ppdCategoryType":"Standard","recordStatus":"Addition","latitude":52.818839,"longitude":-3.020109,"postcodeStart":"SY10 8","postcode":["SY10","8JB"]}
{"price":52000,"dateOfTransfer":"1997-09-12T00:00:00","postcodeFull":"SY10 8GZ","propertyType":"Semi-detached","oldOrNew":"Established","duration":"Freehold","paon":"17","saon":"","street":"CHURCH LANE","locality":"KNOCKIN","townOrCity":"OSWESTRY","district":"OSWESTRY","county":"SHROPSHIRE","ppdCategoryType":"Standard","recordStatus":"Addition","latitude":52.795233,"longitude":-2.990206,"postcodeStart":"SY10 8","postcode":["SY10","8GZ"]}
{"price":71000,"dateOfTransfer":"1997-11-28T00:00:00","postcodeFull":"SY10 8PP","propertyType":"Semi-detached","oldOrNew":"Established","duration":"Freehold","paon":"WALNUT TREE COTTAGE","saon":"","street":"BRIGGS LANE","locality":"PANT","townOrCity":"OSWESTRY","district":"OSWESTRY","county":"SHROPSHIRE","ppdCategoryType":"Standard","recordStatus":"Addition","latitude":52.792473,"longitude":-3.078939,"postcodeStart":"SY10 8","postcode":["SY10","8PP"]}
{"price":44000,"dateOfTransfer":"1997-05-30T00:00:00","postcodeFull":"SY10 8ED","propertyType":"Semi-detached","oldOrNew":"Established","duration":"Freehold","paon":"STONE HOUSE HOLDING","saon":"","street":"CHAPEL LANE","locality":"KNOCKIN HEATH","townOrCity":"OSWESTRY","district":"OSWESTRY","county":"SHROPSHIRE","ppdCategoryType":"Standard","recordStatus":"Addition","latitude":52.782349,"longitude":-2.958985,"postcodeStart":"SY10 8","postcode":["SY10","8ED"]}
{"price":114950,"dateOfTransfer":"1997-05-30T00:00:00","postcodeFull":"SY10 8JS","propertyType":"Detached","oldOrNew":"Established","duration":"Freehold","paon":"BROCKLYN","saon":"","street":"PENYGARREG LANE","locality":"PANT","townOrCity":"OSWESTRY","district":"OSWESTRY","county":"SHROPSHIRE","ppdCategoryType":"Standard","recordStatus":"Addition","latitude":52.797555,"longitude":-3.071715,"postcodeStart":"SY10 8","postcode":["SY10","8JS"]}
{"price":75000,"dateOfTransfer":"1997-08-01T00:00:00","postcodeFull":"SY10 8AJ","propertyType":"Semi-detached","oldOrNew":"Established","duration":"Freehold","paon":"SUNNYHURST","saon":"2","street":"","locality":"MORTON","townOrCity":"OSWESTRY","district":"OSWESTRY","county":"SHROPSHIRE","ppdCategoryType":"Standard","recordStatus":"Addition","latitude":52.814229,"longitude":-3.051857,"postcodeStart":"SY10 8","postcode":["SY10","8AJ"]}
{"price":140000,"dateOfTransfer":"1997-07-18T00:00:00","postcodeFull":"SY10 8DB","propertyType":"Detached","oldOrNew":"Established","duration":"Freehold","paon":"THE FIRS","saon":"","street":"","locality":"KINNERLEY","townOrCity":"OSWESTRY","district":"OSWESTRY","county":"SHROPSHIRE","ppdCategoryType":"Standard","recordStatus":"Addition","latitude":52.785623,"longitude":-2.985552,"postcodeStart":"SY10 8","postcode":["SY10","8DB"]}
{"price":80000,"dateOfTransfer":"1997-07-04T00:00:00","postcodeFull":"SY10 8JJ","propertyType":"Detached","oldOrNew":"Established","duration":"Freehold","paon":"WITTON","saon":"","street":"CHAIN LANE","locality":"MAESBURY","townOrCity":"OSWESTRY","district":"OSWESTRY","county":"SHROPSHIRE","ppdCategoryType":"Standard","recordStatus":"Addition","latitude":52.826057,"longitude":-3.023927,"postcodeStart":"SY10 8","postcode":["SY10","8JJ"]}
{"price":90800,"dateOfTransfer":"1997-09-12T00:00:00","postcodeFull":"SY10 8EA","propertyType":"Detached","oldOrNew":"Established","duration":"Freehold","paon":"CANDLIN","saon":"","street":"","locality":"KNOCKIN HEATH","townOrCity":"OSWESTRY","district":"OSWESTRY","county":"SHROPSHIRE","ppdCategoryType":"Standard","recordStatus":"Addition","latitude":52.78273,"longitude":-2.954469,"postcodeStart":"SY10 8","postcode":["SY10","8EA"]}
{"price":75000,"dateOfTransfer":"1997-06-06T00:00:00","postcodeFull":"SY10 8JH","propertyType":"Detached","oldOrNew":"Established","duration":"Freehold","paon":"HOBNOB HOUSE","saon":"","street":"","locality":"MAESBURY MARSH","townOrCity":"OSWESTRY","district":"OSWESTRY","county":"SHROPSHIRE","ppdCategoryType":"Standard","recordStatus":"Addition","latitude":52.821911,"longitude":-3.024603,"postcodeStart":"SY10 8","postcode":["SY10","8JH"]}
{"price":70000,"dateOfTransfer":"1997-07-10T00:00:00","postcodeFull":"SY10 8JY","propertyType":"Detached","oldOrNew":"Established","duration":"Freehold","paon":"BODWELA COTTAGE","saon":"","street":"","locality":"PANT","townOrCity":"OSWESTRY","district":"OSWESTRY","county":"SHROPSHIRE","ppdCategoryType":"Standard","recordStatus":"Addition","latitude":52.793863,"longitude":-3.072008,"postcodeStart":"SY10 8","postcode":["SY10","8JY"]}
{"price":77500,"dateOfTransfer":"1997-03-27T00:00:00","postcodeFull":"SY10 8GY","propertyType":"Detached","oldOrNew":"New build","duration":"Freehold","paon":"7","saon":"","street":"ST MARYS CLOSE","locality":"KNOCKIN","townOrCity":"OSWESTRY","district":"OSWESTRY","county":"SHROPSHIRE","ppdCategoryType":"Standard","recordStatus":"Addition","latitude":52.795175,"longitude":-2.990783,"postcodeStart":"SY10 8","postcode":["SY10","8GY"]}
{"price":92000,"dateOfTransfer":"1997-08-15T00:00:00","postcodeFull":"SY10 8LX","propertyType":"Detached","oldOrNew":"Established","duration":"Freehold","paon":"THE PADDOCKS","saon":"","street":"","locality":"PORTH Y WAEN","townOrCity":"OSWESTRY","district":"OSWESTRY","county":"SHROPSHIRE","ppdCategoryType":"Standard","recordStatus":"Addition","latitude":52.806067,"longitude":-3.093524,"postcodeStart":"SY10 8","postcode":["SY10","8LX"]}
{"price":30000,"dateOfTransfer":"1997-06-13T00:00:00","postcodeFull":"SY10 8HL","propertyType":"Semi-detached","oldOrNew":"Established","duration":"Freehold","paon":"JASSIMINE COTTAGE","saon":"","street":"","locality":"KNOCKIN","townOrCity":"OSWESTRY","district":"OSWESTRY","county":"SHROPSHIRE","ppdCategoryType":"Standard","recordStatus":"Addition","latitude":52.79343,"longitude":-2.993042,"postcodeStart":"SY10 8","postcode":["SY10","8HL"]}
{"price":89000,"dateOfTransfer":"1997-05-07T00:00:00","postcodeFull":"SY10 8HJ","propertyType":"Detached","oldOrNew":"Established","duration":"Freehold","paon":"JUNIPER COTTAGE","saon":"","street":"","locality":"KNOCKIN","townOrCity":"OSWESTRY","district":"OSWESTRY","county":"SHROPSHIRE","ppdCategoryType":"Standard","recordStatus":"Addition","latitude":52.794214,"longitude":-2.991681,"postcodeStart":"SY10 8","postcode":["SY10","8HJ"]}
{"price":58950,"dateOfTransfer":"1997-10-17T00:00:00","postcodeFull":"SY10 8NE","propertyType":"Semi-detached","oldOrNew":"Established","duration":"Freehold","paon":"PROSPECT COTTAGE","saon":"","street":"","locality":"LLANYBLODWEL","townOrCity":"OSWESTRY","district":"OSWESTRY","county":"SHROPSHIRE","ppdCategoryType":"Standard","recordStatus":"Addition","latitude":52.808826,"longitude":-3.124362,"postcodeStart":"SY10 8","postcode":["SY10","8NE"]}
{"price":72500,"dateOfTransfer":"1997-07-14T00:00:00","postcodeFull":"SY10 8HL","propertyType":"Semi-detached","oldOrNew":"Established","duration":"Freehold","paon":"GREENFIELDS","saon":"","street":"","locality":"KNOCKIN","townOrCity":"OSWESTRY","district":"OSWESTRY","county":"SHROPSHIRE","ppdCategoryType":"Standard","recordStatus":"Addition","latitude":52.79343,"longitude":-2.993042,"postcodeStart":"SY10 8","postcode":["SY10","8HL"]}
{"price":123000,"dateOfTransfer":"1997-11-28T00:00:00","postcodeFull":"SY10 8LB","propertyType":"Detached","oldOrNew":"Established","duration":"Freehold","paon":"SKYLARKS","saon":"","street":"","locality":"PANT","townOrCity":"OSWESTRY","district":"OSWESTRY","county":"SHROPSHIRE","ppdCategoryType":"Standard","recordStatus":"Addition","latitude":52.792892,"longitude":-3.083272,"postcodeStart":"SY10 8","postcode":["SY10","8LB"]}
{"price":74000,"dateOfTransfer":"1997-10-08T00:00:00","postcodeFull":"SY10 8AH","propertyType":"Detached","oldOrNew":"Established","duration":"Freehold","paon":"THE CROFT","saon":"","street":"","locality":"MORTON","townOrCity":"OSWESTRY","district":"OSWESTRY","county":"SHROPSHIRE","ppdCategoryType":"Standard","recordStatus":"Addition","latitude":52.80928,"longitude":-3.054393,"postcodeStart":"SY10 8","postcode":["SY10","8AH"]}
{"price":59500,"dateOfTransfer":"1997-03-27T00:00:00","postcodeFull":"SY10 8GY","propertyType":"Detached","oldOrNew":"New build","duration":"Freehold","paon":"5","saon":"","street":"ST MARYS CLOSE","locality":"KNOCKIN","townOrCity":"OSWESTRY","district":"OSWESTRY","county":"SHROPSHIRE","ppdCategoryType":"Standard","recordStatus":"Addition","latitude":52.795175,"longitude":-2.990783,"postcodeStart":"SY10 8","postcode":["SY10","8GY"]}
{"price":67500,"dateOfTransfer":"1997-07-10T00:00:00","postcodeFull":"SY10 8AS","propertyType":"Semi-detached","oldOrNew":"Established","duration":"Freehold","paon":"HAWKESWORTH","saon":"","street":"","locality":"GWERN Y BRENIN","townOrCity":"OSWESTRY","district":"OSWESTRY","county":"SHROPSHIRE","ppdCategoryType":"Standard","recordStatus":"Addition","latitude":52.829414,"longitude":-3.039474,"postcodeStart":"SY10 8","postcode":["SY10","8AS"]}
{"price":42500,"dateOfTransfer":"1997-11-14T00:00:00","postcodeFull":"SY10 8LY","propertyType":"Detached","oldOrNew":"Established","duration":"Freehold","paon":"TANYBRYN","saon":"","street":"","locality":"PORTH Y WAEN","townOrCity":"OSWESTRY","district":"OSWESTRY","county":"SHROPSHIRE","ppdCategoryType":"Standard","recordStatus":"Addition","latitude":52.806581,"longitude":-3.097822,"postcodeStart":"SY10 8","postcode":["SY10","8LY"]}
{"price":41350,"dateOfTransfer":"1997-10-31T00:00:00","postcodeFull":"SY10 8HL","propertyType":"Semi-detached","oldOrNew":"Established","duration":"Freehold","paon":"GRANARY COTTAGE","saon":"","street":"","locality":"KNOCKIN","townOrCity":"OSWESTRY","district":"OSWESTRY","county":"SHROPSHIRE","ppdCategoryType":"Standard","recordStatus":"Addition","latitude":52.79343,"longitude":-2.993042,"postcodeStart":"SY10 8","postcode":["SY10","8HL"]}
{"price":75500,"dateOfTransfer":"1997-07-31T00:00:00","postcodeFull":"SY10 8DB","propertyType":"Detached","oldOrNew":"Established","duration":"Freehold","paon":"LOUGHRIGG","saon":"","street":"","locality":"KINNERLEY","townOrCity":"OSWESTRY","district":"OSWESTRY","county":"SHROPSHIRE","ppdCategoryType":"Standard","recordStatus":"Addition","latitude":52.785623,"longitude":-2.985552,"postcodeStart":"SY10 8","postcode":["SY10","8DB"]}
{"price":62000,"dateOfTransfer":"1997-09-26T00:00:00","postcodeFull":"SY10 8LY","propertyType":"Detached","oldOrNew":"Established","duration":"Freehold","paon":"HAZELDENE","saon":"","street":"","locality":"PORTH Y WAEN","townOrCity":"OSWESTRY","district":"OSWESTRY","county":"SHROPSHIRE","ppdCategoryType":"Standard","recordStatus":"Addition","latitude":52.806581,"longitude":-3.097822,"postcodeStart":"SY10 8","postcode":["SY10","8LY"]}
{"price":72500,"dateOfTransfer":"1998-01-09T00:00:00","postcodeFull":"SY10 8PJ","propertyType":"Detached","oldOrNew":"Established","duration":"Freehold","paon":"THE BUNGALOW","saon":"","street":"","locality":"MELVERLEY","townOrCity":"OSWESTRY","district":"OSWESTRY","county":"SHROPSHIRE","ppdCategoryType":"Standard","recordStatus":"Addition","latitude":52.743078,"longitude":-2.988653,"postcodeStart":"SY10 8","postcode":["SY10","8PJ"]}
{"price":67500,"dateOfTransfer":"1998-06-11T00:00:00","postcodeFull":"SY10 8LL","propertyType":"Detached","oldOrNew":"Established","duration":"Freehold","paon":"THE ROWANS","saon":"","street":"TURNERS LANE","locality":"LLYNCLYS","townOrCity":"OSWESTRY","district":"OSWESTRY","county":"SHROPSHIRE","ppdCategoryType":"Standard","recordStatus":"Addition","latitude":52.808015,"longitude":-3.073129,"postcodeStart":"SY10 8","postcode":["SY10","8LL"]}
{"price":131000,"dateOfTransfer":"1998-07-16T00:00:00","postcodeFull":"SY10 8DP","propertyType":"Detached","oldOrNew":"Established","duration":"Freehold","paon":"MEADOWBANK LODGE","saon":"","street":"","locality":"DOVASTON","townOrCity":"OSWESTRY","district":"OSWESTRY","county":"SHROPSHIRE","ppdCategoryType":"Standard","recordStatus":"Addition","latitude":52.784532,"longitude":-2.972156,"postcodeStart":"SY10 8","postcode":["SY10","8DP"]}
{"price":83000,"dateOfTransfer":"1998-09-11T00:00:00","postcodeFull":"SY10 8AH","propertyType":"Detached","oldOrNew":"Established","duration":"Freehold","paon":"YEW TREE","saon":"","street":"","locality":"MORTON","townOrCity":"OSWESTRY","district":"OSWESTRY","county":"SHROPSHIRE","ppdCategoryType":"Standard","recordStatus":"Addition","latitude":52.80928,"longitude":-3.054393,"postcodeStart":"SY10 8","postcode":["SY10","8AH"]}
{"price":76000,"dateOfTransfer":"1998-10-14T00:00:00","postcodeFull":"SY10 8NQ","propertyType":"Detached","oldOrNew":"Established","duration":"Freehold","paon":"THE BARN","saon":"","street":"","locality":"LLANYBLODWEL","townOrCity":"OSWESTRY","district":"OSWESTRY","county":"SHROPSHIRE","ppdCategoryType":"Standard","recordStatus":"Addition","latitude":52.798461,"longitude":-3.129049,"postcodeStart":"SY10 8","postcode":["SY10","8NQ"]}
{"price":44950,"dateOfTransfer":"1998-09-02T00:00:00","postcodeFull":"SY10 8LN","propertyType":"Semi-detached","oldOrNew":"Established","duration":"Freehold","paon":"42","saon":"","street":"DOLGOCH","locality":"PORTH Y WAEN","townOrCity":"OSWESTRY","district":"OSWESTRY","county":"SHROPSHIRE","ppdCategoryType":"Standard","recordStatus":"Addition","latitude":52.810865,"longitude":-3.074075,"postcodeStart":"SY10 8","postcode":["SY10","8LN"]}
{"price":52000,"dateOfTransfer":"1998-08-14T00:00:00","postcodeFull":"SY10 8EA","propertyType":"Detached","oldOrNew":"Established","duration":"Freehold","paon":"OAKDENE","saon":"","street":"","locality":"KNOCKIN HEATH","townOrCity":"OSWESTRY","district":"OSWESTRY","county":"SHROPSHIRE","ppdCategoryType":"Standard","recordStatus":"Addition","latitude":52.78273,"longitude":-2.954469,"postcodeStart":"SY10 8","postcode":["SY10","8EA"]}
{"price":149000,"dateOfTransfer":"1998-12-17T00:00:00","postcodeFull":"SY10 8DE","propertyType":"Detached","oldOrNew":"Established","duration":"Freehold","paon":"EDGEFIELD HOUSE","saon":"","street":"VICARAGE LANE","locality":"KINNERLEY","townOrCity":"OSWESTRY","district":"OSWESTRY","county":"SHROPSHIRE","ppdCategoryType":"Standard","recordStatus":"Addition","latitude":52.781934,"longitude":-2.985175,"postcodeStart":"SY10 8","postcode":["SY10","8DE"]}
{"price":48000,"dateOfTransfer":"1998-07-03T00:00:00","postcodeFull":"SY10 8LR","propertyType":"Detached","oldOrNew":"Established","duration":"Freehold","paon":"ROCK COTTAGE","saon":"","street":"","locality":"PORTH Y WAEN","townOrCity":"OSWESTRY","district":"OSWESTRY","county":"SHROPSHIRE","ppdCategoryType":"Standard","recordStatus":"Addition","latitude":52.810244,"longitude":-3.081107,"postcodeStart":"SY10 8","postcode":["SY10","8LR"]}
{"price":47000,"dateOfTransfer":"1998-04-03T00:00:00","postcodeFull":"SY10 8EL","propertyType":"Semi-detached","oldOrNew":"Established","duration":"Freehold","paon":"PENTEG","saon":"5","street":"","locality":"KINNERLEY","townOrCity":"OSWESTRY","district":"OSWESTRY","county":"SHROPSHIRE","ppdCategoryType":"Standard","recordStatus":"Addition","latitude":52.77081,"longitude":-2.980269,"postcodeStart":"SY10 8","postcode":["SY10","8EL"]}
{"price":107000,"dateOfTransfer":"1998-05-06T00:00:00","postcodeFull":"SY10 8JU","propertyType":"Detached","oldOrNew":"Established","duration":"Freehold","paon":"SHILO","saon":"","street":"RHIEW REVEL LANE","locality":"PANT","townOrCity":"OSWESTRY","district":"OSWESTRY","county":"SHROPSHIRE","ppdCategoryType":"Standard","recordStatus":"Addition","latitude":52.788904,"longitude":-3.078961,"postcodeStart":"SY10 8","postcode":["SY10","8JU"]}
{"price":58000,"dateOfTransfer":"1998-11-27T00:00:00","postcodeFull":"SY10 8RE","propertyType":"Semi-detached","oldOrNew":"Established","duration":"Freehold","paon":"6","saon":"","street":"SYCAMORE FIELDS","locality":"MAESBURY MARSH","townOrCity":"OSWESTRY","district":"OSWESTRY","county":"SHROPSHIRE","ppdCategoryType":"Standard","recordStatus":"Addition","latitude":52.81894,"longitude":-3.02302,"postcodeStart":"SY10 8","postcode":["SY10","8RE"]}
{"price":86000,"dateOfTransfer":"1998-08-27T00:00:00","postcodeFull":"SY10 8JR","propertyType":"Detached","oldOrNew":"Established","duration":"Freehold","paon":"KIRKERA","saon":"","street":"PENYGARREG RISE","locality":"PANT","townOrCity":"OSWESTRY","district":"OSWESTRY","county":"SHROPSHIRE","ppdCategoryType":"Standard","recordStatus":"Addition","latitude":52.796481,"longitude":-3.073112,"postcodeStart":"SY10 8","postcode":["SY10","8JR"]}
{"price":132050,"dateOfTransfer":"1998-07-10T00:00:00","postcodeFull":"SY10 8HN","propertyType":"Detached","oldOrNew":"Established","duration":"Freehold","paon":"SUNNYBANK","saon":"","street":"","locality":"KNOCKIN","townOrCity":"OSWESTRY","district":"OSWESTRY","county":"SHROPSHIRE","ppdCategoryType":"Standard","recordStatus":"Addition","latitude":52.793803,"longitude":-2.99425,"postcodeStart":"SY10 8","postcode":["SY10","8HN"]}
{"price":185000,"dateOfTransfer":"1998-06-19T00:00:00","postcodeFull":"SY10 8AS","propertyType":"Detached","oldOrNew":"Established","duration":"Freehold","paon":"BROOKLANDS","saon":"","street":"","locality":"GWERN Y BRENIN","townOrCity":"OSWESTRY","district":"OSWESTRY","county":"SHROPSHIRE","ppdCategoryType":"Standard","recordStatus":"Addition","latitude":52.829414,"longitude":-3.039474,"postcodeStart":"SY10 8","postcode":["SY10","8AS"]}
{"price":80000,"dateOfTransfer":"1998-03-13T00:00:00","postcodeFull":"SY10 8NF","propertyType":"Semi-detached","oldOrNew":"Established","duration":"Freehold","paon":"BRYNARDD","saon":"2","street":"","locality":"LLANYBLODWEL","townOrCity":"OSWESTRY","district":"OSWESTRY","county":"SHROPSHIRE","ppdCategoryType":"Standard","recordStatus":"Addition","latitude":52.80968,"longitude":-3.147884,"postcodeStart":"SY10 8","postcode":["SY10","8NF"]}
{"price":59950,"dateOfTransfer":"1998-03-20T00:00:00","postcodeFull":"SY10 8HD","propertyType":"Detached","oldOrNew":"Established","duration":"Freehold","paon":"TYNTSFIELD","saon":"","street":"","locality":"MAESBURY","townOrCity":"OSWESTRY","district":"OSWESTRY","county":"SHROPSHIRE","ppdCategoryType":"Standard","recordStatus":"Addition","latitude":52.829031,"longitude":-3.030424,"postcodeStart":"SY10 8","postcode":["SY10","8HD"]}
{"price":68500,"dateOfTransfer":"1998-10-05T00:00:00","postcodeFull":"SY10 8DT","propertyType":"Semi-detached","oldOrNew":"Established","duration":"Freehold","paon":"THE ELMS","saon":"","street":"","locality":"KNOCKIN HEATH","townOrCity":"OSWESTRY","district":"OSWESTRY","county":"SHROPSHIRE","ppdCategoryType":"Standard","recordStatus":"Addition","latitude":52.785316,"longitude":-2.962061,"postcodeStart":"SY10 8","postcode":["SY10","8DT"]}
{"price":495000,"dateOfTransfer":"1998-11-25T00:00:00","postcodeFull":"SY10 8NF","propertyType":"Detached","oldOrNew":"Established","duration":"Freehold","paon":"GLANRAFON HALL","saon":"","street":"","locality":"LLANYBLODWEL","townOrCity":"OSWESTRY","district":"OSWESTRY","county":"SHROPSHIRE","ppdCategoryType":"Standard","recordStatus":"Addition","latitude":52.80968,"longitude":-3.147884,"postcodeStart":"SY10 8","postcode":["SY10","8NF"]}
{"price":88000,"dateOfTransfer":"1998-07-14T00:00:00","postcodeFull":"SY10 8JH","propertyType":"Detached","oldOrNew":"Established","duration":"Freehold","paon":"LEES","saon":"","street":"","locality":"MAESBURY MARSH","townOrCity":"OSWESTRY","district":"OSWESTRY","county":"SHROPSHIRE","ppdCategoryType":"Standard","recordStatus":"Addition","latitude":52.821911,"longitude":-3.024603,"postcodeStart":"SY10 8","postcode":["SY10","8JH"]}
{"price":68000,"dateOfTransfer":"1998-11-25T00:00:00","postcodeFull":"SY10 8HX","propertyType":"Semi-detached","oldOrNew":"Established","duration":"Freehold","paon":"MOORSIDE COTTAGES","saon":"1","street":"","locality":"WOOLSTON","townOrCity":"OSWESTRY","district":"OSWESTRY","county":"SHROPSHIRE","ppdCategoryType":"Standard","recordStatus":"Addition","latitude":52.810408,"longitude":-2.997776,"postcodeStart":"SY10 8","postcode":["SY10","8HX"]}
{"price":97500,"dateOfTransfer":"1998-07-27T00:00:00","postcodeFull":"SY10 8PR","propertyType":"Detached","oldOrNew":"New build","duration":"Freehold","paon":"5","saon":"","street":"THE MEADOWS","locality":"PANT","townOrCity":"OSWESTRY","district":"OSWESTRY","county":"SHROPSHIRE","ppdCategoryType":"Standard","recordStatus":"Addition","latitude":52.792865,"longitude":-3.08026,"postcodeStart":"SY10 8","postcode":["SY10","8PR"]}
{"price":160000,"dateOfTransfer":"1998-02-06T00:00:00","postcodeFull":"SY10 8PE","propertyType":"Detached","oldOrNew":"Established","duration":"Freehold","paon":"THE FORGE","saon":"","street":"","locality":"MELVERLEY","townOrCity":"OSWESTRY","district":"OSWESTRY","county":"SHROPSHIRE","ppdCategoryType":"Standard","recordStatus":"Addition","latitude":52.760031,"longitude":-2.999573,"postcodeStart":"SY10 8","postcode":["SY10","8PE"]}
{"price":140000,"dateOfTransfer":"1998-10-02T00:00:00","postcodeFull":"SY10 8JA","propertyType":"Detached","oldOrNew":"Established","duration":"Freehold","paon":"STONE HOUSE","saon":"","street":"","locality":"MAESBURY MARSH","townOrCity":"OSWESTRY","district":"OSWESTRY","county":"SHROPSHIRE","ppdCategoryType":"Standard","recordStatus":"Addition","latitude":52.816813,"longitude":-3.018444,"postcodeStart":"SY10 8","postcode":["SY10","8JA"]}
{"price":102500,"dateOfTransfer":"1998-02-06T00:00:00","postcodeFull":"SY10 8EE","propertyType":"Detached","oldOrNew":"Established","duration":"Freehold","paon":"BANK HOUSE","saon":"","street":"","locality":"PLASSEY","townOrCity":"OSWESTRY","district":"OSWESTRY","county":"SHROPSHIRE","ppdCategoryType":"Standard","recordStatus":"Addition","latitude":52.77949,"longitude":-2.96423,"postcodeStart":"SY10 8","postcode":["SY10","8EE"]}
{"price":62000,"dateOfTransfer":"1998-08-07T00:00:00","postcodeFull":"SY10 8AF","propertyType":"Detached","oldOrNew":"Established","duration":"Freehold","paon":"FAIRVIEW","saon":"","street":"","locality":"LLYNCLYS","townOrCity":"OSWESTRY","district":"OSWESTRY","county":"SHROPSHIRE","ppdCategoryType":"Standard","recordStatus":"Addition","latitude":52.809326,"longitude":-3.06337,"postcodeStart":"SY10 8","postcode":["SY10","8AF"]}
{"price":74000,"dateOfTransfer":"1998-08-10T00:00:00","postcodeFull":"SY10 8LQ","propertyType":"Detached","oldOrNew":"Established","duration":"Freehold","paon":"18","saon":"","street":"DELFAN","locality":"PANT","townOrCity":"OSWESTRY","district":"OSWESTRY","county":"SHROPSHIRE","ppdCategoryType":"Standard","recordStatus":"Addition","latitude":52.794458,"longitude":-3.079113,"postcodeStart":"SY10 8","postcode":["SY10","8LQ"]}
{"price":57000,"dateOfTransfer":"1998-07-10T00:00:00","postcodeFull":"SY10 8JP","propertyType":"Detached","oldOrNew":"Established","duration":"Freehold","paon":"1","saon":"","street":"PENYGARREG CLOSE","locality":"PANT","townOrCity":"OSWESTRY","district":"OSWESTRY","county":"SHROPSHIRE","ppdCategoryType":"Standard","recordStatus":"Addition","latitude":52.796324,"longitude":-3.073657,"postcodeStart":"SY10 8","postcode":["SY10","8JP"]}
{"price":112000,"dateOfTransfer":"1998-03-31T00:00:00","postcodeFull":"SY10 8HQ","propertyType":"Detached","oldOrNew":"Established","duration":"Freehold","paon":"OLD SCHOOL HOUSE","saon":"","street":"","locality":"KNOCKIN","townOrCity":"OSWESTRY","district":"OSWESTRY","county":"SHROPSHIRE","ppdCategoryType":"Standard","recordStatus":"Addition","latitude":52.792074,"longitude":-2.981635,"postcodeStart":"SY10 8","postcode":["SY10","8HQ"]}
{"price":57500,"dateOfTransfer":"1998-12-23T00:00:00","postcodeFull":"SY10 8ED","propertyType":"Semi-detached","oldOrNew":"Established","duration":"Freehold","paon":"THE OWLS","saon":"","street":"CHAPEL LANE","locality":"KNOCKIN HEATH","townOrCity":"OSWESTRY","district":"OSWESTRY","county":"SHROPSHIRE","ppdCategoryType":"Standard","recordStatus":"Addition","latitude":52.782349,"longitude":-2.958985,"postcodeStart":"SY10 8","postcode":["SY10","8ED"]}
{"price":12500,"dateOfTransfer":"1998-05-08T00:00:00","postcodeFull":"SY10 8DG","propertyType":"Semi-detached","oldOrNew":"New build","duration":"Freehold","paon":"8","saon":"","street":"POWIS CLOSE","locality":"PANT","townOrCity":"OSWESTRY","district":"OSWESTRY","county":"SHROPSHIRE","ppdCategoryType":"Standard","recordStatus":"Addition","latitude":52.794723,"longitude":-3.075664,"postcodeStart":"SY10 8","postcode":["SY10","8DG"]}
{"price":270000,"dateOfTransfer":"1998-05-14T00:00:00","postcodeFull":"SY10 8NH","propertyType":"Detached","oldOrNew":"Established","duration":"Freehold","paon":"BUTLER EQUIPMENT SALES","saon":"","street":"GLOVERS MEADOW","locality":"","townOrCity":"OSWESTRY","district":"SHROPSHIRE","county":"SHROPSHIRE","ppdCategoryType":"Standard","recordStatus":"Addition","latitude":52.84894,"longitude":-3.040043,"postcodeStart":"SY10 8","postcode":["SY10","8NH"]}
{"price":89000,"dateOfTransfer":"1998-04-08T00:00:00","postcodeFull":"SY10 8BN","propertyType":"Detached","oldOrNew":"Established","duration":"Freehold","paon":"NEWTON GRANGE","saon":"","street":"","locality":"CRICKHEATH","townOrCity":"OSWESTRY","district":"OSWESTRY","county":"SHROPSHIRE","ppdCategoryType":"Standard","recordStatus":"Addition","latitude":52.802278,"longitude":-3.051213,"postcodeStart":"SY10 8","postcode":["SY10","8BN"]}
{"price":64500,"dateOfTransfer":"1998-05-22T00:00:00","postcodeFull":"SY10 8EN","propertyType":"Detached","oldOrNew":"Established","duration":"Freehold","paon":"PEAR TREE COTTAGE","saon":"","street":"","locality":"EDGERLEY","townOrCity":"OSWESTRY","district":"OSWESTRY","county":"SHROPSHIRE","ppdCategoryType":"Standard","recordStatus":"Addition","latitude":52.764145,"longitude":-2.96647,"postcodeStart":"SY10 8","postcode":["SY10","8EN"]}
{"price":104000,"dateOfTransfer":"1998-05-01T00:00:00","postcodeFull":"SY10 8PR","propertyType":"Detached","oldOrNew":"New build","duration":"Freehold","paon":"2","saon":"","street":"THE MEADOWS","locality":"PANT","townOrCity":"OSWESTRY","district":"OSWESTRY","county":"SHROPSHIRE","ppdCategoryType":"Standard","recordStatus":"Addition","latitude":52.792865,"longitude":-3.08026,"postcodeStart":"SY10 8","postcode":["SY10","8PR"]}
{"price":65000,"dateOfTransfer":"1998-07-17T00:00:00","postcodeFull":"SY10 8LQ","propertyType":"Detached","oldOrNew":"Established","duration":"Freehold","paon":"10","saon":"","street":"DELFAN","locality":"PANT","townOrCity":"OSWESTRY","district":"OSWESTRY","county":"SHROPSHIRE","ppdCategoryType":"Standard","recordStatus":"Addition","latitude":52.794458,"longitude":-3.079113,"postcodeStart":"SY10 8","postcode":["SY10","8LQ"]}
{"price":12500,"dateOfTransfer":"1998-03-26T00:00:00","postcodeFull":"SY10 8DG","propertyType":"Semi-detached","oldOrNew":"New build","duration":"Freehold","paon":"2","saon":"","street":"POWIS CLOSE","locality":"PANT","townOrCity":"OSWESTRY","district":"OSWESTRY","county":"SHROPSHIRE","ppdCategoryType":"Standard","recordStatus":"Addition","latitude":52.794723,"longitude":-3.075664,"postcodeStart":"SY10 8","postcode":["SY10","8DG"]}
{"price":220000,"dateOfTransfer":"1998-07-01T00:00:00","postcodeFull":"SY10 8LY","propertyType":"Detached","oldOrNew":"Established","duration":"Freehold","paon":"LAUREL HOUSE","saon":"","street":"","locality":"PORTH Y WAEN","townOrCity":"OSWESTRY","district":"OSWESTRY","county":"SHROPSHIRE","ppdCategoryType":"Standard","recordStatus":"Addition","latitude":52.806581,"longitude":-3.097822,"postcodeStart":"SY10 8","postcode":["SY10","8LY"]}
{"price":61000,"dateOfTransfer":"1998-10-26T00:00:00","postcodeFull":"SY10 8EE","propertyType":"Detached","oldOrNew":"Established","duration":"Freehold","paon":"PLASAU COTTAGE","saon":"","street":"","locality":"PLASSEY","townOrCity":"OSWESTRY","district":"OSWESTRY","county":"SHROPSHIRE","ppdCategoryType":"Standard","recordStatus":"Addition","latitude":52.77949,"longitude":-2.96423,"postcodeStart":"SY10 8","postcode":["SY10","8EE"]}
{"price":63000,"dateOfTransfer":"1998-06-30T00:00:00","postcodeFull":"SY10 8LQ","propertyType":"Detached","oldOrNew":"Established","duration":"Freehold","paon":"17","saon":"","street":"DELFAN","locality":"PANT","townOrCity":"OSWESTRY","district":"OSWESTRY","county":"SHROPSHIRE","ppdCategoryType":"Standard","recordStatus":"Addition","latitude":52.794458,"longitude":-3.079113,"postcodeStart":"SY10 8","postcode":["SY10","8LQ"]}
{"price":93950,"dateOfTransfer":"1998-08-27T00:00:00","postcodeFull":"SY10 8PR","propertyType":"Detached","oldOrNew":"New build","duration":"Freehold","paon":"6","saon":"","street":"THE MEADOWS","locality":"PANT","townOrCity":"OSWESTRY","district":"OSWESTRY","county":"SHROPSHIRE","ppdCategoryType":"Standard","recordStatus":"Addition","latitude":52.792865,"longitude":-3.08026,"postcodeStart":"SY10 8","postcode":["SY10","8PR"]}
{"price":135000,"dateOfTransfer":"1998-04-24T00:00:00","postcodeFull":"SY10 8EE","propertyType":"Detached","oldOrNew":"Established","duration":"Freehold","paon":"OAK HOUSE","saon":"","street":"","locality":"PLASSEY","townOrCity":"OSWESTRY","district":"OSWESTRY","county":"SHROPSHIRE","ppdCategoryType":"Standard","recordStatus":"Addition","latitude":52.77949,"longitude":-2.96423,"postcodeStart":"SY10 8","postcode":["SY10","8EE"]}
{"price":137500,"dateOfTransfer":"1998-05-06T00:00:00","postcodeFull":"SY10 8JS","propertyType":"Detached","oldOrNew":"Established","duration":"Freehold","paon":"PENYGARREG HOUSE","saon":"","street":"PENYGARREG LANE","locality":"PANT","townOrCity":"OSWESTRY","district":"OSWESTRY","county":"SHROPSHIRE","ppdCategoryType":"Standard","recordStatus":"Addition","latitude":52.797555,"longitude":-3.071715,"postcodeStart":"SY10 8","postcode":["SY10","8JS"]}
{"price":47500,"dateOfTransfer":"1998-07-24T00:00:00","postcodeFull":"SY10 8JE","propertyType":"Semi-detached","oldOrNew":"Established","duration":"Freehold","paon":"3","saon":"","street":"MARSHFIELDS","locality":"MAESBURY MARSH","townOrCity":"OSWESTRY","district":"OSWESTRY","county":"SHROPSHIRE","ppdCategoryType":"Standard","recordStatus":"Addition","latitude":52.819141,"longitude":-3.022668,"postcodeStart":"SY10 8","postcode":["SY10","8JE"]}
{"price":90500,"dateOfTransfer":"1998-11-27T00:00:00","postcodeFull":"SY10 8LQ","propertyType":"Detached","oldOrNew":"Established","duration":"Freehold","paon":"24","saon":"","street":"DELFAN","locality":"PANT","townOrCity":"OSWESTRY","district":"OSWESTRY","county":"SHROPSHIRE","ppdCategoryType":"Standard","recordStatus":"Addition","latitude":52.794458,"longitude":-3.079113,"postcodeStart":"SY10 8","postcode":["SY10","8LQ"]}
{"price":132000,"dateOfTransfer":"1998-08-13T00:00:00","postcodeFull":"SY10 8BW","propertyType":"Detached","oldOrNew":"Established","duration":"Freehold","paon":"WHITE HOUSE","saon":"","street":"","locality":"CRICKHEATH","townOrCity":"OSWESTRY","district":"OSWESTRY","county":"SHROPSHIRE","ppdCategoryType":"Standard","recordStatus":"Addition","latitude":52.800164,"longitude":-3.047261,"postcodeStart":"SY10 8","postcode":["SY10","8BW"]}
{"price":39500,"dateOfTransfer":"1998-01-23T00:00:00","postcodeFull":"SY10 8JE","propertyType":"Semi-detached","oldOrNew":"Established","duration":"Freehold","paon":"23","saon":"","street":"MARSHFIELDS","locality":"MAESBURY MARSH","townOrCity":"OSWESTRY","district":"OSWESTRY","county":"SHROPSHIRE","ppdCategoryType":"Standard","recordStatus":"Addition","latitude":52.819141,"longitude":-3.022668,"postcodeStart":"SY10 8","postcode":["SY10","8JE"]}
{"price":60000,"dateOfTransfer":"1998-10-02T00:00:00","postcodeFull":"SY10 8HQ","propertyType":"Detached","oldOrNew":"Established","duration":"Freehold","paon":"OAK COTTAGE","saon":"","street":"","locality":"KNOCKIN","townOrCity":"OSWESTRY","district":"OSWESTRY","county":"SHROPSHIRE","ppdCategoryType":"Standard","recordStatus":"Addition","latitude":52.792074,"longitude":-2.981635,"postcodeStart":"SY10 8","postcode":["SY10","8HQ"]}
{"price":64000,"dateOfTransfer":"1998-09-04T00:00:00","postcodeFull":"SY10 8LY","propertyType":"Detached","oldOrNew":"Established","duration":"Freehold","paon":"SHARNEYFORD","saon":"","street":"","locality":"PORTH Y WAEN","townOrCity":"OSWESTRY","district":"OSWESTRY","county":"SHROPSHIRE","ppdCategoryType":"Standard","recordStatus":"Addition","latitude":52.806581,"longitude":-3.097822,"postcodeStart":"SY10 8","postcode":["SY10","8LY"]}
{"price":194000,"dateOfTransfer":"1998-11-30T00:00:00","postcodeFull":"SY10 8BQ","propertyType":"Detached","oldOrNew":"Established","duration":"Freehold","paon":"POOL COTTAGE","saon":"","street":"","locality":"MORTON","townOrCity":"OSWESTRY","district":"OSWESTRY","county":"SHROPSHIRE","ppdCategoryType":"Standard","recordStatus":"Addition","latitude":52.81,"longitude":-3.048194,"postcodeStart":"SY10 8","postcode":["SY10","8BQ"]}
{"price":30000,"dateOfTransfer":"1998-07-06T00:00:00","postcodeFull":"SY10 8JS","propertyType":"Detached","oldOrNew":"Established","duration":"Freehold","paon":"ACORN HOUSE","saon":"","street":"PENYGARREG LANE","locality":"PANT","townOrCity":"OSWESTRY","district":"OSWESTRY","county":"SHROPSHIRE","ppdCategoryType":"Standard","recordStatus":"Addition","latitude":52.797555,"longitude":-3.071715,"postcodeStart":"SY10 8","postcode":["SY10","8JS"]}
{"price":30000,"dateOfTransfer":"1998-10-06T00:00:00","postcodeFull":"SY10 8LU","propertyType":"Terraced","oldOrNew":"Established","duration":"Freehold","paon":"6","saon":"","street":"VOUNOG TERRACE","locality":"PORTH Y WAEN","townOrCity":"OSWESTRY","district":"OSWESTRY","county":"SHROPSHIRE","ppdCategoryType":"Standard","recordStatus":"Addition","latitude":52.806929,"longitude":-3.089718,"postcodeStart":"SY10 8","postcode":["SY10","8LU"]}
{"price":49000,"dateOfTransfer":"1998-07-10T00:00:00","postcodeFull":"SY10 8JP","propertyType":"Semi-detached","oldOrNew":"Established","duration":"Freehold","paon":"4","saon":"","street":"PENYGARREG CLOSE","locality":"PANT","townOrCity":"OSWESTRY","district":"OSWESTRY","county":"SHROPSHIRE","ppdCategoryType":"Standard","recordStatus":"Addition","latitude":52.796324,"longitude":-3.073657,"postcodeStart":"SY10 8","postcode":["SY10","8JP"]}
{"price":77000,"dateOfTransfer":"1998-08-28T00:00:00","postcodeFull":"SY10 8PJ","propertyType":"Detached","oldOrNew":"Established","duration":"Freehold","paon":"THE BEECHES","saon":"","street":"","locality":"MELVERLEY","townOrCity":"OSWESTRY","district":"OSWESTRY","county":"SHROPSHIRE","ppdCategoryType":"Standard","recordStatus":"Addition","latitude":52.743078,"longitude":-2.988653,"postcodeStart":"SY10 8","postcode":["SY10","8PJ"]}
{"price":175000,"dateOfTransfer":"1999-04-29T00:00:00","postcodeFull":"SY10 8QN","propertyType":"Detached","oldOrNew":"Established","duration":"Freehold","paon":"LLWYNYGO COTTAGE","saon":"","street":"","locality":"MAESBROOK","townOrCity":"OSWESTRY","district":"OSWESTRY","county":"SHROPSHIRE","ppdCategoryType":"Standard","recordStatus":"Addition","latitude":52.78374,"longitude":-3.019421,"postcodeStart":"SY10 8","postcode":["SY10","8QN"]}
{"price":85000,"dateOfTransfer":"1999-07-09T00:00:00","postcodeFull":"SY10 8LY","propertyType":"Detached","oldOrNew":"Established","duration":"Freehold","paon":"HIGHFIELD","saon":"","street":"","locality":"PORTH Y WAEN","townOrCity":"OSWESTRY","district":"OSWESTRY","county":"SHROPSHIRE","ppdCategoryType":"Standard","recordStatus":"Addition","latitude":52.806581,"longitude":-3.097822,"postcodeStart":"SY10 8","postcode":["SY10","8LY"]}
{"price":126000,"dateOfTransfer":"1999-05-10T00:00:00","postcodeFull":"SY10 8LL","propertyType":"Detached","oldOrNew":"Established","duration":"Freehold","paon":"LAKE COTTAGE","saon":"","street":"","locality":"LLYNCLYS","townOrCity":"OSWESTRY","district":"OSWESTRY","county":"SHROPSHIRE","ppdCategoryType":"Standard","recordStatus":"Addition","latitude":52.808015,"longitude":-3.073129,"postcodeStart":"SY10 8","postcode":["SY10","8LL"]}
{"price":130000,"dateOfTransfer":"1999-08-27T00:00:00","postcodeFull":"SY10 8PS","propertyType":"Detached","oldOrNew":"New build","duration":"Freehold","paon":"2","saon":"","street":"EDWARDS CLOSE","locality":"PANT","townOrCity":"OSWESTRY","district":"OSWESTRY","county":"SHROPSHIRE","ppdCategoryType":"Standard","recordStatus":"Addition","latitude":52.793654,"longitude":-3.079583,"postcodeStart":"SY10 8","postcode":["SY10","8PS"]}
{"price":87500,"dateOfTransfer":"1999-12-10T00:00:00","postcodeFull":"SY10 8JA","propertyType":"Detached","oldOrNew":"Established","duration":"Freehold","paon":"PINEWOOD","saon":"","street":"","locality":"MAESBURY MARSH","townOrCity":"OSWESTRY","district":"OSWESTRY","county":"SHROPSHIRE","ppdCategoryType":"Standard","recordStatus":"Addition","latitude":52.816813,"longitude":-3.018444,"postcodeStart":"SY10 8","postcode":["SY10","8JA"]}
{"price":108000,"dateOfTransfer":"1999-10-15T00:00:00","postcodeFull":"SY10 8PF","propertyType":"Detached","oldOrNew":"Established","duration":"Freehold","paon":"THE OLDE CHAPEL HOUSE","saon":"","street":"","locality":"MELVERLEY","townOrCity":"OSWESTRY","district":"OSWESTRY","county":"SHROPSHIRE","ppdCategoryType":"Standard","recordStatus":"Addition","latitude":52.757798,"longitude":-2.992528,"postcodeStart":"SY10 8","postcode":["SY10","8PF"]}
{"price":50000,"dateOfTransfer":"1999-05-11T00:00:00","postcodeFull":"SY10 8LL","propertyType":"Detached","oldOrNew":"Established","duration":"Freehold","paon":"THE HOLLIES","saon":"","street":"","locality":"LLYNCLYS","townOrCity":"OSWESTRY","district":"OSWESTRY","county":"SHROPSHIRE","ppdCategoryType":"Standard","recordStatus":"Addition","latitude":52.808015,"longitude":-3.073129,"postcodeStart":"SY10 8","postcode":["SY10","8LL"]}
{"price":69950,"dateOfTransfer":"1999-09-09T00:00:00","postcodeFull":"SY10 8LQ","propertyType":"Detached","oldOrNew":"Established","duration":"Freehold","paon":"4","saon":"","street":"DELFAN","locality":"PANT","townOrCity":"OSWESTRY","district":"OSWESTRY","county":"SHROPSHIRE","ppdCategoryType":"Standard","recordStatus":"Addition","latitude":52.794458,"longitude":-3.079113,"postcodeStart":"SY10 8","postcode":["SY10","8LQ"]}
{"price":125000,"dateOfTransfer":"1999-12-20T00:00:00","postcodeFull":"SY10 8RB","propertyType":"Detached","oldOrNew":"New build","duration":"Freehold","paon":"5","saon":"","street":"SWAN MEADOW","locality":"MAESBURY MARSH","townOrCity":"OSWESTRY","district":"OSWESTRY","county":"SHROPSHIRE","ppdCategoryType":"Standard","recordStatus":"Addition","latitude":52.816772,"longitude":-3.019007,"postcodeStart":"SY10 8","postcode":["SY10","8RB"]}
{"price":45000,"dateOfTransfer":"1999-09-17T00:00:00","postcodeFull":"SY10 8PG","propertyType":"Detached","oldOrNew":"Established","duration":"Freehold","paon":"SWALLOW COTTAGE","saon":"","street":"","locality":"MELVERLEY","townOrCity":"OSWESTRY","district":"OSWESTRY","county":"SHROPSHIRE","ppdCategoryType":"Standard","recordStatus":"Addition","latitude":52.756141,"longitude":-2.997232,"postcodeStart":"SY10 8","postcode":["SY10","8PG"]}
{"price":93000,"dateOfTransfer":"1999-08-06T00:00:00","postcodeFull":"SY10 8LG","propertyType":"Detached","oldOrNew":"Established","duration":"Freehold","paon":"BIRCHWOOD","saon":"","street":"","locality":"PANT","townOrCity":"OSWESTRY","district":"OSWESTRY","county":"SHROPSHIRE","ppdCategoryType":"Standard","recordStatus":"Addition","latitude":52.798634,"longitude":-3.08156,"postcodeStart":"SY10 8","postcode":["SY10","8LG"]}
{"price":95000,"dateOfTransfer":"1999-03-23T00:00:00","postcodeFull":"SY10 8EB","propertyType":"Detached","oldOrNew":"Established","duration":"Freehold","paon":"REDLANDS","saon":"","street":"CHAPEL LANE","locality":"KNOCKIN HEATH","townOrCity":"OSWESTRY","district":"NORTH SHROPSHIRE","county":"SHROPSHIRE","ppdCategoryType":"Standard","recordStatus":"Addition","latitude":52.7831,"longitude":-2.958112,"postcodeStart":"SY10 8","postcode":["SY10","8EB"]}
{"price":180000,"dateOfTransfer":"1999-12-20T00:00:00","postcodeFull":"SY10 8QP","propertyType":"Detached","oldOrNew":"Established","duration":"Freehold","paon":"BADGERS WAY","saon":"","street":"","locality":"MAESBROOK","townOrCity":"OSWESTRY","district":"OSWESTRY","county":"SHROPSHIRE","ppdCategoryType":"Standard","recordStatus":"Addition","latitude":52.784345,"longitude":-3.0373,"postcodeStart":"SY10 8","postcode":["SY10","8QP"]}
{"price":41500,"dateOfTransfer":"1999-04-30T00:00:00","postcodeFull":"SY10 8DF","propertyType":"Semi-detached","oldOrNew":"Established","duration":"Freehold","paon":"MAYFIELDS","saon":"2","street":"","locality":"KINNERLEY","townOrCity":"OSWESTRY","district":"OSWESTRY","county":"SHROPSHIRE","ppdCategoryType":"Standard","recordStatus":"Addition","latitude":52.780903,"longitude":-2.981593,"postcodeStart":"SY10 8","postcode":["SY10","8DF"]}
{"price":85000,"dateOfTransfer":"1999-04-01T00:00:00","postcodeFull":"SY10 8DT","propertyType":"Detached","oldOrNew":"New build","duration":"Freehold","paon":"BRONHAUL","saon":"","street":"","locality":"KNOCKIN HEATH","townOrCity":"OSWESTRY","district":"OSWESTRY","county":"SHROPSHIRE","ppdCategoryType":"Standard","recordStatus":"Addition","latitude":52.785316,"longitude":-2.962061,"postcodeStart":"SY10 8","postcode":["SY10","8DT"]}
{"price":37500,"dateOfTransfer":"1999-10-11T00:00:00","postcodeFull":"SY10 8AG","propertyType":"Semi-detached","oldOrNew":"Established","duration":"Freehold","paon":"13","saon":"","street":"BRYNMELYN","locality":"LLYNCLYS","townOrCity":"OSWESTRY","district":"OSWESTRY","county":"SHROPSHIRE","ppdCategoryType":"Standard","recordStatus":"Addition","latitude":52.809591,"longitude":-3.061476,"postcodeStart":"SY10 8","postcode":["SY10","8AG"]}
{"price":105000,"dateOfTransfer":"1999-08-06T00:00:00","postcodeFull":"SY10 8QW","propertyType":"Detached","oldOrNew":"Established","duration":"Freehold","paon":"AVONLEA","saon":"","street":"","locality":"MAESBROOK","townOrCity":"OSWESTRY","district":"OSWESTRY","county":"SHROPSHIRE","ppdCategoryType":"Standard","recordStatus":"Addition","latitude":52.783568,"longitude":-3.028922,"postcodeStart":"SY10 8","postcode":["SY10","8QW"]}
{"price":95000,"dateOfTransfer":"1999-06-14T00:00:00","postcodeFull":"SY10 8JH","propertyType":"Detached","oldOrNew":"Established","duration":"Freehold","paon":"SPRINGFIELDS","saon":"","street":"","locality":"MAESBURY MARSH","townOrCity":"OSWESTRY","district":"OSWESTRY","county":"SHROPSHIRE","ppdCategoryType":"Standard","recordStatus":"Addition","latitude":52.821911,"longitude":-3.024603,"postcodeStart":"SY10 8","postcode":["SY10","8JH"]}
{"price":85000,"dateOfTransfer":"1999-01-28T00:00:00","postcodeFull":"SY10 8HD","propertyType":"Detached","oldOrNew":"Established","duration":"Freehold","paon":"NEWLANDS","saon":"","street":"","locality":"MAESBURY","townOrCity":"OSWESTRY","district":"OSWESTRY","county":"SHROPSHIRE","ppdCategoryType":"Standard","recordStatus":"Addition","latitude":52.829031,"longitude":-3.030424,"postcodeStart":"SY10 8","postcode":["SY10","8HD"]}
{"price":225000,"dateOfTransfer":"1999-11-17T00:00:00","postcodeFull":"SY10 8QS","propertyType":"Detached","oldOrNew":"Established","duration":"Freehold","paon":"WOOD COTTAGE","saon":"","street":"","locality":"MAESBROOK","townOrCity":"OSWESTRY","district":"OSWESTRY","county":"SHROPSHIRE","ppdCategoryType":"Standard","recordStatus":"Addition","latitude":52.790035,"longitude":-3.030631,"postcodeStart":"SY10 8","postcode":["SY10","8QS"]}
{"price":76000,"dateOfTransfer":"1999-02-26T00:00:00","postcodeFull":"SY10 8LL","propertyType":"Semi-detached","oldOrNew":"Established","duration":"Freehold","paon":"FERNBANK","saon":"","street":"","locality":"LLYNCLYS","townOrCity":"OSWESTRY","district":"OSWESTRY","county":"SHROPSHIRE","ppdCategoryType":"Standard","recordStatus":"Addition","latitude":52.808015,"longitude":-3.073129,"postcodeStart":"SY10 8","postcode":["SY10","8LL"]}
{"price":80000,"dateOfTransfer":"1999-10-29T00:00:00","postcodeFull":"SY10 8PS","propertyType":"Detached","oldOrNew":"New build","duration":"Freehold","paon":"6","saon":"","street":"EDWARDS CLOSE","locality":"PANT","townOrCity":"OSWESTRY","district":"OSWESTRY","county":"SHROPSHIRE","ppdCategoryType":"Standard","recordStatus":"Addition","latitude":52.793654,"longitude":-3.079583,"postcodeStart":"SY10 8","postcode":["SY10","8PS"]}
{"price":129000,"dateOfTransfer":"1999-08-06T00:00:00","postcodeFull":"SY10 8LF","propertyType":"Detached","oldOrNew":"Established","duration":"Freehold","paon":"THE OAKS","saon":"","street":"TREGARTHEN LANE","locality":"PANT","townOrCity":"OSWESTRY","district":"OSWESTRY","county":"SHROPSHIRE","ppdCategoryType":"Standard","recordStatus":"Addition","latitude":52.795311,"longitude":-3.079224,"postcodeStart":"SY10 8","postcode":["SY10","8LF"]}
{"price":31022,"dateOfTransfer":"1999-02-09T00:00:00","postcodeFull":"SY10 8LF","propertyType":"Detached","oldOrNew":"New build","duration":"Freehold","paon":"WOODCOTE","saon":"","street":"TREGARTHEN LANE","locality":"PANT","townOrCity":"OSWESTRY","district":"OSWESTRY","county":"SHROPSHIRE","ppdCategoryType":"Standard","recordStatus":"Addition","latitude":52.795311,"longitude":-3.079224,"postcodeStart":"SY10 8","postcode":["SY10","8LF"]}
{"price":102500,"dateOfTransfer":"1999-08-27T00:00:00","postcodeFull":"SY10 8JB","propertyType":"Detached","oldOrNew":"Established","duration":"Freehold","paon":"DESANDRA","saon":"","street":"","locality":"MAESBURY MARSH","townOrCity":"OSWESTRY","district":"OSWESTRY","county":"SHROPSHIRE","ppdCategoryType":"Standard","recordStatus":"Addition","latitude":52.818839,"longitude":-3.020109,"postcodeStart":"SY10 8","postcode":["SY10","8JB"]}
{"price":111650,"dateOfTransfer":"1999-08-27T00:00:00","postcodeFull":"SY10 8JD","propertyType":"Detached","oldOrNew":"Established","duration":"Freehold","paon":"SILVERDALE","saon":"","street":"","locality":"MAESBURY MARSH","townOrCity":"OSWESTRY","district":"OSWESTRY","county":"SHROPSHIRE","ppdCategoryType":"Standard","recordStatus":"Addition","latitude":52.820278,"longitude":-3.020645,"postcodeStart":"SY10 8","postcode":["SY10","8JD"]}
{"price":44000,"dateOfTransfer":"1999-10-15T00:00:00","postcodeFull":"SY10 8LN","propertyType":"Semi-detached","oldOrNew":"Established","duration":"Freehold","paon":"24","saon":"","street":"DOLGOCH","locality":"PORTH Y WAEN","townOrCity":"OSWESTRY","district":"OSWESTRY","county":"SHROPSHIRE","ppdCategoryType":"Standard","recordStatus":"Addition","latitude":52.810865,"longitude":-3.074075,"postcodeStart":"SY10 8","postcode":["SY10","8LN"]}
{"price":77000,"dateOfTransfer":"1999-12-15T00:00:00","postcodeFull":"SY10 8JB","propertyType":"Detached","oldOrNew":"Established","duration":"Freehold","paon":"OAKDENE","saon":"","street":"","locality":"MAESBURY MARSH","townOrCity":"OSWESTRY","district":"OSWESTRY","county":"SHROPSHIRE","ppdCategoryType":"Standard","recordStatus":"Addition","latitude":52.818839,"longitude":-3.020109,"postcodeStart":"SY10 8","postcode":["SY10","8JB"]}
{"price":55000,"dateOfTransfer":"1999-09-10T00:00:00","postcodeFull":"SY10 8HD","propertyType":"Semi-detached","oldOrNew":"Established","duration":"Freehold","paon":"2","saon":"","street":"BELGRAVE PLACE","locality":"MAESBURY","townOrCity":"OSWESTRY","district":"OSWESTRY","county":"SHROPSHIRE","ppdCategoryType":"Standard","recordStatus":"Addition","latitude":52.829031,"longitude":-3.030424,"postcodeStart":"SY10 8","postcode":["SY10","8HD"]}
{"price":54950,"dateOfTransfer":"1999-03-05T00:00:00","postcodeFull":"SY10 8JE","propertyType":"Detached","oldOrNew":"Established","duration":"Freehold","paon":"2","saon":"","street":"MARSHFIELDS","locality":"MAESBURY MARSH","townOrCity":"OSWESTRY","district":"OSWESTRY","county":"SHROPSHIRE","ppdCategoryType":"Standard","recordStatus":"Addition","latitude":52.819141,"longitude":-3.022668,"postcodeStart":"SY10 8","postcode":["SY10","8JE"]}
{"price":164000,"dateOfTransfer":"1999-11-09T00:00:00","postcodeFull":"SY10 8PS","propertyType":"Detached","oldOrNew":"Established","duration":"Freehold","paon":"10","saon":"","street":"EDWARDS CLOSE","locality":"PANT","townOrCity":"OSWESTRY","district":"OSWESTRY","county":"SHROPSHIRE","ppdCategoryType":"Standard","recordStatus":"Addition","latitude":52.793654,"longitude":-3.079583,"postcodeStart":"SY10 8","postcode":["SY10","8PS"]}
{"price":65000,"dateOfTransfer":"1999-11-29T00:00:00","postcodeFull":"SY10 8EF","propertyType":"Detached","oldOrNew":"Established","duration":"Freehold","paon":"PINDAR COTTAGE","saon":"","street":"","locality":"KYNASTON","townOrCity":"OSWESTRY","district":"OSWESTRY","county":"SHROPSHIRE","ppdCategoryType":"Standard","recordStatus":"Addition","latitude":52.775237,"longitude":-2.960015,"postcodeStart":"SY10 8","postcode":["SY10","8EF"]}
{"price":123000,"dateOfTransfer":"1999-08-11T00:00:00","postcodeFull":"SY10 8PS","propertyType":"Detached","oldOrNew":"New build","duration":"Freehold","paon":"3","saon":"","street":"EDWARDS CLOSE","locality":"PANT","townOrCity":"OSWESTRY","district":"OSWESTRY","county":"SHROPSHIRE","ppdCategoryType":"Standard","recordStatus":"Addition","latitude":52.793654,"longitude":-3.079583,"postcodeStart":"SY10 8","postcode":["SY10","8PS"]}
{"price":185000,"dateOfTransfer":"1999-05-04T00:00:00","postcodeFull":"SY10 8ED","propertyType":"Detached","oldOrNew":"Established","duration":"Freehold","paon":"DEANE HOUSE","saon":"","street":"CHAPEL LANE","locality":"KNOCKIN HEATH","townOrCity":"OSWESTRY","district":"NORTH SHROPSHIRE","county":"SHROPSHIRE","ppdCategoryType":"Standard","recordStatus":"Addition","latitude":52.782349,"longitude":-2.958985,"postcodeStart":"SY10 8","postcode":["SY10","8ED"]}
{"price":75000,"dateOfTransfer":"1999-07-01T00:00:00","postcodeFull":"SY10 8LD","propertyType":"Detached","oldOrNew":"Established","duration":"Freehold","paon":"MARLOW","saon":"","street":"","locality":"PANT","townOrCity":"OSWESTRY","district":"OSWESTRY","county":"SHROPSHIRE","ppdCategoryType":"Standard","recordStatus":"Addition","latitude":52.794203,"longitude":-3.08145,"postcodeStart":"SY10 8","postcode":["SY10","8LD"]}
{"price":650000,"dateOfTransfer":"1999-07-26T00:00:00","postcodeFull":"SY10 8HQ","propertyType":"Detached","oldOrNew":"Established","duration":"Freehold","paon":"THE LODGE","saon":"","street":"","locality":"KNOCKIN","townOrCity":"OSWESTRY","district":"OSWESTRY","county":"SHROPSHIRE","ppdCategoryType":"Standard","recordStatus":"Addition","latitude":52.792074,"longitude":-2.981635,"postcodeStart":"SY10 8","postcode":["SY10","8HQ"]}
