{"price":39000,"dateOfTransfer":"1995-10-13T00:00:00","postcodeFull":"SY3 9JB","propertyType":"Semi-detached","oldOrNew":"Established","duration":"Freehold","paon":"15","saon":"","street":"ALMS COURT","locality":"SHREWSBURY","townOrCity":"SHREWSBURY","district":"SHREWSBURY AND ATCHAM","county":"SHROPSHIRE","ppdCategoryType":"Standard","recordStatus":"Addition","latitude":52.692711,"longitude":-2.756075,"postcodeStart":"SY3 9","postcode":["SY3","9JB"]}
{"price":59995,"dateOfTransfer":"1995-06-02T00:00:00","postcodeFull":"SY3 9DA","propertyType":"Semi-detached","oldOrNew":"Established","duration":"Freehold","paon":"12","saon":"","street":"GRANGE ROAD","locality":"SHREWSBURY","townOrCity":"SHREWSBURY","district":"SHREWSBURY AND ATCHAM","county":"SHROPSHIRE","ppdCategoryType":"Standard","recordStatus":"Addition","latitude":52.697911,"longitude":-2.768121,"postcodeStart":"SY3 9","postcode":["SY3","9DA"]}
{"price":125000,"dateOfTransfer":"1995-10-09T00:00:00","postcodeFull":"SY3 9QT","propertyType":"Detached","oldOrNew":"Established","duration":"Freehold","paon":"8","saon":"","street":"FAIRLAWN GARDENS","locality":"SHREWSBURY","townOrCity":"SHREWSBURY","district":"SHREWSBURY AND ATCHAM","county":"SHROPSHIRE","ppdCategoryType":"Standard","recordStatus":"Addition","latitude":52.689363,"longitude":-2.765913,"postcodeStart":"SY3 9","postcode":["SY3","9QT"]}
{"price":32500,"dateOfTransfer":"1995-05-15T00:00:00","postcodeFull":"SY3 9NZ","propertyType":"Semi-detached","oldOrNew":"Established","duration":"Freehold","paon":"34","saon":"","street":"WILDERLEY CRESCENT","locality":"SHREWSBURY","townOrCity":"SHREWSBURY","district":"SHREWSBURY AND ATCHAM","county":"SHROPSHIRE","ppdCategoryType":"Standard","recordStatus":"Addition","latitude":52.685389,"longitude":-2.760473,"postcodeStart":"SY3 9","postcode":["SY3","9NZ"]}
{"price":40500,"dateOfTransfer":"1995-08-14T00:00:00","postcodeFull":"SY3 9PQ","propertyType":"Terraced","oldOrNew":"Established","duration":"Freehold","paon":"30","saon":"","street":"CHATFORD DRIVE","locality":"SHREWSBURY","townOrCity":"SHREWSBURY","district":"SHREWSBURY AND ATCHAM","county":"SHROPSHIRE","ppdCategoryType":"Standard","recordStatus":"Addition","latitude":52.684742,"longitude":-2.760314,"postcodeStart":"SY3 9","postcode":["SY3","9PQ"]}
{"price":68000,"dateOfTransfer":"1995-12-22T00:00:00","postcodeFull":"SY3 9DA","propertyType":"Semi-detached","oldOrNew":"Established","duration":"Freehold","paon":"10","saon":"","street":"GRANGE ROAD","locality":"SHREWSBURY","townOrCity":"SHREWSBURY","district":"SHREWSBURY AND ATCHAM","county":"SHROPSHIRE","ppdCategoryType":"Standard","recordStatus":"Addition","latitude":52.697911,"longitude":-2.768121,"postcodeStart":"SY3 9","postcode":["SY3","9DA"]}
{"price":76000,"dateOfTransfer":"1995-07-14T00:00:00","postcodeFull":"SY3 9JP","propertyType":"Semi-detached","oldOrNew":"Established","duration":"Freehold","paon":"62","saon":"","street":"UPPER ROAD","locality":"SHREWSBURY","townOrCity":"SHREWSBURY","district":"SHREWSBURY AND ATCHAM","county":"SHROPSHIRE","ppdCategoryType":"Standard","recordStatus":"Addition","latitude":52.692256,"longitude":-2.759187,"postcodeStart":"SY3 9","postcode":["SY3","9JP"]}
{"price":26000,"dateOfTransfer":"1995-06-02T00:00:00","postcodeFull":"SY3 9NS","propertyType":"Terraced","oldOrNew":"Established","duration":"Freehold","paon":"39","saon":"","street":"MARY WEBB ROAD","locality":"SHREWSBURY","townOrCity":"SHREWSBURY","district":"SHREWSBURY AND ATCHAM","county":"SHROPSHIRE","ppdCategoryType":"Standard","recordStatus":"Addition","latitude":52.685935,"longitude":-2.762155,"postcodeStart":"SY3 9","postcode":["SY3","9NS"]}
{"price":59950,"dateOfTransfer":"1995-03-31T00:00:00","postcodeFull":"SY3 9EP","propertyType":"Semi-detached","oldOrNew":"Established","duration":"Freehold","paon":"59","saon":"","street":"MEOLE CRESCENT","locality":"SHREWSBURY","townOrCity":"SHREWSBURY","district":"SHREWSBURY AND ATCHAM","county":"SHROPSHIRE","ppdCategoryType":"Standard","recordStatus":"Addition","latitude":52.693514,"longitude":-2.759921,"postcodeStart":"SY3 9","postcode":["SY3","9EP"]}
{"price":59500,"dateOfTransfer":"1995-09-29T00:00:00","postcodeFull":"SY3 9JU","propertyType":"Terraced","oldOrNew":"Established","duration":"Freehold","paon":"2","saon":"","street":"BROOKSIDE COTTAGES","locality":"SHREWSBURY","townOrCity":"SHREWSBURY","district":"SHREWSBURY AND ATCHAM","county":"SHROPSHIRE","ppdCategoryType":"Standard","recordStatus":"Addition","latitude":52.691835,"longitude":-2.757552,"postcodeStart":"SY3 9","postcode":["SY3","9JU"]}
{"price":69000,"dateOfTransfer":"1995-05-09T00:00:00","postcodeFull":"SY3 9HP","propertyType":"Semi-detached","oldOrNew":"Established","duration":"Freehold","paon":"50","saon":"","street":"WASHFORD ROAD","locality":"SHREWSBURY","townOrCity":"SHREWSBURY","district":"SHREWSBURY AND ATCHAM","county":"SHROPSHIRE","ppdCategoryType":"Standard","recordStatus":"Addition","latitude":52.689118,"longitude":-2.769149,"postcodeStart":"SY3 9","postcode":["SY3","9HP"]}
{"price":28500,"dateOfTransfer":"1995-03-03T00:00:00","postcodeFull":"SY3 9PB","propertyType":"Terraced","oldOrNew":"Established","duration":"Freehold","paon":"28","saon":"","street":"NETLEY ROAD","locality":"SHREWSBURY","townOrCity":"SHREWSBURY","district":"SHREWSBURY AND ATCHAM","county":"SHROPSHIRE","ppdCategoryType":"Standard","recordStatus":"Addition","latitude":52.685871,"longitude":-2.76149,"postcodeStart":"SY3 9","postcode":["SY3","9PB"]}
{"price":113000,"dateOfTransfer":"1995-06-30T00:00:00","postcodeFull":"SY3 9BW","propertyType":"Detached","oldOrNew":"Established","duration":"Freehold","paon":"32","saon":"","street":"WOODSIDE DRIVE","locality":"SHREWSBURY","townOrCity":"SHREWSBURY","district":"SHREWSBURY AND ATCHAM","county":"SHROPSHIRE","ppdCategoryType":"Standard","recordStatus":"Addition","latitude":52.703151,"longitude":-2.783339,"postcodeStart":"SY3 9","postcode":["SY3","9BW"]}
{"price":37000,"dateOfTransfer":"1995-08-25T00:00:00","postcodeFull":"SY3 9JB","propertyType":"Terraced","oldOrNew":"Established","duration":"Freehold","paon":"10","saon":"","street":"ALMS COURT","locality":"SHREWSBURY","townOrCity":"SHREWSBURY","district":"SHREWSBURY AND ATCHAM","county":"SHROPSHIRE","ppdCategoryType":"Standard","recordStatus":"Addition","latitude":52.692711,"longitude":-2.756075,"postcodeStart":"SY3 9","postcode":["SY3","9JB"]}
{"price":134000,"dateOfTransfer":"1995-08-25T00:00:00","postcodeFull":"SY3 9BZ","propertyType":"Detached","oldOrNew":"Established","duration":"Freehold","paon":"37","saon":"","street":"RYELANDS","locality":"SHREWSBURY","townOrCity":"SHREWSBURY","district":"SHREWSBURY AND ATCHAM","county":"SHROPSHIRE","ppdCategoryType":"Standard","recordStatus":"Addition","latitude":52.702323,"longitude":-2.782095,"postcodeStart":"SY3 9","postcode":["SY3","9BZ"]}
{"price":61500,"dateOfTransfer":"1995-01-27T00:00:00","postcodeFull":"SY3 9JF","propertyType":"Semi-detached","oldOrNew":"Established","duration":"Freehold","paon":"45","saon":"","street":"MEOLE RISE","locality":"SHREWSBURY","townOrCity":"SHREWSBURY","district":"SHREWSBURY AND ATCHAM","county":"SHROPSHIRE","ppdCategoryType":"Standard","recordStatus":"Addition","latitude":52.694802,"longitude":-2.756644,"postcodeStart":"SY3 9","postcode":["SY3","9JF"]}
{"price":83000,"dateOfTransfer":"1995-02-10T00:00:00","postcodeFull":"SY3 9HW","propertyType":"Detached","oldOrNew":"Established","duration":"Freehold","paon":"65","saon":"","street":"WASHFORD ROAD","locality":"SHREWSBURY","townOrCity":"SHREWSBURY","district":"SHREWSBURY AND ATCHAM","county":"SHROPSHIRE","ppdCategoryType":"Standard","recordStatus":"Addition","latitude":52.688375,"longitude":-2.769167,"postcodeStart":"SY3 9","postcode":["SY3","9HW"]}
{"price":65000,"dateOfTransfer":"1995-11-03T00:00:00","postcodeFull":"SY3 9DF","propertyType":"Semi-detached","oldOrNew":"Established","duration":"Freehold","paon":"30","saon":"","street":"GRANGE ROAD","locality":"SHREWSBURY","townOrCity":"SHREWSBURY","district":"SHREWSBURY AND ATCHAM","county":"SHROPSHIRE","ppdCategoryType":"Standard","recordStatus":"Addition","latitude":52.696114,"longitude":-2.770709,"postcodeStart":"SY3 9","postcode":["SY3","9DF"]}
{"price":100000,"dateOfTransfer":"1995-10-13T00:00:00","postcodeFull":"SY3 9AN","propertyType":"Detached","oldOrNew":"Established","duration":"Freehold","paon":"80","saon":"","street":"ROMAN ROAD","locality":"SHREWSBURY","townOrCity":"SHREWSBURY","district":"SHREWSBURY AND ATCHAM","county":"SHROPSHIRE","ppdCategoryType":"Standard","recordStatus":"Addition","latitude":52.698828,"longitude":-2.769009,"postcodeStart":"SY3 9","postcode":["SY3","9AN"]}
{"price":55000,"dateOfTransfer":"1995-04-28T00:00:00","postcodeFull":"SY3 9HR","propertyType":"Terraced","oldOrNew":"Established","duration":"Freehold","paon":"7","saon":"","street":"WASHFORD ROAD","locality":"SHREWSBURY","townOrCity":"SHREWSBURY","district":"SHREWSBURY AND ATCHAM","county":"SHROPSHIRE","ppdCategoryType":"Standard","recordStatus":"Addition","latitude":52.690625,"longitude":-2.766897,"postcodeStart":"SY3 9","postcode":["SY3","9HR"]}
{"price":225000,"dateOfTransfer":"1995-08-18T00:00:00","postcodeFull":"SY3 9BD","propertyType":"Semi-detached","oldOrNew":"Established","duration":"Freehold","paon":"17","saon":"","street":"RADBROOK ROAD","locality":"SHREWSBURY","townOrCity":"SHREWSBURY","district":"SHREWSBURY AND ATCHAM","county":"SHROPSHIRE","ppdCategoryType":"Standard","recordStatus":"Addition","latitude":52.703831,"longitude":-2.775655,"postcodeStart":"SY3 9","postcode":["SY3","9BD"]}
{"price":70000,"dateOfTransfer":"1995-07-21T00:00:00","postcodeFull":"SY3 9HU","propertyType":"Semi-detached","oldOrNew":"Established","duration":"Freehold","paon":"31","saon":"","street":"ALEXANDRA AVENUE","locality":"SHREWSBURY","townOrCity":"SHREWSBURY","district":"SHREWSBURY AND ATCHAM","county":"SHROPSHIRE","ppdCategoryType":"Standard","recordStatus":"Addition","latitude":52.689945,"longitude":-2.765555,"postcodeStart":"SY3 9","postcode":["SY3","9HU"]}
{"price":25000,"dateOfTransfer":"1995-11-02T00:00:00","postcodeFull":"SY3 9HX","propertyType":"Detached","oldOrNew":"Established","duration":"Freehold","paon":"10","saon":"","street":"VICTORIA ROAD","locality":"SHREWSBURY","townOrCity":"SHREWSBURY","district":"SHREWSBURY AND ATCHAM","county":"SHROPSHIRE","ppdCategoryType":"Standard","recordStatus":"Addition","latitude":52.690648,"longitude":-2.766128,"postcodeStart":"SY3 9","postcode":["SY3","9HX"]}
{"price":50000,"dateOfTransfer":"1995-03-03T00:00:00","postcodeFull":"SY3 9HP","propertyType":"Semi-detached","oldOrNew":"Established","duration":"Freehold","paon":"48","saon":"","street":"WASHFORD ROAD","locality":"SHREWSBURY","townOrCity":"SHREWSBURY","district":"SHREWSBURY AND ATCHAM","county":"SHROPSHIRE","ppdCategoryType":"Standard","recordStatus":"Addition","latitude":52.689118,"longitude":-2.769149,"postcodeStart":"SY3 9","postcode":["SY3","9HP"]}
{"price":61000,"dateOfTransfer":"1995-08-15T00:00:00","postcodeFull":"SY3 9EG","propertyType":"Detached","oldOrNew":"Established","duration":"Freehold","paon":"14","saon":"","street":"PRIORY RIDGE","locality":"SHREWSBURY","townOrCity":"SHREWSBURY","district":"SHREWSBURY AND ATCHAM","county":"SHROPSHIRE","ppdCategoryType":"Standard","recordStatus":"Addition","latitude":52.693979,"longitude":-2.766719,"postcodeStart":"SY3 9","postcode":["SY3","9EG"]}
{"price":150000,"dateOfTransfer":"1995-05-02T00:00:00","postcodeFull":"SY3 9QT","propertyType":"Detached","oldOrNew":"New build","duration":"Freehold","paon":"5","saon":"","street":"FAIRLAWN GARDENS","locality":"SHREWSBURY","townOrCity":"SHREWSBURY","district":"SHREWSBURY AND ATCHAM","county":"SHROPSHIRE","ppdCategoryType":"Standard","recordStatus":"Addition","latitude":52.689363,"longitude":-2.765913,"postcodeStart":"SY3 9","postcode":["SY3","9QT"]}
{"price":45000,"dateOfTransfer":"1995-04-28T00:00:00","postcodeFull":"SY3 9EZ","propertyType":"Detached","oldOrNew":"Established","duration":"Freehold","paon":"MARY WEBB COTTAGE","saon":"","street":"VICARAGE ROAD","locality":"SHREWSBURY","townOrCity":"SHREWSBURY","district":"SHREWSBURY AND ATCHAM","county":"SHROPSHIRE","ppdCategoryType":"Standard","recordStatus":"Addition","latitude":52.691375,"longitude":-2.762532,"postcodeStart":"SY3 9","postcode":["SY3","9EZ"]}
{"price":58500,"dateOfTransfer":"1995-06-16T00:00:00","postcodeFull":"SY3 9ER","propertyType":"Semi-detached","oldOrNew":"Established","duration":"Freehold","paon":"58","saon":"","street":"MEOLE CRESCENT","locality":"SHREWSBURY","townOrCity":"SHREWSBURY","district":"SHREWSBURY AND ATCHAM","county":"SHROPSHIRE","ppdCategoryType":"Standard","recordStatus":"Addition","latitude":52.693207,"longitude":-2.759885,"postcodeStart":"SY3 9","postcode":["SY3","9ER"]}
{"price":45000,"dateOfTransfer":"1995-09-04T00:00:00","postcodeFull":"SY3 9JW","propertyType":"Terraced","oldOrNew":"Established","duration":"Freehold","paon":"29","saon":"","street":"UPPER ROAD","locality":"SHREWSBURY","townOrCity":"SHREWSBURY","district":"SHREWSBURY AND ATCHAM","county":"SHROPSHIRE","ppdCategoryType":"Standard","recordStatus":"Addition","latitude":52.692699,"longitude":-2.758072,"postcodeStart":"SY3 9","postcode":["SY3","9JW"]}
{"price":73000,"dateOfTransfer":"1995-04-28T00:00:00","postcodeFull":"SY3 9DF","propertyType":"Semi-detached","oldOrNew":"Established","duration":"Freehold","paon":"66","saon":"","street":"GRANGE ROAD","locality":"SHREWSBURY","townOrCity":"SHREWSBURY","district":"SHREWSBURY AND ATCHAM","county":"SHROPSHIRE","ppdCategoryType":"Standard","recordStatus":"Addition","latitude":52.696114,"longitude":-2.770709,"postcodeStart":"SY3 9","postcode":["SY3","9DF"]}
{"price":140000,"dateOfTransfer":"1995-03-10T00:00:00","postcodeFull":"SY3 9QT","propertyType":"Detached","oldOrNew":"New build","duration":"Freehold","paon":"3","saon":"","street":"FAIRLAWN GARDENS","locality":"SHREWSBURY","townOrCity":"SHREWSBURY","district":"SHREWSBURY AND ATCHAM","county":"SHROPSHIRE","ppdCategoryType":"Standard","recordStatus":"Addition","latitude":52.689363,"longitude":-2.765913,"postcodeStart":"SY3 9","postcode":["SY3","9QT"]}
{"price":269000,"dateOfTransfer":"1995-09-29T00:00:00","postcodeFull":"SY3 9AL","propertyType":"Detached","oldOrNew":"Established","duration":"Freehold","paon":"100","saon":"","street":"ROMAN ROAD","locality":"SHREWSBURY","townOrCity":"SHREWSBURY","district":"SHREWSBURY AND ATCHAM","county":"SHROPSHIRE","ppdCategoryType":"Standard","recordStatus":"Addition","latitude":52.697825,"longitude":-2.767008,"postcodeStart":"SY3 9","postcode":["SY3","9AL"]}
{"price":39995,"dateOfTransfer":"1995-04-20T00:00:00","postcodeFull":"SY3 9NY","propertyType":"Semi-detached","oldOrNew":"Established","duration":"Freehold","paon":"48","saon":"","street":"WILDERLEY CRESCENT","locality":"SHREWSBURY","townOrCity":"SHREWSBURY","district":"SHREWSBURY AND ATCHAM","county":"SHROPSHIRE","ppdCategoryType":"Standard","recordStatus":"Addition","latitude":52.685026,"longitude":-2.762316,"postcodeStart":"SY3 9","postcode":["SY3","9NY"]}
{"price":59999,"dateOfTransfer":"1995-10-05T00:00:00","postcodeFull":"SY3 9HT","propertyType":"Semi-detached","oldOrNew":"Established","duration":"Freehold","paon":"18","saon":"","street":"ALEXANDRA AVENUE","locality":"SHREWSBURY","townOrCity":"SHREWSBURY","district":"SHREWSBURY AND ATCHAM","county":"SHROPSHIRE","ppdCategoryType":"Standard","recordStatus":"Addition","latitude":52.690578,"longitude":-2.76496,"postcodeStart":"SY3 9","postcode":["SY3","9HT"]}
{"price":93000,"dateOfTransfer":"1995-12-05T00:00:00","postcodeFull":"SY3 9DD","propertyType":"Detached","oldOrNew":"Established","duration":"Freehold","paon":"1","saon":"","street":"GRANGEFIELDS ROAD","locality":"SHREWSBURY","townOrCity":"SHREWSBURY","district":"SHREWSBURY AND ATCHAM","county":"SHROPSHIRE","ppdCategoryType":"Standard","recordStatus":"Addition","latitude":52.69802,"longitude":-2.770698,"postcodeStart":"SY3 9","postcode":["SY3","9DD"]}
{"price":50000,"dateOfTransfer":"1995-02-03T00:00:00","postcodeFull":"SY3 9ES","propertyType":"Semi-detached","oldOrNew":"Established","duration":"Freehold","paon":"37","saon":"","street":"MEOLE CRESCENT","locality":"SHREWSBURY","townOrCity":"SHREWSBURY","district":"SHREWSBURY AND ATCHAM","county":"SHROPSHIRE","ppdCategoryType":"Standard","recordStatus":"Addition","latitude":52.692424,"longitude":-2.761722,"postcodeStart":"SY3 9","postcode":["SY3","9ES"]}
{"price":143600,"dateOfTransfer":"1995-01-13T00:00:00","postcodeFull":"SY3 9QT","propertyType":"Detached","oldOrNew":"New build","duration":"Freehold","paon":"7","saon":"","street":"FAIRLAWN GARDENS","locality":"SHREWSBURY","townOrCity":"SHREWSBURY","district":"SHREWSBURY AND ATCHAM","county":"SHROPSHIRE","ppdCategoryType":"Standard","recordStatus":"Addition","latitude":52.689363,"longitude":-2.765913,"postcodeStart":"SY3 9","postcode":["SY3","9QT"]}
{"price":42000,"dateOfTransfer":"1995-05-19T00:00:00","postcodeFull":"SY3 9PH","propertyType":"Semi-detached","oldOrNew":"Established","duration":"Freehold","paon":"73","saon":"","street":"CHATFORD DRIVE","locality":"SHREWSBURY","townOrCity":"SHREWSBURY","district":"SHREWSBURY AND ATCHAM","county":"SHROPSHIRE","ppdCategoryType":"Standard","recordStatus":"Addition","latitude":52.68447,"longitude":-2.759927,"postcodeStart":"SY3 9","postcode":["SY3","9PH"]}
{"price":46500,"dateOfTransfer":"1995-08-04T00:00:00","postcodeFull":"SY3 9JP","propertyType":"Semi-detached","oldOrNew":"Established","duration":"Freehold","paon":"74","saon":"","street":"UPPER ROAD","locality":"SHREWSBURY","townOrCity":"SHREWSBURY","district":"SHREWSBURY AND ATCHAM","county":"SHROPSHIRE","ppdCategoryType":"Standard","recordStatus":"Addition","latitude":52.692256,"longitude":-2.759187,"postcodeStart":"SY3 9","postcode":["SY3","9JP"]}
{"price":30250,"dateOfTransfer":"1995-02-27T00:00:00","postcodeFull":"SY3 9BQ","propertyType":"Flat/Maisonette/Townhouse","oldOrNew":"Established","duration":"Leasehold","paon":"35","saon":"","street":"RADBROOK ROAD","locality":"","townOrCity":"SHREWSBURY","district":"SHROPSHIRE","county":"SHROPSHIRE","ppdCategoryType":"Standard","recordStatus":"Addition","latitude":52.702357,"longitude":-2.779267,"postcodeStart":"SY3 9","postcode":["SY3","9BQ"]}
{"price":160000,"dateOfTransfer":"1995-07-11T00:00:00","postcodeFull":"SY3 9AB","propertyType":"Detached","oldOrNew":"Established","duration":"Freehold","paon":"28","saon":"","street":"RIDGEBOURNE ROAD","locality":"SHREWSBURY","townOrCity":"SHREWSBURY","district":"SHREWSBURY AND ATCHAM","county":"SHROPSHIRE","ppdCategoryType":"Standard","recordStatus":"Addition","latitude":52.703033,"longitude":-2.774854,"postcodeStart":"SY3 9","postcode":["SY3","9AB"]}
{"price":85000,"dateOfTransfer":"1995-05-22T00:00:00","postcodeFull":"SY3 9DG","propertyType":"Semi-detached","oldOrNew":"Established","duration":"Freehold","paon":"65","saon":"","street":"GRANGE ROAD","locality":"SHREWSBURY","townOrCity":"SHREWSBURY","district":"SHREWSBURY AND ATCHAM","county":"SHROPSHIRE","ppdCategoryType":"Standard","recordStatus":"Addition","latitude":52.695991,"longitude":-2.770233,"postcodeStart":"SY3 9","postcode":["SY3","9DG"]}
{"price":60000,"dateOfTransfer":"1995-06-02T00:00:00","postcodeFull":"SY3 9EF","propertyType":"Semi-detached","oldOrNew":"Established","duration":"Freehold","paon":"17","saon":"","street":"PRIORY DRIVE","locality":"SHREWSBURY","townOrCity":"SHREWSBURY","district":"SHREWSBURY AND ATCHAM","county":"SHROPSHIRE","ppdCategoryType":"Standard","recordStatus":"Addition","latitude":52.694789,"longitude":-2.767134,"postcodeStart":"SY3 9","postcode":["SY3","9EF"]}
{"price":63500,"dateOfTransfer":"1995-03-31T00:00:00","postcodeFull":"SY3 9HG","propertyType":"Detached","oldOrNew":"Established","duration":"Freehold","paon":"19","saon":"","street":"CHURCH ROAD","locality":"MEOLE BRACE","townOrCity":"SHREWSBURY","district":"SHREWSBURY AND ATCHAM","county":"SHROPSHIRE","ppdCategoryType":"Standard","recordStatus":"Addition","latitude":52.688223,"longitude":-2.762919,"postcodeStart":"SY3 9","postcode":["SY3","9HG"]}
{"price":59000,"dateOfTransfer":"1995-04-20T00:00:00","postcodeFull":"SY3 9JD","propertyType":"Semi-detached","oldOrNew":"Established","duration":"Freehold","paon":"10","saon":"","street":"UPPER ROAD","locality":"SHREWSBURY","townOrCity":"SHREWSBURY","district":"SHREWSBURY AND ATCHAM","county":"SHROPSHIRE","ppdCategoryType":"Standard","recordStatus":"Addition","latitude":52.694739,"longitude":-2.754747,"postcodeStart":"SY3 9","postcode":["SY3","9JD"]}
{"price":59950,"dateOfTransfer":"1995-12-06T00:00:00","postcodeFull":"SY3 9EU","propertyType":"Semi-detached","oldOrNew":"Established","duration":"Freehold","paon":"20","saon":"","street":"MEOLE WALK","locality":"SHREWSBURY","townOrCity":"SHREWSBURY","district":"SHREWSBURY AND ATCHAM","county":"SHROPSHIRE","ppdCategoryType":"Standard","recordStatus":"Addition","latitude":52.692524,"longitude":-2.762848,"postcodeStart":"SY3 9","postcode":["SY3","9EU"]}
{"price":36950,"dateOfTransfer":"1995-11-30T00:00:00","postcodeFull":"SY3 9NS","propertyType":"Terraced","oldOrNew":"Established","duration":"Freehold","paon":"39","saon":"","street":"MARY WEBB ROAD","locality":"SHREWSBURY","townOrCity":"SHREWSBURY","district":"SHREWSBURY AND ATCHAM","county":"SHROPSHIRE","ppdCategoryType":"Standard","recordStatus":"Addition","latitude":52.685935,"longitude":-2.762155,"postcodeStart":"SY3 9","postcode":["SY3","9NS"]}
{"price":31400,"dateOfTransfer":"1995-03-20T00:00:00","postcodeFull":"SY3 9DQ","propertyType":"Terraced","oldOrNew":"New build","duration":"Freehold","paon":"2","saon":"","street":"BANK FARM MEWS","locality":"SHREWSBURY","townOrCity":"SHREWSBURY","district":"SHREWSBURY AND ATCHAM","county":"SHROPSHIRE","ppdCategoryType":"Standard","recordStatus":"Addition","latitude":52.694633,"longitude":-2.774456,"postcodeStart":"SY3 9","postcode":["SY3","9DQ"]}
{"price":51000,"dateOfTransfer":"1995-01-20T00:00:00","postcodeFull":"SY3 9JG","propertyType":"Semi-detached","oldOrNew":"Established","duration":"Freehold","paon":"9","saon":"","street":"MEOLE RISE","locality":"SHREWSBURY","townOrCity":"SHREWSBURY","district":"SHREWSBURY AND ATCHAM","county":"SHROPSHIRE","ppdCategoryType":"Standard","recordStatus":"Addition","latitude":52.694502,"longitude":-2.756607,"postcodeStart":"SY3 9","postcode":["SY3","9JG"]}
{"price":40000,"dateOfTransfer":"1995-11-30T00:00:00","postcodeFull":"SY3 9ET","propertyType":"Terraced","oldOrNew":"Established","duration":"Freehold","paon":"36","saon":"","street":"MEOLE CRESCENT","locality":"SHREWSBURY","townOrCity":"SHREWSBURY","district":"SHREWSBURY AND ATCHAM","county":"SHROPSHIRE","ppdCategoryType":"Standard","recordStatus":"Addition","latitude":52.69231,"longitude":-2.761232,"postcodeStart":"SY3 9","postcode":["SY3","9ET"]}
{"price":92000,"dateOfTransfer":"1995-01-06T00:00:00","postcodeFull":"SY3 9HQ","propertyType":"Detached","oldOrNew":"Established","duration":"Freehold","paon":"MAESBROOK LODGE","saon":"","street":"CHURCH ROAD","locality":"MEOLE BRACE","townOrCity":"SHREWSBURY","district":"SHREWSBURY AND ATCHAM","county":"SHROPSHIRE","ppdCategoryType":"Standard","recordStatus":"Addition","latitude":52.686927,"longitude":-2.764495,"postcodeStart":"SY3 9","postcode":["SY3","9HQ"]}
{"price":115000,"dateOfTransfer":"1995-10-10T00:00:00","postcodeFull":"SY3 9QT","propertyType":"Detached","oldOrNew":"New build","duration":"Freehold","paon":"6","saon":"","street":"FAIRLAWN GARDENS","locality":"SHREWSBURY","townOrCity":"SHREWSBURY","district":"SHREWSBURY AND ATCHAM","county":"SHROPSHIRE","ppdCategoryType":"Standard","recordStatus":"Addition","latitude":52.689363,"longitude":-2.765913,"postcodeStart":"SY3 9","postcode":["SY3","9QT"]}
{"price":33000,"dateOfTransfer":"1995-08-11T00:00:00","postcodeFull":"SY3 9JB","propertyType":"Semi-detached","oldOrNew":"Established","duration":"Freehold","paon":"6","saon":"","street":"ALMS COURT","locality":"SHREWSBURY","townOrCity":"SHREWSBURY","district":"SHREWSBURY AND ATCHAM","county":"SHROPSHIRE","ppdCategoryType":"Standard","recordStatus":"Addition","latitude":52.692711,"longitude":-2.756075,"postcodeStart":"SY3 9","postcode":["SY3","9JB"]}
{"price":35500,"dateOfTransfer":"1995-06-05T00:00:00","postcodeFull":"SY3 9DQ","propertyType":"Terraced","oldOrNew":"Established","duration":"Freehold","paon":"4","saon":"","street":"BANK FARM MEWS","locality":"SHREWSBURY","townOrCity":"SHREWSBURY","district":"SHREWSBURY AND ATCHAM","county":"SHROPSHIRE","ppdCategoryType":"Standard","recordStatus":"Addition","latitude":52.694633,"longitude":-2.774456,"postcodeStart":"SY3 9","postcode":["SY3","9DQ"]}
{"price":117000,"dateOfTransfer":"1995-09-14T00:00:00","postcodeFull":"SY3 9RD","propertyType":"Detached","oldOrNew":"Established","duration":"Freehold","paon":"2","saon":"","street":"WILDON WAY","locality":"SHREWSBURY","townOrCity":"SHREWSBURY","district":"SHREWSBURY AND ATCHAM","county":"SHROPSHIRE","ppdCategoryType":"Standard","recordStatus":"Addition","latitude":52.701751,"longitude":-2.78121,"postcodeStart":"SY3 9","postcode":["SY3","9RD"]}
{"price":75000,"dateOfTransfer":"1995-10-27T00:00:00","postcodeFull":"SY3 9DF","propertyType":"Semi-detached","oldOrNew":"Established","duration":"Freehold","paon":"84","saon":"","street":"GRANGE ROAD","locality":"SHREWSBURY","townOrCity":"SHREWSBURY","district":"SHREWSBURY AND ATCHAM","county":"SHROPSHIRE","ppdCategoryType":"Standard","recordStatus":"Addition","latitude":52.696114,"longitude":-2.770709,"postcodeStart":"SY3 9","postcode":["SY3","9DF"]}
{"price":65000,"dateOfTransfer":"1995-07-04T00:00:00","postcodeFull":"SY3 9JD","propertyType":"Detached","oldOrNew":"Established","duration":"Freehold","paon":"2","saon":"","street":"UPPER ROAD","locality":"SHREWSBURY","townOrCity":"SHREWSBURY","district":"SHREWSBURY AND ATCHAM","county":"SHROPSHIRE","ppdCategoryType":"Standard","recordStatus":"Addition","latitude":52.694739,"longitude":-2.754747,"postcodeStart":"SY3 9","postcode":["SY3","9JD"]}
{"price":65000,"dateOfTransfer":"1995-03-03T00:00:00","postcodeFull":"SY3 9EF","propertyType":"Semi-detached","oldOrNew":"Established","duration":"Freehold","paon":"17","saon":"","street":"PRIORY DRIVE","locality":"SHREWSBURY","townOrCity":"SHREWSBURY","district":"SHREWSBURY AND ATCHAM","county":"SHROPSHIRE","ppdCategoryType":"Standard","recordStatus":"Addition","latitude":52.694789,"longitude":-2.767134,"postcodeStart":"SY3 9","postcode":["SY3","9EF"]}
{"price":74000,"dateOfTransfer":"1996-09-27T00:00:00","postcodeFull":"SY3 9DE","propertyType":"Semi-detached","oldOrNew":"Established","duration":"Freehold","paon":"12","saon":"","street":"GRANGEFIELDS","locality":"SHREWSBURY","townOrCity":"SHREWSBURY","district":"SHREWSBURY AND ATCHAM","county":"SHROPSHIRE","ppdCategoryType":"Standard","recordStatus":"Addition","latitude":52.698891,"longitude":-2.772297,"postcodeStart":"SY3 9","postcode":["SY3","9DE"]}
{"price":113000,"dateOfTransfer":"1996-01-12T00:00:00","postcodeFull":"SY3 9QA","propertyType":"Detached","oldOrNew":"Established","duration":"Freehold","paon":"82","saon":"","street":"WASHFORD ROAD","locality":"SHREWSBURY","townOrCity":"SHREWSBURY","district":"SHREWSBURY AND ATCHAM","county":"SHROPSHIRE","ppdCategoryType":"Standard","recordStatus":"Addition","latitude":52.68779,"longitude":-2.770577,"postcodeStart":"SY3 9","postcode":["SY3","9QA"]}
{"price":76000,"dateOfTransfer":"1996-11-29T00:00:00","postcodeFull":"SY3 9HG","propertyType":"Detached","oldOrNew":"Established","duration":"Freehold","paon":"9","saon":"","street":"CHURCH ROAD","locality":"MEOLE BRACE","townOrCity":"SHREWSBURY","district":"SHREWSBURY AND ATCHAM","county":"SHROPSHIRE","ppdCategoryType":"Standard","recordStatus":"Addition","latitude":52.688223,"longitude":-2.762919,"postcodeStart":"SY3 9","postcode":["SY3","9HG"]}
{"price":70000,"dateOfTransfer":"1996-05-24T00:00:00","postcodeFull":"SY3 9HT","propertyType":"Detached","oldOrNew":"Established","duration":"Freehold","paon":"1","saon":"","street":"ALEXANDRA AVENUE","locality":"SHREWSBURY","townOrCity":"SHREWSBURY","district":"SHREWSBURY AND ATCHAM","county":"SHROPSHIRE","ppdCategoryType":"Standard","recordStatus":"Addition","latitude":52.690578,"longitude":-2.76496,"postcodeStart":"SY3 9","postcode":["SY3","9HT"]}
{"price":65000,"dateOfTransfer":"1996-07-09T00:00:00","postcodeFull":"SY3 9HG","propertyType":"Detached","oldOrNew":"Established","duration":"Freehold","paon":"21","saon":"","street":"CHURCH ROAD","locality":"MEOLE BRACE","townOrCity":"SHREWSBURY","district":"SHREWSBURY AND ATCHAM","county":"SHROPSHIRE","ppdCategoryType":"Standard","recordStatus":"Addition","latitude":52.688223,"longitude":-2.762919,"postcodeStart":"SY3 9","postcode":["SY3","9HG"]}
{"price":30500,"dateOfTransfer":"1996-02-15T00:00:00","postcodeFull":"SY3 9DQ","propertyType":"Terraced","oldOrNew":"Established","duration":"Freehold","paon":"6","saon":"","street":"BANK FARM MEWS","locality":"SHREWSBURY","townOrCity":"SHREWSBURY","district":"SHREWSBURY AND ATCHAM","county":"SHROPSHIRE","ppdCategoryType":"Standard","recordStatus":"Addition","latitude":52.694633,"longitude":-2.774456,"postcodeStart":"SY3 9","postcode":["SY3","9DQ"]}
{"price":63000,"dateOfTransfer":"1996-12-12T00:00:00","postcodeFull":"SY3 9EH","propertyType":"Semi-detached","oldOrNew":"Established","duration":"Freehold","paon":"3","saon":"","street":"PRIORY RIDGE","locality":"SHREWSBURY","townOrCity":"SHREWSBURY","district":"SHREWSBURY AND ATCHAM","county":"SHROPSHIRE","ppdCategoryType":"Standard","recordStatus":"Addition","latitude":52.69532,"longitude":-2.765649,"postcodeStart":"SY3 9","postcode":["SY3","9EH"]}
{"price":49950,"dateOfTransfer":"1996-09-20T00:00:00","postcodeFull":"SY3 9HX","propertyType":"Semi-detached","oldOrNew":"Established","duration":"Freehold","paon":"24","saon":"","street":"VICTORIA ROAD","locality":"SHREWSBURY","townOrCity":"SHREWSBURY","district":"SHREWSBURY AND ATCHAM","county":"SHROPSHIRE","ppdCategoryType":"Standard","recordStatus":"Addition","latitude":52.690648,"longitude":-2.766128,"postcodeStart":"SY3 9","postcode":["SY3","9HX"]}
{"price":88000,"dateOfTransfer":"1996-12-18T00:00:00","postcodeFull":"SY3 9JD","propertyType":"Semi-detached","oldOrNew":"Established","duration":"Freehold","paon":"18","saon":"","street":"UPPER ROAD","locality":"SHREWSBURY","townOrCity":"SHREWSBURY","district":"SHREWSBURY AND ATCHAM","county":"SHROPSHIRE","ppdCategoryType":"Standard","recordStatus":"Addition","latitude":52.694739,"longitude":-2.754747,"postcodeStart":"SY3 9","postcode":["SY3","9JD"]}
{"price":70000,"dateOfTransfer":"1996-12-05T00:00:00","postcodeFull":"SY3 9QG","propertyType":"Detached","oldOrNew":"Established","duration":"Freehold","paon":"3","saon":"","street":"ADSWOOD GROVE","locality":"SHREWSBURY","townOrCity":"SHREWSBURY","district":"SHREWSBURY AND ATCHAM","county":"SHROPSHIRE","ppdCategoryType":"Standard","recordStatus":"Addition","latitude":52.687183,"longitude":-2.7728,"postcodeStart":"SY3 9","postcode":["SY3","9QG"]}
{"price":46000,"dateOfTransfer":"1996-09-06T00:00:00","postcodeFull":"SY3 9HR","propertyType":"Semi-detached","oldOrNew":"Established","duration":"Freehold","paon":"5","saon":"","street":"WASHFORD ROAD","locality":"SHREWSBURY","townOrCity":"SHREWSBURY","district":"SHREWSBURY AND ATCHAM","county":"SHROPSHIRE","ppdCategoryType":"Standard","recordStatus":"Addition","latitude":52.690625,"longitude":-2.766897,"postcodeStart":"SY3 9","postcode":["SY3","9HR"]}
{"price":65500,"dateOfTransfer":"1996-09-03T00:00:00","postcodeFull":"SY3 9HP","propertyType":"Semi-detached","oldOrNew":"Established","duration":"Freehold","paon":"36","saon":"","street":"WASHFORD ROAD","locality":"SHREWSBURY","townOrCity":"SHREWSBURY","district":"SHREWSBURY AND ATCHAM","county":"SHROPSHIRE","ppdCategoryType":"Standard","recordStatus":"Addition","latitude":52.689118,"longitude":-2.769149,"postcodeStart":"SY3 9","postcode":["SY3","9HP"]}
{"price":70000,"dateOfTransfer":"1996-04-24T00:00:00","postcodeFull":"SY3 9HG","propertyType":"Detached","oldOrNew":"Established","duration":"Freehold","paon":"3","saon":"","street":"CHURCH ROAD","locality":"MEOLE BRACE","townOrCity":"SHREWSBURY","district":"SHREWSBURY AND ATCHAM","county":"SHROPSHIRE","ppdCategoryType":"Standard","recordStatus":"Addition","latitude":52.688223,"longitude":-2.762919,"postcodeStart":"SY3 9","postcode":["SY3","9HG"]}
{"price":110000,"dateOfTransfer":"1996-10-08T00:00:00","postcodeFull":"SY3 9BP","propertyType":"Semi-detached","oldOrNew":"Established","duration":"Freehold","paon":"1","saon":"","street":"SANDIWAY","locality":"SHREWSBURY","townOrCity":"SHREWSBURY","district":"SHREWSBURY AND ATCHAM","county":"SHROPSHIRE","ppdCategoryType":"Standard","recordStatus":"Addition","latitude":52.70276,"longitude":-2.784057,"postcodeStart":"SY3 9","postcode":["SY3","9BP"]}
{"price":160000,"dateOfTransfer":"1996-02-29T00:00:00","postcodeFull":"SY3 9BB","propertyType":"Detached","oldOrNew":"Established","duration":"Freehold","paon":"15","saon":"","street":"RADBROOK ROAD","locality":"SHREWSBURY","townOrCity":"SHREWSBURY","district":"SHREWSBURY AND ATCHAM","county":"SHROPSHIRE","ppdCategoryType":"Standard","recordStatus":"Addition","latitude":52.704641,"longitude":-2.774189,"postcodeStart":"SY3 9","postcode":["SY3","9BB"]}
{"price":160000,"dateOfTransfer":"1996-07-31T00:00:00","postcodeFull":"SY3 9HQ","propertyType":"Detached","oldOrNew":"Established","duration":"Freehold","paon":"THE COACH HOUSE","saon":"","street":"CHURCH ROAD","locality":"MEOLE BRACE","townOrCity":"SHREWSBURY","district":"SHREWSBURY AND ATCHAM","county":"SHROPSHIRE","ppdCategoryType":"Standard","recordStatus":"Addition","latitude":52.686927,"longitude":-2.764495,"postcodeStart":"SY3 9","postcode":["SY3","9HQ"]}
{"price":45000,"dateOfTransfer":"1996-08-30T00:00:00","postcodeFull":"SY3 9HR","propertyType":"Semi-detached","oldOrNew":"Established","duration":"Freehold","paon":"25","saon":"","street":"WASHFORD ROAD","locality":"SHREWSBURY","townOrCity":"SHREWSBURY","district":"SHREWSBURY AND ATCHAM","county":"SHROPSHIRE","ppdCategoryType":"Standard","recordStatus":"Addition","latitude":52.690625,"longitude":-2.766897,"postcodeStart":"SY3 9","postcode":["SY3","9HR"]}
{"price":82500,"dateOfTransfer":"1996-06-14T00:00:00","postcodeFull":"SY3 9JQ","propertyType":"Detached","oldOrNew":"Established","duration":"Freehold","paon":"42","saon":"","street":"UPPER ROAD","locality":"SHREWSBURY","townOrCity":"SHREWSBURY","district":"SHREWSBURY AND ATCHAM","county":"SHROPSHIRE","ppdCategoryType":"Standard","recordStatus":"Addition","latitude":52.693729,"longitude":-2.756549,"postcodeStart":"SY3 9","postcode":["SY3","9JQ"]}
{"price":120000,"dateOfTransfer":"1996-10-18T00:00:00","postcodeFull":"SY3 9JT","propertyType":"Detached","oldOrNew":"Established","duration":"Freehold","paon":"WATERS EDGE","saon":"","street":"MILL ROAD","locality":"SHREWSBURY","townOrCity":"SHREWSBURY","district":"SHREWSBURY AND ATCHAM","county":"SHROPSHIRE","ppdCategoryType":"Standard","recordStatus":"Addition","latitude":52.691899,"longitude":-2.757925,"postcodeStart":"SY3 9","postcode":["SY3","9JT"]}
{"price":28000,"dateOfTransfer":"1996-11-29T00:00:00","postcodeFull":"SY3 9DQ","propertyType":"Terraced","oldOrNew":"Established","duration":"Freehold","paon":"1","saon":"","street":"BANK FARM MEWS","locality":"SHREWSBURY","townOrCity":"SHREWSBURY","district":"SHREWSBURY AND ATCHAM","county":"SHROPSHIRE","ppdCategoryType":"Standard","recordStatus":"Addition","latitude":52.694633,"longitude":-2.774456,"postcodeStart":"SY3 9","postcode":["SY3","9DQ"]}
{"price":22000,"dateOfTransfer":"1996-06-10T00:00:00","postcodeFull":"SY3 9DQ","propertyType":"Terraced","oldOrNew":"Established","duration":"Freehold","paon":"3","saon":"","street":"BANK FARM COTTAGES","locality":"SHREWSBURY","townOrCity":"SHREWSBURY","district":"SHREWSBURY AND ATCHAM","county":"SHROPSHIRE","ppdCategoryType":"Standard","recordStatus":"Addition","latitude":52.694633,"longitude":-2.774456,"postcodeStart":"SY3 9","postcode":["SY3","9DQ"]}
{"price":60000,"dateOfTransfer":"1996-11-01T00:00:00","postcodeFull":"SY3 9EU","propertyType":"Semi-detached","oldOrNew":"Established","duration":"Freehold","paon":"23","saon":"","street":"MEOLE WALK","locality":"SHREWSBURY","townOrCity":"SHREWSBURY","district":"SHREWSBURY AND ATCHAM","county":"SHROPSHIRE","ppdCategoryType":"Standard","recordStatus":"Addition","latitude":52.692524,"longitude":-2.762848,"postcodeStart":"SY3 9","postcode":["SY3","9EU"]}
{"price":101000,"dateOfTransfer":"1996-02-02T00:00:00","postcodeFull":"SY3 9AH","propertyType":"Detached","oldOrNew":"Established","duration":"Freehold","paon":"WAYSIDE","saon":"","street":"OLD ROMAN ROAD","locality":"SHREWSBURY","townOrCity":"SHREWSBURY","district":"SHREWSBURY AND ATCHAM","county":"SHROPSHIRE","ppdCategoryType":"Standard","recordStatus":"Addition","latitude":52.697739,"longitude":-2.765514,"postcodeStart":"SY3 9","postcode":["SY3","9AH"]}
{"price":62500,"dateOfTransfer":"1996-11-29T00:00:00","postcodeFull":"SY3 9EP","propertyType":"Semi-detached","oldOrNew":"Established","duration":"Freehold","paon":"79","saon":"","street":"MEOLE CRESCENT","locality":"SHREWSBURY","townOrCity":"SHREWSBURY","district":"SHREWSBURY AND ATCHAM","county":"SHROPSHIRE","ppdCategoryType":"Standard","recordStatus":"Addition","latitude":52.693514,"longitude":-2.759921,"postcodeStart":"SY3 9","postcode":["SY3","9EP"]}
{"price":116500,"dateOfTransfer":"1996-01-30T00:00:00","postcodeFull":"SY3 9BN","propertyType":"Detached","oldOrNew":"Established","duration":"Freehold","paon":"14","saon":"","street":"SANDIWAY","locality":"SHREWSBURY","townOrCity":"SHREWSBURY","district":"SHREWSBURY AND ATCHAM","county":"SHROPSHIRE","ppdCategoryType":"Standard","recordStatus":"Addition","latitude":52.701628,"longitude":-2.783948,"postcodeStart":"SY3 9","postcode":["SY3","9BN"]}
{"price":57000,"dateOfTransfer":"1996-05-03T00:00:00","postcodeFull":"SY3 9JT","propertyType":"Flat/Maisonette/Townhouse","oldOrNew":"Established","duration":"Freehold","paon":"MILL COURT","saon":"1","street":"MILL ROAD","locality":"SHREWSBURY","townOrCity":"SHREWSBURY","district":"SHREWSBURY AND ATCHAM","county":"SHROPSHIRE","ppdCategoryType":"Standard","recordStatus":"Addition","latitude":52.691899,"longitude":-2.757925,"postcodeStart":"SY3 9","postcode":["SY3","9JT"]}
{"price":39000,"dateOfTransfer":"1996-01-03T00:00:00","postcodeFull":"SY3 9ES","propertyType":"Terraced","oldOrNew":"Established","duration":"Freehold","paon":"29","saon":"","street":"MEOLE CRESCENT","locality":"SHREWSBURY","townOrCity":"SHREWSBURY","district":"SHREWSBURY AND ATCHAM","county":"SHROPSHIRE","ppdCategoryType":"Standard","recordStatus":"Addition","latitude":52.692424,"longitude":-2.761722,"postcodeStart":"SY3 9","postcode":["SY3","9ES"]}
{"price":78500,"dateOfTransfer":"1996-09-27T00:00:00","postcodeFull":"SY3 9AL","propertyType":"Semi-detached","oldOrNew":"Established","duration":"Freehold","paon":"98","saon":"","street":"ROMAN ROAD","locality":"SHREWSBURY","townOrCity":"SHREWSBURY","district":"SHREWSBURY AND ATCHAM","county":"SHROPSHIRE","ppdCategoryType":"Standard","recordStatus":"Addition","latitude":52.697825,"longitude":-2.767008,"postcodeStart":"SY3 9","postcode":["SY3","9AL"]}
{"price":69000,"dateOfTransfer":"1996-05-10T00:00:00","postcodeFull":"SY3 9EU","propertyType":"Semi-detached","oldOrNew":"New build","duration":"Freehold","paon":"33","saon":"","street":"MEOLE WALK","locality":"SHREWSBURY","townOrCity":"SHREWSBURY","district":"SHREWSBURY AND ATCHAM","county":"SHROPSHIRE","ppdCategoryType":"Standard","recordStatus":"Addition","latitude":52.692524,"longitude":-2.762848,"postcodeStart":"SY3 9","postcode":["SY3","9EU"]}
{"price":32750,"dateOfTransfer":"1996-03-06T00:00:00","postcodeFull":"SY3 9NQ","propertyType":"Terraced","oldOrNew":"Established","duration":"Freehold","paon":"84","saon":"","street":"MONEYBROOK WAY","locality":"SHREWSBURY","townOrCity":"SHREWSBURY","district":"SHREWSBURY AND ATCHAM","county":"SHROPSHIRE","ppdCategoryType":"Standard","recordStatus":"Addition","latitude":52.68914,"longitude":-2.758689,"postcodeStart":"SY3 9","postcode":["SY3","9NQ"]}
{"price":39500,"dateOfTransfer":"1996-07-12T00:00:00","postcodeFull":"SY3 9HX","propertyType":"Semi-detached","oldOrNew":"Established","duration":"Freehold","paon":"11","saon":"","street":"VICTORIA ROAD","locality":"SHREWSBURY","townOrCity":"SHREWSBURY","district":"SHREWSBURY AND ATCHAM","county":"SHROPSHIRE","ppdCategoryType":"Standard","recordStatus":"Addition","latitude":52.690648,"longitude":-2.766128,"postcodeStart":"SY3 9","postcode":["SY3","9HX"]}
{"price":54000,"dateOfTransfer":"1996-03-01T00:00:00","postcodeFull":"SY3 9HT","propertyType":"Semi-detached","oldOrNew":"Established","duration":"Freehold","paon":"30","saon":"","street":"ALEXANDRA AVENUE","locality":"SHREWSBURY","townOrCity":"SHREWSBURY","district":"SHREWSBURY AND ATCHAM","county":"SHROPSHIRE","ppdCategoryType":"Standard","recordStatus":"Addition","latitude":52.690578,"longitude":-2.76496,"postcodeStart":"SY3 9","postcode":["SY3","9HT"]}
{"price":49000,"dateOfTransfer":"1996-05-24T00:00:00","postcodeFull":"SY3 9JG","propertyType":"Semi-detached","oldOrNew":"Established","duration":"Freehold","paon":"5","saon":"","street":"MEOLE RISE","locality":"SHREWSBURY","townOrCity":"SHREWSBURY","district":"SHREWSBURY AND ATCHAM","county":"SHROPSHIRE","ppdCategoryType":"Standard","recordStatus":"Addition","latitude":52.694502,"longitude":-2.756607,"postcodeStart":"SY3 9","postcode":["SY3","9JG"]}
{"price":39500,"dateOfTransfer":"1996-03-29T00:00:00","postcodeFull":"SY3 9DQ","propertyType":"Terraced","oldOrNew":"Established","duration":"Freehold","paon":"10","saon":"","street":"BANK FARM MEWS","locality":"SHREWSBURY","townOrCity":"SHREWSBURY","district":"SHREWSBURY AND ATCHAM","county":"SHROPSHIRE","ppdCategoryType":"Standard","recordStatus":"Addition","latitude":52.694633,"longitude":-2.774456,"postcodeStart":"SY3 9","postcode":["SY3","9DQ"]}
{"price":66000,"dateOfTransfer":"1996-01-05T00:00:00","postcodeFull":"SY3 9HU","propertyType":"Semi-detached","oldOrNew":"Established","duration":"Freehold","paon":"31","saon":"","street":"ALEXANDRA AVENUE","locality":"SHREWSBURY","townOrCity":"SHREWSBURY","district":"SHREWSBURY AND ATCHAM","county":"SHROPSHIRE","ppdCategoryType":"Standard","recordStatus":"Addition","latitude":52.689945,"longitude":-2.765555,"postcodeStart":"SY3 9","postcode":["SY3","9HU"]}
{"price":73000,"dateOfTransfer":"1996-06-21T00:00:00","postcodeFull":"SY3 9DX","propertyType":"Detached","oldOrNew":"Established","duration":"Freehold","paon":"CROFT COTTAGE","saon":"","street":"MOUSECROFT LANE","locality":"SHREWSBURY","townOrCity":"SHREWSBURY","district":"SHREWSBURY AND ATCHAM","county":"SHROPSHIRE","ppdCategoryType":"Standard","recordStatus":"Addition","latitude":52.692356,"longitude":-2.777686,"postcodeStart":"SY3 9","postcode":["SY3","9DX"]}
{"price":69000,"dateOfTransfer":"1996-05-10T00:00:00","postcodeFull":"SY3 9QD","propertyType":"Detached","oldOrNew":"Established","duration":"Freehold","paon":"3","saon":"","street":"COOLOCK CLOSE","locality":"SHREWSBURY","townOrCity":"SHREWSBURY","district":"SHREWSBURY AND ATCHAM","county":"SHROPSHIRE","ppdCategoryType":"Standard","recordStatus":"Addition","latitude":52.687485,"longitude":-2.771369,"postcodeStart":"SY3 9","postcode":["SY3","9QD"]}
{"price":46500,"dateOfTransfer":"1996-07-04T00:00:00","postcodeFull":"SY3 9JW","propertyType":"Terraced","oldOrNew":"Established","duration":"Freehold","paon":"3","saon":"","street":"UPPER ROAD","locality":"SHREWSBURY","townOrCity":"SHREWSBURY","district":"SHREWSBURY AND ATCHAM","county":"SHROPSHIRE","ppdCategoryType":"Standard","recordStatus":"Addition","latitude":52.692699,"longitude":-2.758072,"postcodeStart":"SY3 9","postcode":["SY3","9JW"]}
{"price":36000,"dateOfTransfer":"1996-12-13T00:00:00","postcodeFull":"SY3 9NZ","propertyType":"Semi-detached","oldOrNew":"Established","duration":"Freehold","paon":"4","saon":"","street":"WILDERLEY CRESCENT","locality":"SHREWSBURY","townOrCity":"SHREWSBURY","district":"SHREWSBURY AND ATCHAM","county":"SHROPSHIRE","ppdCategoryType":"Standard","recordStatus":"Addition","latitude":52.685389,"longitude":-2.760473,"postcodeStart":"SY3 9","postcode":["SY3","9NZ"]}
{"price":36000,"dateOfTransfer":"1996-12-06T00:00:00","postcodeFull":"SY3 9NZ","propertyType":"Terraced","oldOrNew":"Established","duration":"Freehold","paon":"8","saon":"","street":"WILDERLEY CRESCENT","locality":"SHREWSBURY","townOrCity":"SHREWSBURY","district":"SHREWSBURY AND ATCHAM","county":"SHROPSHIRE","ppdCategoryType":"Standard","recordStatus":"Addition","latitude":52.685389,"longitude":-2.760473,"postcodeStart":"SY3 9","postcode":["SY3","9NZ"]}
{"price":58000,"dateOfTransfer":"1996-05-10T00:00:00","postcodeFull":"SY3 9ES","propertyType":"Semi-detached","oldOrNew":"Established","duration":"Freehold","paon":"25","saon":"","street":"MEOLE CRESCENT","locality":"SHREWSBURY","townOrCity":"SHREWSBURY","district":"SHREWSBURY AND ATCHAM","county":"SHROPSHIRE","ppdCategoryType":"Standard","recordStatus":"Addition","latitude":52.692424,"longitude":-2.761722,"postcodeStart":"SY3 9","postcode":["SY3","9ES"]}
{"price":141000,"dateOfTransfer":"1996-12-06T00:00:00","postcodeFull":"SY3 9BB","propertyType":"Detached","oldOrNew":"Established","duration":"Freehold","paon":"13","saon":"","street":"RADBROOK ROAD","locality":"SHREWSBURY","townOrCity":"SHREWSBURY","district":"SHREWSBURY AND ATCHAM","county":"SHROPSHIRE","ppdCategoryType":"Standard","recordStatus":"Addition","latitude":52.704641,"longitude":-2.774189,"postcodeStart":"SY3 9","postcode":["SY3","9BB"]}
{"price":63750,"dateOfTransfer":"1996-06-05T00:00:00","postcodeFull":"SY3 9QA","propertyType":"Detached","oldOrNew":"Established","duration":"Freehold","paon":"74","saon":"","street":"WASHFORD ROAD","locality":"SHREWSBURY","townOrCity":"SHREWSBURY","district":"SHREWSBURY AND ATCHAM","county":"SHROPSHIRE","ppdCategoryType":"Standard","recordStatus":"Addition","latitude":52.68779,"longitude":-2.770577,"postcodeStart":"SY3 9","postcode":["SY3","9QA"]}
{"price":36000,"dateOfTransfer":"1996-04-30T00:00:00","postcodeFull":"SY3 9PA","propertyType":"Terraced","oldOrNew":"Established","duration":"Freehold","paon":"35","saon":"","street":"WILDERLEY CRESCENT","locality":"SHREWSBURY","townOrCity":"SHREWSBURY","district":"SHREWSBURY AND ATCHAM","county":"SHROPSHIRE","ppdCategoryType":"Standard","recordStatus":"Addition","latitude":52.685011,"longitude":-2.760467,"postcodeStart":"SY3 9","postcode":["SY3","9PA"]}
{"price":70500,"dateOfTransfer":"1996-10-31T00:00:00","postcodeFull":"SY3 9HP","propertyType":"Semi-detached","oldOrNew":"Established","duration":"Freehold","paon":"50","saon":"","street":"WASHFORD ROAD","locality":"SHREWSBURY","townOrCity":"SHREWSBURY","district":"SHREWSBURY AND ATCHAM","county":"SHROPSHIRE","ppdCategoryType":"Standard","recordStatus":"Addition","latitude":52.689118,"longitude":-2.769149,"postcodeStart":"SY3 9","postcode":["SY3","9HP"]}
{"price":67000,"dateOfTransfer":"1996-07-12T00:00:00","postcodeFull":"SY3 9EH","propertyType":"Semi-detached","oldOrNew":"Established","duration":"Freehold","paon":"5","saon":"","street":"PRIORY RIDGE","locality":"SHREWSBURY","townOrCity":"SHREWSBURY","district":"SHREWSBURY AND ATCHAM","county":"SHROPSHIRE","ppdCategoryType":"Standard","recordStatus":"Addition","latitude":52.69532,"longitude":-2.765649,"postcodeStart":"SY3 9","postcode":["SY3","9EH"]}
{"price":44000,"dateOfTransfer":"1996-11-22T00:00:00","postcodeFull":"SY3 9NH","propertyType":"Semi-detached","oldOrNew":"Established","duration":"Freehold","paon":"27","saon":"","street":"MONEYBROOK WAY","locality":"SHREWSBURY","townOrCity":"SHREWSBURY","district":"SHREWSBURY AND ATCHAM","county":"SHROPSHIRE","ppdCategoryType":"Standard","recordStatus":"Addition","latitude":52.688814,"longitude":-2.758212,"postcodeStart":"SY3 9","postcode":["SY3","9NH"]}
{"price":182000,"dateOfTransfer":"1996-10-28T00:00:00","postcodeFull":"SY3 9EN","propertyType":"Detached","oldOrNew":"New build","duration":"Freehold","paon":"1","saon":"","street":"SILVERBIRCH DRIVE","locality":"SHREWSBURY","townOrCity":"SHREWSBURY","district":"SHREWSBURY AND ATCHAM","county":"SHROPSHIRE","ppdCategoryType":"Standard","recordStatus":"Addition","latitude":52.690461,"longitude":-2.770535,"postcodeStart":"SY3 9","postcode":["SY3","9EN"]}
{"price":38000,"dateOfTransfer":"1996-12-05T00:00:00","postcodeFull":"SY3 9HR","propertyType":"Terraced","oldOrNew":"Established","duration":"Freehold","paon":"13","saon":"","street":"WASHFORD ROAD","locality":"SHREWSBURY","townOrCity":"SHREWSBURY","district":"SHREWSBURY AND ATCHAM","county":"SHROPSHIRE","ppdCategoryType":"Standard","recordStatus":"Addition","latitude":52.690625,"longitude":-2.766897,"postcodeStart":"SY3 9","postcode":["SY3","9HR"]}
{"price":95000,"dateOfTransfer":"1996-06-07T00:00:00","postcodeFull":"SY3 9QH","propertyType":"Detached","oldOrNew":"Established","duration":"Freehold","paon":"21","saon":"","street":"PENDLE WAY","locality":"SHREWSBURY","townOrCity":"SHREWSBURY","district":"SHREWSBURY AND ATCHAM","county":"SHROPSHIRE","ppdCategoryType":"Standard","recordStatus":"Addition","latitude":52.687807,"longitude":-2.769453,"postcodeStart":"SY3 9","postcode":["SY3","9QH"]}
{"price":57000,"dateOfTransfer":"1996-06-07T00:00:00","postcodeFull":"SY3 9EU","propertyType":"Semi-detached","oldOrNew":"Established","duration":"Freehold","paon":"34","saon":"","street":"MEOLE WALK","locality":"SHREWSBURY","townOrCity":"SHREWSBURY","district":"SOUTH SHROPSHIRE","county":"SHROPSHIRE","ppdCategoryType":"Standard","recordStatus":"Addition","latitude":52.692524,"longitude":-2.762848,"postcodeStart":"SY3 9","postcode":["SY3","9EU"]}
{"price":100000,"dateOfTransfer":"1996-06-27T00:00:00","postcodeFull":"SY3 9BW","propertyType":"Detached","oldOrNew":"Established","duration":"Freehold","paon":"5","saon":"","street":"WOODSIDE DRIVE","locality":"SHREWSBURY","townOrCity":"SHREWSBURY","district":"SHREWSBURY AND ATCHAM","county":"SHROPSHIRE","ppdCategoryType":"Standard","recordStatus":"Addition","latitude":52.703151,"longitude":-2.783339,"postcodeStart":"SY3 9","postcode":["SY3","9BW"]}
{"price":66000,"dateOfTransfer":"1996-06-03T00:00:00","postcodeFull":"SY3 9DE","propertyType":"Semi-detached","oldOrNew":"Established","duration":"Freehold","paon":"9","saon":"","street":"GRANGEFIELDS","locality":"SHREWSBURY","townOrCity":"SHREWSBURY","district":"SHREWSBURY AND ATCHAM","county":"SHROPSHIRE","ppdCategoryType":"Standard","recordStatus":"Addition","latitude":52.698891,"longitude":-2.772297,"postcodeStart":"SY3 9","postcode":["SY3","9DE"]}
{"price":64000,"dateOfTransfer":"1996-03-01T00:00:00","postcodeFull":"SY3 9HU","propertyType":"Semi-detached","oldOrNew":"Established","duration":"Freehold","paon":"23","saon":"","street":"ALEXANDRA AVENUE","locality":"SHREWSBURY","townOrCity":"SHREWSBURY","district":"SHREWSBURY AND ATCHAM","county":"SHROPSHIRE","ppdCategoryType":"Standard","recordStatus":"Addition","latitude":52.689945,"longitude":-2.765555,"postcodeStart":"SY3 9","postcode":["SY3","9HU"]}
{"price":42000,"dateOfTransfer":"1996-10-28T00:00:00","postcodeFull":"SY3 9HX","propertyType":"Terraced","oldOrNew":"Established","duration":"Freehold","paon":"42","saon":"","street":"VICTORIA ROAD","locality":"SHREWSBURY","townOrCity":"SHREWSBURY","district":"SHREWSBURY AND ATCHAM","county":"SHROPSHIRE","ppdCategoryType":"Standard","recordStatus":"Addition","latitude":52.690648,"longitude":-2.766128,"postcodeStart":"SY3 9","postcode":["SY3","9HX"]}
{"price":68000,"dateOfTransfer":"1996-10-01T00:00:00","postcodeFull":"SY3 9HX","propertyType":"Semi-detached","oldOrNew":"Established","duration":"Freehold","paon":"5","saon":"","street":"VICTORIA ROAD","locality":"SHREWSBURY","townOrCity":"SHREWSBURY","district":"SHREWSBURY AND ATCHAM","county":"SHROPSHIRE","ppdCategoryType":"Standard","recordStatus":"Addition","latitude":52.690648,"longitude":-2.766128,"postcodeStart":"SY3 9","postcode":["SY3","9HX"]}
{"price":49000,"dateOfTransfer":"1996-09-20T00:00:00","postcodeFull":"SY3 9ER","propertyType":"Terraced","oldOrNew":"Established","duration":"Freehold","paon":"80","saon":"","street":"MEOLE CRESCENT","locality":"SHREWSBURY","townOrCity":"SHREWSBURY","district":"SHREWSBURY AND ATCHAM","county":"SHROPSHIRE","ppdCategoryType":"Standard","recordStatus":"Addition","latitude":52.693207,"longitude":-2.759885,"postcodeStart":"SY3 9","postcode":["SY3","9ER"]}
{"price":103000,"dateOfTransfer":"1996-01-03T00:00:00","postcodeFull":"SY3 9AS","propertyType":"Detached","oldOrNew":"Established","duration":"Freehold","paon":"46","saon":"","street":"ROMAN ROAD","locality":"SHREWSBURY","townOrCity":"SHREWSBURY","district":"SHREWSBURY AND ATCHAM","county":"SHROPSHIRE","ppdCategoryType":"Standard","recordStatus":"Addition","latitude":52.701235,"longitude":-2.771216,"postcodeStart":"SY3 9","postcode":["SY3","9AS"]}
{"price":99950,"dateOfTransfer":"1996-08-09T00:00:00","postcodeFull":"SY3 9AP","propertyType":"Detached","oldOrNew":"Established","duration":"Freehold","paon":"14","saon":"","street":"CANONVALE","locality":"SHREWSBURY","townOrCity":"SHREWSBURY","district":"SHREWSBURY AND ATCHAM","county":"SHROPSHIRE","ppdCategoryType":"Standard","recordStatus":"Addition","latitude":52.699053,"longitude":-2.77085,"postcodeStart":"SY3 9","postcode":["SY3","9AP"]}
{"price":65950,"dateOfTransfer":"1996-07-22T00:00:00","postcodeFull":"SY3 9JF","propertyType":"Semi-detached","oldOrNew":"Established","duration":"Freehold","paon":"47","saon":"","street":"MEOLE RISE","locality":"SHREWSBURY","townOrCity":"SHREWSBURY","district":"SHREWSBURY AND ATCHAM","county":"SHROPSHIRE","ppdCategoryType":"Standard","recordStatus":"Addition","latitude":52.694802,"longitude":-2.756644,"postcodeStart":"SY3 9","postcode":["SY3","9JF"]}
{"price":120000,"dateOfTransfer":"1996-02-02T00:00:00","postcodeFull":"SY3 9AR","propertyType":"Detached","oldOrNew":"Established","duration":"Freehold","paon":"27","saon":"","street":"ROMAN ROAD","locality":"SHREWSBURY","townOrCity":"SHREWSBURY","district":"SHREWSBURY AND ATCHAM","county":"SHROPSHIRE","ppdCategoryType":"Standard","recordStatus":"Addition","latitude":52.700875,"longitude":-2.769875,"postcodeStart":"SY3 9","postcode":["SY3","9AR"]}
{"price":64000,"dateOfTransfer":"1996-08-09T00:00:00","postcodeFull":"SY3 9EY","propertyType":"Terraced","oldOrNew":"Established","duration":"Freehold","paon":"5","saon":"","street":"CHURCH ROW","locality":"MEOLE BRACE","townOrCity":"SHREWSBURY","district":"SHREWSBURY AND ATCHAM","county":"SHROPSHIRE","ppdCategoryType":"Standard","recordStatus":"Addition","latitude":52.691131,"longitude":-2.760765,"postcodeStart":"SY3 9","postcode":["SY3","9EY"]}
{"price":30000,"dateOfTransfer":"1996-06-05T00:00:00","postcodeFull":"SY3 9DQ","propertyType":"Terraced","oldOrNew":"Established","duration":"Freehold","paon":"3","saon":"","street":"BANK FARM MEWS","locality":"SHREWSBURY","townOrCity":"SHREWSBURY","district":"SHREWSBURY AND ATCHAM","county":"SHROPSHIRE","ppdCategoryType":"Standard","recordStatus":"Addition","latitude":52.694633,"longitude":-2.774456,"postcodeStart":"SY3 9","postcode":["SY3","9DQ"]}
{"price":47000,"dateOfTransfer":"1996-09-20T00:00:00","postcodeFull":"SY3 9LA","propertyType":"Semi-detached","oldOrNew":"Established","duration":"Freehold","paon":"142","saon":"","street":"HEREFORD ROAD","locality":"SHREWSBURY","townOrCity":"SHREWSBURY","district":"SHREWSBURY AND ATCHAM","county":"SHROPSHIRE","ppdCategoryType":"Standard","recordStatus":"Addition","latitude":52.690157,"longitude":-2.755703,"postcodeStart":"SY3 9","postcode":["SY3","9LA"]}
{"price":35500,"dateOfTransfer":"1996-10-04T00:00:00","postcodeFull":"SY3 9DQ","propertyType":"Terraced","oldOrNew":"Established","duration":"Freehold","paon":"4","saon":"","street":"BANK FARM MEWS","locality":"SHREWSBURY","townOrCity":"SHREWSBURY","district":"SHREWSBURY AND ATCHAM","county":"SHROPSHIRE","ppdCategoryType":"Standard","recordStatus":"Addition","latitude":52.694633,"longitude":-2.774456,"postcodeStart":"SY3 9","postcode":["SY3","9DQ"]}
{"price":89000,"dateOfTransfer":"1996-10-02T00:00:00","postcodeFull":"SY3 9EZ","propertyType":"Terraced","oldOrNew":"Established","duration":"Freehold","paon":"OLD SCHOOL HOUSE","saon":"","street":"VICARAGE ROAD","locality":"SHREWSBURY","townOrCity":"SHREWSBURY","district":"SHREWSBURY AND ATCHAM","county":"SHROPSHIRE","ppdCategoryType":"Standard","recordStatus":"Addition","latitude":52.691375,"longitude":-2.762532,"postcodeStart":"SY3 9","postcode":["SY3","9EZ"]}
{"price":94750,"dateOfTransfer":"1996-10-18T00:00:00","postcodeFull":"SY3 9DD","propertyType":"Detached","oldOrNew":"Established","duration":"Freehold","paon":"39","saon":"","street":"GRANGEFIELDS ROAD","locality":"SHREWSBURY","townOrCity":"SHREWSBURY","district":"SHREWSBURY AND ATCHAM","county":"SHROPSHIRE","ppdCategoryType":"Standard","recordStatus":"Addition","latitude":52.69802,"longitude":-2.770698,"postcodeStart":"SY3 9","postcode":["SY3","9DD"]}
{"price":182000,"dateOfTransfer":"1996-08-16T00:00:00","postcodeFull":"SY3 9AB","propertyType":"Detached","oldOrNew":"Established","duration":"Freehold","paon":"51","saon":"","street":"RIDGEBOURNE ROAD","locality":"SHREWSBURY","townOrCity":"SHREWSBURY","district":"SHREWSBURY AND ATCHAM","county":"SHROPSHIRE","ppdCategoryType":"Standard","recordStatus":"Addition","latitude":52.703033,"longitude":-2.774854,"postcodeStart":"SY3 9","postcode":["SY3","9AB"]}
{"price":44000,"dateOfTransfer":"1996-12-20T00:00:00","postcodeFull":"SY3 9HR","propertyType":"Terraced","oldOrNew":"Established","duration":"Freehold","paon":"41","saon":"","street":"WASHFORD ROAD","locality":"SHREWSBURY","townOrCity":"SHREWSBURY","district":"SHREWSBURY AND ATCHAM","county":"SHROPSHIRE","ppdCategoryType":"Standard","recordStatus":"Addition","latitude":52.690625,"longitude":-2.766897,"postcodeStart":"SY3 9","postcode":["SY3","9HR"]}
{"price":180000,"dateOfTransfer":"1996-12-17T00:00:00","postcodeFull":"SY3 9JT","propertyType":"Detached","oldOrNew":"Established","duration":"Freehold","paon":"THE OLDE HOUSE","saon":"","street":"MILL ROAD","locality":"SHREWSBURY","townOrCity":"SHREWSBURY","district":"SHREWSBURY AND ATCHAM","county":"SHROPSHIRE","ppdCategoryType":"Standard","recordStatus":"Addition","latitude":52.691899,"longitude":-2.757925,"postcodeStart":"SY3 9","postcode":["SY3","9JT"]}
{"price":54000,"dateOfTransfer":"1996-10-04T00:00:00","postcodeFull":"SY3 9HR","propertyType":"Terraced","oldOrNew":"Established","duration":"Freehold","paon":"7","saon":"","street":"WASHFORD ROAD","locality":"SHREWSBURY","townOrCity":"SHREWSBURY","district":"SHREWSBURY AND ATCHAM","county":"SHROPSHIRE","ppdCategoryType":"Standard","recordStatus":"Addition","latitude":52.690625,"longitude":-2.766897,"postcodeStart":"SY3 9","postcode":["SY3","9HR"]}
{"price":59995,"dateOfTransfer":"1996-02-16T00:00:00","postcodeFull":"SY3 9QB","propertyType":"Detached","oldOrNew":"Established","duration":"Freehold","paon":"2","saon":"","street":"BARNS GREEN","locality":"SHREWSBURY","townOrCity":"SHREWSBURY","district":"SHREWSBURY AND ATCHAM","county":"SHROPSHIRE","ppdCategoryType":"Standard","recordStatus":"Addition","latitude":52.687694,"longitude":-2.771047,"postcodeStart":"SY3 9","postcode":["SY3","9QB"]}
{"price":52000,"dateOfTransfer":"1996-08-02T00:00:00","postcodeFull":"SY3 9ET","propertyType":"Terraced","oldOrNew":"Established","duration":"Freehold","paon":"32","saon":"","street":"MEOLE CRESCENT","locality":"SHREWSBURY","townOrCity":"SHREWSBURY","district":"SHREWSBURY AND ATCHAM","county":"SHROPSHIRE","ppdCategoryType":"Standard","recordStatus":"Addition","latitude":52.69231,"longitude":-2.761232,"postcodeStart":"SY3 9","postcode":["SY3","9ET"]}
{"price":110000,"dateOfTransfer":"1996-04-12T00:00:00","postcodeFull":"SY3 9DG","propertyType":"Detached","oldOrNew":"Established","duration":"Freehold","paon":"51","saon":"","street":"GRANGE ROAD","locality":"SHREWSBURY","townOrCity":"SHREWSBURY","district":"SHREWSBURY AND ATCHAM","county":"SHROPSHIRE","ppdCategoryType":"Standard","recordStatus":"Addition","latitude":52.695991,"longitude":-2.770233,"postcodeStart":"SY3 9","postcode":["SY3","9DG"]}
{"price":170000,"dateOfTransfer":"1996-12-09T00:00:00","postcodeFull":"SY3 9AX","propertyType":"Detached","oldOrNew":"Established","duration":"Freehold","paon":"3","saon":"","street":"RUSSELL RIDGE","locality":"SHREWSBURY","townOrCity":"SHREWSBURY","district":"SHREWSBURY AND ATCHAM","county":"SHROPSHIRE","ppdCategoryType":"Standard","recordStatus":"Addition","latitude":52.703002,"longitude":-2.773213,"postcodeStart":"SY3 9","postcode":["SY3","9AX"]}
{"price":58000,"dateOfTransfer":"1996-12-20T00:00:00","postcodeFull":"SY3 9QA","propertyType":"Detached","oldOrNew":"Established","duration":"Freehold","paon":"76","saon":"","street":"WASHFORD ROAD","locality":"SHREWSBURY","townOrCity":"SHREWSBURY","district":"SHREWSBURY AND ATCHAM","county":"SHROPSHIRE","ppdCategoryType":"Standard","recordStatus":"Addition","latitude":52.68779,"longitude":-2.770577,"postcodeStart":"SY3 9","postcode":["SY3","9QA"]}
{"price":86500,"dateOfTransfer":"1996-08-09T00:00:00","postcodeFull":"SY3 9BT","propertyType":"Detached","oldOrNew":"Established","duration":"Freehold","paon":"6","saon":"","street":"STILTON CLOSE","locality":"SHREWSBURY","townOrCity":"SHREWSBURY","district":"SHREWSBURY AND ATCHAM","county":"SHROPSHIRE","ppdCategoryType":"Standard","recordStatus":"Addition","latitude":52.701787,"longitude":-2.78435,"postcodeStart":"SY3 9","postcode":["SY3","9BT"]}
{"price":180000,"dateOfTransfer":"1996-11-27T00:00:00","postcodeFull":"SY3 9AB","propertyType":"Detached","oldOrNew":"Established","duration":"Freehold","paon":"49","saon":"","street":"RIDGEBOURNE ROAD","locality":"SHREWSBURY","townOrCity":"SHREWSBURY","district":"SHREWSBURY AND ATCHAM","county":"SHROPSHIRE","ppdCategoryType":"Standard","recordStatus":"Addition","latitude":52.703033,"longitude":-2.774854,"postcodeStart":"SY3 9","postcode":["SY3","9AB"]}
{"price":124000,"dateOfTransfer":"1996-02-14T00:00:00","postcodeFull":"SY3 9QT","propertyType":"Detached","oldOrNew":"New build","duration":"Freehold","paon":"4","saon":"","street":"FAIRLAWN GARDENS","locality":"SHREWSBURY","townOrCity":"SHREWSBURY","district":"SHREWSBURY AND ATCHAM","county":"SHROPSHIRE","ppdCategoryType":"Standard","recordStatus":"Addition","latitude":52.689363,"longitude":-2.765913,"postcodeStart":"SY3 9","postcode":["SY3","9QT"]}
{"price":118000,"dateOfTransfer":"1996-11-06T00:00:00","postcodeFull":"SY3 9AH","propertyType":"Detached","oldOrNew":"Established","duration":"Freehold","paon":"GRANGE HOUSE","saon":"","street":"OLD ROMAN ROAD","locality":"SHREWSBURY","townOrCity":"SHREWSBURY","district":"SHREWSBURY AND ATCHAM","county":"SHROPSHIRE","ppdCategoryType":"Standard","recordStatus":"Addition","latitude":52.697739,"longitude":-2.765514,"postcodeStart":"SY3 9","postcode":["SY3","9AH"]}
{"price":52000,"dateOfTransfer":"1996-07-26T00:00:00","postcodeFull":"SY3 9JQ","propertyType":"Detached","oldOrNew":"Established","duration":"Freehold","paon":"28","saon":"","street":"UPPER ROAD","locality":"SHREWSBURY","townOrCity":"SHREWSBURY","district":"SHREWSBURY AND ATCHAM","county":"SHROPSHIRE","ppdCategoryType":"Standard","recordStatus":"Addition","latitude":52.693729,"longitude":-2.756549,"postcodeStart":"SY3 9","postcode":["SY3","9JQ"]}
{"price":85000,"dateOfTransfer":"1996-10-29T00:00:00","postcodeFull":"SY3 9QJ","propertyType":"Detached","oldOrNew":"Established","duration":"Freehold","paon":"6","saon":"","street":"LONSDALE DRIVE","locality":"SHREWSBURY","townOrCity":"SHREWSBURY","district":"SHREWSBURY AND ATCHAM","county":"SHROPSHIRE","ppdCategoryType":"Standard","recordStatus":"Addition","latitude":52.687861,"longitude":-2.767945,"postcodeStart":"SY3 9","postcode":["SY3","9QJ"]}
{"price":63000,"dateOfTransfer":"1996-09-06T00:00:00","postcodeFull":"SY3 9DE","propertyType":"Semi-detached","oldOrNew":"Established","duration":"Freehold","paon":"4","saon":"","street":"GRANGEFIELDS","locality":"SHREWSBURY","townOrCity":"SHREWSBURY","district":"SHREWSBURY AND ATCHAM","county":"SHROPSHIRE","ppdCategoryType":"Standard","recordStatus":"Addition","latitude":52.698891,"longitude":-2.772297,"postcodeStart":"SY3 9","postcode":["SY3","9DE"]}
{"price":42500,"dateOfTransfer":"1996-09-20T00:00:00","postcodeFull":"SY3 9HR","propertyType":"Semi-detached","oldOrNew":"Established","duration":"Freehold","paon":"43","saon":"","street":"WASHFORD ROAD","locality":"SHREWSBURY","townOrCity":"SHREWSBURY","district":"SHREWSBURY AND ATCHAM","county":"SHROPSHIRE","ppdCategoryType":"Standard","recordStatus":"Addition","latitude":52.690625,"longitude":-2.766897,"postcodeStart":"SY3 9","postcode":["SY3","9HR"]}
{"price":50000,"dateOfTransfer":"1996-05-17T00:00:00","postcodeFull":"SY3 9ER","propertyType":"Semi-detached","oldOrNew":"Established","duration":"Freehold","paon":"52","saon":"","street":"MEOLE CRESCENT","locality":"SHREWSBURY","townOrCity":"SHREWSBURY","district":"SHREWSBURY AND ATCHAM","county":"SHROPSHIRE","ppdCategoryType":"Standard","recordStatus":"Addition","latitude":52.693207,"longitude":-2.759885,"postcodeStart":"SY3 9","postcode":["SY3","9ER"]}
{"price":100000,"dateOfTransfer":"1996-12-13T00:00:00","postcodeFull":"SY3 9HW","propertyType":"Detached","oldOrNew":"Established","duration":"Freehold","paon":"69","saon":"","street":"WASHFORD ROAD","locality":"SHREWSBURY","townOrCity":"SHREWSBURY","district":"SHREWSBURY AND ATCHAM","county":"SHROPSHIRE","ppdCategoryType":"Standard","recordStatus":"Addition","latitude":52.688375,"longitude":-2.769167,"postcodeStart":"SY3 9","postcode":["SY3","9HW"]}
{"price":49000,"dateOfTransfer":"1996-03-29T00:00:00","postcodeFull":"SY3 9EF","propertyType":"Semi-detached","oldOrNew":"Established","duration":"Freehold","paon":"15","saon":"","street":"PRIORY DRIVE","locality":"SHREWSBURY","townOrCity":"SHREWSBURY","district":"SHREWSBURY AND ATCHAM","county":"SHROPSHIRE","ppdCategoryType":"Standard","recordStatus":"Addition","latitude":52.694789,"longitude":-2.767134,"postcodeStart":"SY3 9","postcode":["SY3","9EF"]}
{"price":60000,"dateOfTransfer":"1996-08-30T00:00:00","postcodeFull":"SY3 9QG","propertyType":"Detached","oldOrNew":"Established","duration":"Freehold","paon":"14","saon":"","street":"ADSWOOD GROVE","locality":"SHREWSBURY","townOrCity":"SHREWSBURY","district":"SHREWSBURY AND ATCHAM","county":"SHROPSHIRE","ppdCategoryType":"Standard","recordStatus":"Addition","latitude":52.687183,"longitude":-2.7728,"postcodeStart":"SY3 9","postcode":["SY3","9QG"]}
{"price":87000,"dateOfTransfer":"1996-05-10T00:00:00","postcodeFull":"SY3 9QH","propertyType":"Detached","oldOrNew":"Established","duration":"Freehold","paon":"6","saon":"","street":"PENDLE WAY","locality":"SHREWSBURY","townOrCity":"SHREWSBURY","district":"SHREWSBURY AND ATCHAM","county":"SHROPSHIRE","ppdCategoryType":"Standard","recordStatus":"Addition","latitude":52.687807,"longitude":-2.769453,"postcodeStart":"SY3 9","postcode":["SY3","9QH"]}
{"price":92000,"dateOfTransfer":"1996-05-31T00:00:00","postcodeFull":"SY3 9EJ","propertyType":"Detached","oldOrNew":"Established","duration":"Freehold","paon":"90","saon":"","street":"PRIORY RIDGE","locality":"SHREWSBURY","townOrCity":"SHREWSBURY","district":"SHREWSBURY AND ATCHAM","county":"SHROPSHIRE","ppdCategoryType":"Standard","recordStatus":"Addition","latitude":52.695604,"longitude":-2.764796,"postcodeStart":"SY3 9","postcode":["SY3","9EJ"]}
{"price":27000,"dateOfTransfer":"1996-05-03T00:00:00","postcodeFull":"SY3 9BQ","propertyType":"Flat/Maisonette/Townhouse","oldOrNew":"Established","duration":"Leasehold","paon":"37A","saon":"","street":"RADBROOK ROAD","locality":"SHREWSBURY","townOrCity":"SHREWSBURY","district":"SHREWSBURY AND ATCHAM","county":"SHROPSHIRE","ppdCategoryType":"Standard","recordStatus":"Addition","latitude":52.702357,"longitude":-2.779267,"postcodeStart":"SY3 9","postcode":["SY3","9BQ"]}
{"price":135000,"dateOfTransfer":"1996-02-07T00:00:00","postcodeFull":"SY3 9HQ","propertyType":"Semi-detached","oldOrNew":"Established","duration":"Freehold","paon":"THE OLD STABLES","saon":"","street":"CHURCH ROAD","locality":"MEOLE BRACE","townOrCity":"SHREWSBURY","district":"SHREWSBURY AND ATCHAM","county":"SHROPSHIRE","ppdCategoryType":"Standard","recordStatus":"Addition","latitude":52.686927,"longitude":-2.764495,"postcodeStart":"SY3 9","postcode":["SY3","9HQ"]}
{"price":33000,"dateOfTransfer":"1996-11-08T00:00:00","postcodeFull":"SY3 9JB","propertyType":"Terraced","oldOrNew":"Established","duration":"Freehold","paon":"3","saon":"","street":"ALMS COURT","locality":"SHREWSBURY","townOrCity":"SHREWSBURY","district":"SHREWSBURY AND ATCHAM","county":"SHROPSHIRE","ppdCategoryType":"Standard","recordStatus":"Addition","latitude":52.692711,"longitude":-2.756075,"postcodeStart":"SY3 9","postcode":["SY3","9JB"]}
{"price":122000,"dateOfTransfer":"1996-09-27T00:00:00","postcodeFull":"SY3 9AW","propertyType":"Detached","oldOrNew":"Established","duration":"Freehold","paon":"66","saon":"","street":"ROMAN ROAD","locality":"SHREWSBURY","townOrCity":"SHREWSBURY","district":"SHREWSBURY AND ATCHAM","county":"SHROPSHIRE","ppdCategoryType":"Standard","recordStatus":"Addition","latitude":52.699709,"longitude":-2.770311,"postcodeStart":"SY3 9","postcode":["SY3","9AW"]}
{"price":74500,"dateOfTransfer":"1996-12-13T00:00:00","postcodeFull":"SY3 9HG","propertyType":"Detached","oldOrNew":"Established","duration":"Freehold","paon":"5","saon":"","street":"CHURCH ROAD","locality":"MEOLE BRACE","townOrCity":"SHREWSBURY","district":"SHREWSBURY AND ATCHAM","county":"SHROPSHIRE","ppdCategoryType":"Standard","recordStatus":"Addition","latitude":52.688223,"longitude":-2.762919,"postcodeStart":"SY3 9","postcode":["SY3","9HG"]}
{"price":64500,"dateOfTransfer":"1996-11-25T00:00:00","postcodeFull":"SY3 9JA","propertyType":"Terraced","oldOrNew":"Established","duration":"Freehold","paon":"2","saon":"","street":"JOHN EVANS MEWS","locality":"SHREWSBURY","townOrCity":"SHREWSBURY","district":"SHREWSBURY AND ATCHAM","county":"SHROPSHIRE","ppdCategoryType":"Standard","recordStatus":"Addition","latitude":52.693145,"longitude":-2.756643,"postcodeStart":"SY3 9","postcode":["SY3","9JA"]}
{"price":89000,"dateOfTransfer":"1996-05-28T00:00:00","postcodeFull":"SY3 9EZ","propertyType":"Detached","oldOrNew":"Established","duration":"Freehold","paon":"THE OLD SCHOOL","saon":"2","street":"VICARAGE ROAD","locality":"SHREWSBURY","townOrCity":"SHREWSBURY","district":"SHREWSBURY AND ATCHAM","county":"SHROPSHIRE","ppdCategoryType":"Standard","recordStatus":"Addition","latitude":52.691375,"longitude":-2.762532,"postcodeStart":"SY3 9","postcode":["SY3","9EZ"]}
{"price":79950,"dateOfTransfer":"1996-06-15T00:00:00","postcodeFull":"SY3 9HH","propertyType":"Detached","oldOrNew":"Established","duration":"Freehold","paon":"19","saon":"","street":"BURNSIDE GARDENS","locality":"SHREWSBURY","townOrCity":"SHREWSBURY","district":"SHREWSBURY AND ATCHAM","county":"SHROPSHIRE","ppdCategoryType":"Standard","recordStatus":"Addition","latitude":52.688628,"longitude":-2.761937,"postcodeStart":"SY3 9","postcode":["SY3","9HH"]}
{"price":110000,"dateOfTransfer":"1996-11-15T00:00:00","postcodeFull":"SY3 9AN","propertyType":"Detached","oldOrNew":"Established","duration":"Freehold","paon":"82B","saon":"","street":"ROMAN ROAD","locality":"SHREWSBURY","townOrCity":"SHREWSBURY","district":"SHREWSBURY AND ATCHAM","county":"SHROPSHIRE","ppdCategoryType":"Standard","recordStatus":"Addition","latitude":52.698828,"longitude":-2.769009,"postcodeStart":"SY3 9","postcode":["SY3","9AN"]}
{"price":59950,"dateOfTransfer":"1996-10-09T00:00:00","postcodeFull":"SY3 9JW","propertyType":"Semi-detached","oldOrNew":"Established","duration":"Freehold","paon":"31","saon":"","street":"UPPER ROAD","locality":"SHREWSBURY","townOrCity":"SHREWSBURY","district":"SHREWSBURY AND ATCHAM","county":"SHROPSHIRE","ppdCategoryType":"Standard","recordStatus":"Addition","latitude":52.692699,"longitude":-2.758072,"postcodeStart":"SY3 9","postcode":["SY3","9JW"]}
{"price":210000,"dateOfTransfer":"1997-11-28T00:00:00","postcodeFull":"SY3 9AA","propertyType":"Detached","oldOrNew":"Established","duration":"Freehold","paon":"29","saon":"","street":"RIDGEBOURNE ROAD","locality":"SHREWSBURY","townOrCity":"SHREWSBURY","district":"SHREWSBURY AND ATCHAM","county":"SHROPSHIRE","ppdCategoryType":"Standard","recordStatus":"Addition","latitude":52.701835,"longitude":-2.772956,"postcodeStart":"SY3 9","postcode":["SY3","9AA"]}
{"price":69000,"dateOfTransfer":"1997-04-14T00:00:00","postcodeFull":"SY3 9QG","propertyType":"Detached","oldOrNew":"Established","duration":"Freehold","paon":"15","saon":"","street":"ADSWOOD GROVE","locality":"SHREWSBURY","townOrCity":"SHREWSBURY","district":"SHREWSBURY AND ATCHAM","county":"SHROPSHIRE","ppdCategoryType":"Standard","recordStatus":"Addition","latitude":52.687183,"longitude":-2.7728,"postcodeStart":"SY3 9","postcode":["SY3","9QG"]}
{"price":68000,"dateOfTransfer":"1997-05-13T00:00:00","postcodeFull":"SY3 9JP","propertyType":"Semi-detached","oldOrNew":"Established","duration":"Freehold","paon":"41","saon":"","street":"UPPER ROAD","locality":"SHREWSBURY","townOrCity":"SHREWSBURY","district":"SHREWSBURY AND ATCHAM","county":"SHROPSHIRE","ppdCategoryType":"Standard","recordStatus":"Addition","latitude":52.692256,"longitude":-2.759187,"postcodeStart":"SY3 9","postcode":["SY3","9JP"]}
{"price":85000,"dateOfTransfer":"1997-10-30T00:00:00","postcodeFull":"SY3 9HG","propertyType":"Detached","oldOrNew":"Established","duration":"Freehold","paon":"11","saon":"","street":"CHURCH ROAD","locality":"MEOLE BRACE","townOrCity":"SHREWSBURY","district":"SHREWSBURY AND ATCHAM","county":"SHROPSHIRE","ppdCategoryType":"Standard","recordStatus":"Addition","latitude":52.688223,"longitude":-2.762919,"postcodeStart":"SY3 9","postcode":["SY3","9HG"]}
{"price":84500,"dateOfTransfer":"1997-05-12T00:00:00","postcodeFull":"SY3 9JF","propertyType":"Detached","oldOrNew":"Established","duration":"Freehold","paon":"63","saon":"","street":"MEOLE RISE","locality":"SHREWSBURY","townOrCity":"SHREWSBURY","district":"SHREWSBURY AND ATCHAM","county":"SHROPSHIRE","ppdCategoryType":"Standard","recordStatus":"Addition","latitude":52.694802,"longitude":-2.756644,"postcodeStart":"SY3 9","postcode":["SY3","9JF"]}
{"price":82000,"dateOfTransfer":"1997-10-29T00:00:00","postcodeFull":"SY3 9HX","propertyType":"Detached","oldOrNew":"Established","duration":"Freehold","paon":"37","saon":"","street":"VICTORIA ROAD","locality":"SHREWSBURY","townOrCity":"SHREWSBURY","district":"SHREWSBURY AND ATCHAM","county":"SHROPSHIRE","ppdCategoryType":"Standard","recordStatus":"Addition","latitude":52.690648,"longitude":-2.766128,"postcodeStart":"SY3 9","postcode":["SY3","9HX"]}
{"price":43750,"dateOfTransfer":"1997-05-30T00:00:00","postcodeFull":"SY3 9ET","propertyType":"Semi-detached","oldOrNew":"Established","duration":"Freehold","paon":"8","saon":"","street":"MEOLE CRESCENT","locality":"SHREWSBURY","townOrCity":"SHREWSBURY","district":"SHREWSBURY AND ATCHAM","county":"SHROPSHIRE","ppdCategoryType":"Standard","recordStatus":"Addition","latitude":52.69231,"longitude":-2.761232,"postcodeStart":"SY3 9","postcode":["SY3","9ET"]}
{"price":56000,"dateOfTransfer":"1997-11-28T00:00:00","postcodeFull":"SY3 9DN","propertyType":"Detached","oldOrNew":"Established","duration":"Freehold","paon":"158","saon":"","street":"LONGDEN ROAD","locality":"SHREWSBURY","townOrCity":"SHREWSBURY","district":"SHREWSBURY AND ATCHAM","county":"SHROPSHIRE","ppdCategoryType":"Standard","recordStatus":"Addition","latitude":52.692911,"longitude":-2.770547,"postcodeStart":"SY3 9","postcode":["SY3","9DN"]}
{"price":57000,"dateOfTransfer":"1997-12-19T00:00:00","postcodeFull":"SY3 9EU","propertyType":"Semi-detached","oldOrNew":"Established","duration":"Freehold","paon":"15","saon":"","street":"MEOLE WALK","locality":"SHREWSBURY","townOrCity":"SHREWSBURY","district":"SHREWSBURY AND ATCHAM","county":"SHROPSHIRE","ppdCategoryType":"Standard","recordStatus":"Addition","latitude":52.692524,"longitude":-2.762848,"postcodeStart":"SY3 9","postcode":["SY3","9EU"]}
{"price":43000,"dateOfTransfer":"1997-09-10T00:00:00","postcodeFull":"SY3 9NW","propertyType":"Terraced","oldOrNew":"Established","duration":"Freehold","paon":"138","saon":"","street":"MONEYBROOK WAY","locality":"SHREWSBURY","townOrCity":"SHREWSBURY","district":"SHREWSBURY AND ATCHAM","county":"SHROPSHIRE","ppdCategoryType":"Standard","recordStatus":"Addition","latitude":52.686758,"longitude":-2.759286,"postcodeStart":"SY3 9","postcode":["SY3","9NW"]}
{"price":56000,"dateOfTransfer":"1997-06-20T00:00:00","postcodeFull":"SY3 9EU","propertyType":"Semi-detached","oldOrNew":"Established","duration":"Freehold","paon":"21","saon":"","street":"MEOLE WALK","locality":"SHREWSBURY","townOrCity":"SHREWSBURY","district":"SHREWSBURY AND ATCHAM","county":"SHROPSHIRE","ppdCategoryType":"Standard","recordStatus":"Addition","latitude":52.692524,"longitude":-2.762848,"postcodeStart":"SY3 9","postcode":["SY3","9EU"]}
{"price":44000,"dateOfTransfer":"1997-08-15T00:00:00","postcodeFull":"SY3 9PB","propertyType":"Terraced","oldOrNew":"Established","duration":"Freehold","paon":"36","saon":"","street":"NETLEY ROAD","locality":"SHREWSBURY","townOrCity":"SHREWSBURY","district":"SHREWSBURY AND ATCHAM","county":"SHROPSHIRE","ppdCategoryType":"Standard","recordStatus":"Addition","latitude":52.685871,"longitude":-2.76149,"postcodeStart":"SY3 9","postcode":["SY3","9PB"]}
{"price":66000,"dateOfTransfer":"1997-10-10T00:00:00","postcodeFull":"SY3 9HH","propertyType":"Detached","oldOrNew":"Established","duration":"Freehold","paon":"14","saon":"","street":"BURNSIDE GARDENS","locality":"SHREWSBURY","townOrCity":"SHREWSBURY","district":"SHREWSBURY AND ATCHAM","county":"SHROPSHIRE","ppdCategoryType":"Standard","recordStatus":"Addition","latitude":52.688628,"longitude":-2.761937,"postcodeStart":"SY3 9","postcode":["SY3","9HH"]}
{"price":104000,"dateOfTransfer":"1997-12-19T00:00:00","postcodeFull":"SY3 9QH","propertyType":"Detached","oldOrNew":"Established","duration":"Freehold","paon":"16","saon":"","street":"PENDLE WAY","locality":"SHREWSBURY","townOrCity":"SHREWSBURY","district":"SHREWSBURY AND ATCHAM","county":"SHROPSHIRE","ppdCategoryType":"Standard","recordStatus":"Addition","latitude":52.687807,"longitude":-2.769453,"postcodeStart":"SY3 9","postcode":["SY3","9QH"]}
{"price":72000,"dateOfTransfer":"1997-12-29T00:00:00","postcodeFull":"SY3 9DE","propertyType":"Semi-detached","oldOrNew":"Established","duration":"Freehold","paon":"19","saon":"","street":"GRANGEFIELDS","locality":"SHREWSBURY","townOrCity":"SHREWSBURY","district":"SHREWSBURY AND ATCHAM","county":"SHROPSHIRE","ppdCategoryType":"Standard","recordStatus":"Addition","latitude":52.698891,"longitude":-2.772297,"postcodeStart":"SY3 9","postcode":["SY3","9DE"]}
{"price":74000,"dateOfTransfer":"1997-09-26T00:00:00","postcodeFull":"SY3 9QG","propertyType":"Detached","oldOrNew":"Established","duration":"Freehold","paon":"33","saon":"","street":"ADSWOOD GROVE","locality":"SHREWSBURY","townOrCity":"SHREWSBURY","district":"SHREWSBURY AND ATCHAM","county":"SHROPSHIRE","ppdCategoryType":"Standard","recordStatus":"Addition","latitude":52.687183,"longitude":-2.7728,"postcodeStart":"SY3 9","postcode":["SY3","9QG"]}
{"price":53000,"dateOfTransfer":"1997-01-03T00:00:00","postcodeFull":"SY3 9QG","propertyType":"Detached","oldOrNew":"Established","duration":"Freehold","paon":"37","saon":"","street":"ADSWOOD GROVE","locality":"SHREWSBURY","townOrCity":"SHREWSBURY","district":"SHREWSBURY AND ATCHAM","county":"SHROPSHIRE","ppdCategoryType":"Standard","recordStatus":"Addition","latitude":52.687183,"longitude":-2.7728,"postcodeStart":"SY3 9","postcode":["SY3","9QG"]}
{"price":65000,"dateOfTransfer":"1997-01-27T00:00:00","postcodeFull":"SY3 9JP","propertyType":"Semi-detached","oldOrNew":"Established","duration":"Freehold","paon":"74","saon":"","street":"UPPER ROAD","locality":"SHREWSBURY","townOrCity":"SHREWSBURY","district":"SHREWSBURY AND ATCHAM","county":"SHROPSHIRE","ppdCategoryType":"Standard","recordStatus":"Addition","latitude":52.692256,"longitude":-2.759187,"postcodeStart":"SY3 9","postcode":["SY3","9JP"]}
{"price":30500,"dateOfTransfer":"1997-03-14T00:00:00","postcodeFull":"SY3 9JB","propertyType":"Flat/Maisonette/Townhouse","oldOrNew":"Established","duration":"Leasehold","paon":"26","saon":"","street":"ALMS COURT","locality":"SHREWSBURY","townOrCity":"SHREWSBURY","district":"SHREWSBURY AND ATCHAM","county":"SHROPSHIRE","ppdCategoryType":"Standard","recordStatus":"Addition","latitude":52.692711,"longitude":-2.756075,"postcodeStart":"SY3 9","postcode":["SY3","9JB"]}
{"price":61000,"dateOfTransfer":"1997-07-31T00:00:00","postcodeFull":"SY3 9HT","propertyType":"Semi-detached","oldOrNew":"Established","duration":"Freehold","paon":"5","saon":"","street":"ALEXANDRA AVENUE","locality":"SHREWSBURY","townOrCity":"SHREWSBURY","district":"SHREWSBURY AND ATCHAM","county":"SHROPSHIRE","ppdCategoryType":"Standard","recordStatus":"Addition","latitude":52.690578,"longitude":-2.76496,"postcodeStart":"SY3 9","postcode":["SY3","9HT"]}
{"price":65000,"dateOfTransfer":"1997-10-22T00:00:00","postcodeFull":"SY3 9EF","propertyType":"Semi-detached","oldOrNew":"Established","duration":"Freehold","paon":"3","saon":"","street":"PRIORY DRIVE","locality":"SHREWSBURY","townOrCity":"SHREWSBURY","district":"SHREWSBURY AND ATCHAM","county":"SHROPSHIRE","ppdCategoryType":"Standard","recordStatus":"Addition","latitude":52.694789,"longitude":-2.767134,"postcodeStart":"SY3 9","postcode":["SY3","9EF"]}
{"price":49000,"dateOfTransfer":"1997-09-30T00:00:00","postcodeFull":"SY3 9ES","propertyType":"Semi-detached","oldOrNew":"Established","duration":"Freehold","paon":"35","saon":"","street":"MEOLE CRESCENT","locality":"SHREWSBURY","townOrCity":"SHREWSBURY","district":"SHREWSBURY AND ATCHAM","county":"SHROPSHIRE","ppdCategoryType":"Standard","recordStatus":"Addition","latitude":52.692424,"longitude":-2.761722,"postcodeStart":"SY3 9","postcode":["SY3","9ES"]}
{"price":74950,"dateOfTransfer":"1997-02-20T00:00:00","postcodeFull":"SY3 9DE","propertyType":"Semi-detached","oldOrNew":"Established","duration":"Freehold","paon":"17","saon":"","street":"GRANGEFIELDS","locality":"SHREWSBURY","townOrCity":"SHREWSBURY","district":"SHREWSBURY AND ATCHAM","county":"SHROPSHIRE","ppdCategoryType":"Standard","recordStatus":"Addition","latitude":52.698891,"longitude":-2.772297,"postcodeStart":"SY3 9","postcode":["SY3","9DE"]}
{"price":68000,"dateOfTransfer":"1997-03-24T00:00:00","postcodeFull":"SY3 9EG","propertyType":"Detached","oldOrNew":"Established","duration":"Freehold","paon":"14","saon":"","street":"PRIORY RIDGE","locality":"SHREWSBURY","townOrCity":"SHREWSBURY","district":"SHREWSBURY AND ATCHAM","county":"SHROPSHIRE","ppdCategoryType":"Standard","recordStatus":"Addition","latitude":52.693979,"longitude":-2.766719,"postcodeStart":"SY3 9","postcode":["SY3","9EG"]}
{"price":127000,"dateOfTransfer":"1997-03-21T00:00:00","postcodeFull":"SY3 9BD","propertyType":"Detached","oldOrNew":"Established","duration":"Freehold","paon":"27","saon":"","street":"RADBROOK ROAD","locality":"SHREWSBURY","townOrCity":"SHREWSBURY","district":"SHREWSBURY AND ATCHAM","county":"SHROPSHIRE","ppdCategoryType":"Standard","recordStatus":"Addition","latitude":52.703831,"longitude":-2.775655,"postcodeStart":"SY3 9","postcode":["SY3","9BD"]}
{"price":56000,"dateOfTransfer":"1997-10-22T00:00:00","postcodeFull":"SY3 9ET","propertyType":"Terraced","oldOrNew":"Established","duration":"Freehold","paon":"12","saon":"","street":"MEOLE CRESCENT","locality":"SHREWSBURY","townOrCity":"SHREWSBURY","district":"SHREWSBURY AND ATCHAM","county":"SHROPSHIRE","ppdCategoryType":"Standard","recordStatus":"Addition","latitude":52.69231,"longitude":-2.761232,"postcodeStart":"SY3 9","postcode":["SY3","9ET"]}
{"price":37000,"dateOfTransfer":"1997-06-12T00:00:00","postcodeFull":"SY3 9PF","propertyType":"Terraced","oldOrNew":"Established","duration":"Freehold","paon":"14","saon":"","street":"SHOMERE CRESCENT","locality":"SHREWSBURY","townOrCity":"SHREWSBURY","district":"SHREWSBURY AND ATCHAM","county":"SHROPSHIRE","ppdCategoryType":"Standard","recordStatus":"Addition","latitude":52.685807,"longitude":-2.7589,"postcodeStart":"SY3 9","postcode":["SY3","9PF"]}
{"price":67500,"dateOfTransfer":"1997-01-31T00:00:00","postcodeFull":"SY3 9DE","propertyType":"Semi-detached","oldOrNew":"Established","duration":"Freehold","paon":"8","saon":"","street":"GRANGEFIELDS","locality":"SHREWSBURY","townOrCity":"SHREWSBURY","district":"SHREWSBURY AND ATCHAM","county":"SHROPSHIRE","ppdCategoryType":"Standard","recordStatus":"Addition","latitude":52.698891,"longitude":-2.772297,"postcodeStart":"SY3 9","postcode":["SY3","9DE"]}
{"price":210000,"dateOfTransfer":"1997-05-16T00:00:00","postcodeFull":"SY3 9AX","propertyType":"Detached","oldOrNew":"Established","duration":"Freehold","paon":"3","saon":"","street":"RUSSELL RIDGE","locality":"SHREWSBURY","townOrCity":"SHREWSBURY","district":"SHREWSBURY AND ATCHAM","county":"SHROPSHIRE","ppdCategoryType":"Standard","recordStatus":"Addition","latitude":52.703002,"longitude":-2.773213,"postcodeStart":"SY3 9","postcode":["SY3","9AX"]}
{"price":69000,"dateOfTransfer":"1997-07-31T00:00:00","postcodeFull":"SY3 9HH","propertyType":"Detached","oldOrNew":"Established","duration":"Freehold","paon":"12","saon":"","street":"BURNSIDE GARDENS","locality":"SHREWSBURY","townOrCity":"SHREWSBURY","district":"SHREWSBURY AND ATCHAM","county":"SHROPSHIRE","ppdCategoryType":"Standard","recordStatus":"Addition","latitude":52.688628,"longitude":-2.761937,"postcodeStart":"SY3 9","postcode":["SY3","9HH"]}
{"price":65000,"dateOfTransfer":"1997-03-27T00:00:00","postcodeFull":"SY3 9HG","propertyType":"Detached","oldOrNew":"Established","duration":"Freehold","paon":"15","saon":"","street":"CHURCH ROAD","locality":"MEOLE BRACE","townOrCity":"SHREWSBURY","district":"SHREWSBURY AND ATCHAM","county":"SHROPSHIRE","ppdCategoryType":"Standard","recordStatus":"Addition","latitude":52.688223,"longitude":-2.762919,"postcodeStart":"SY3 9","postcode":["SY3","9HG"]}
{"price":81500,"dateOfTransfer":"1997-11-05T00:00:00","postcodeFull":"SY3 9DE","propertyType":"Semi-detached","oldOrNew":"Established","duration":"Freehold","paon":"13","saon":"","street":"GRANGEFIELDS","locality":"SHREWSBURY","townOrCity":"SHREWSBURY","district":"SHREWSBURY AND ATCHAM","county":"SHROPSHIRE","ppdCategoryType":"Standard","recordStatus":"Addition","latitude":52.698891,"longitude":-2.772297,"postcodeStart":"SY3 9","postcode":["SY3","9DE"]}
{"price":64500,"dateOfTransfer":"1997-02-28T00:00:00","postcodeFull":"SY3 9HX","propertyType":"Semi-detached","oldOrNew":"Established","duration":"Freehold","paon":"1","saon":"","street":"VICTORIA ROAD","locality":"SHREWSBURY","townOrCity":"SHREWSBURY","district":"SHREWSBURY AND ATCHAM","county":"SHROPSHIRE","ppdCategoryType":"Standard","recordStatus":"Addition","latitude":52.690648,"longitude":-2.766128,"postcodeStart":"SY3 9","postcode":["SY3","9HX"]}
{"price":43000,"dateOfTransfer":"1997-04-17T00:00:00","postcodeFull":"SY3 9LY","propertyType":"Terraced","oldOrNew":"Established","duration":"Freehold","paon":"7","saon":"","street":"STAPLETON ROAD","locality":"SHREWSBURY","townOrCity":"SHREWSBURY","district":"SHREWSBURY AND ATCHAM","county":"SHROPSHIRE","ppdCategoryType":"Standard","recordStatus":"Addition","latitude":52.689913,"longitude":-2.756485,"postcodeStart":"SY3 9","postcode":["SY3","9LY"]}
{"price":45995,"dateOfTransfer":"1997-06-27T00:00:00","postcodeFull":"SY3 9PG","propertyType":"Semi-detached","oldOrNew":"Established","duration":"Freehold","paon":"1","saon":"","street":"CHATFORD DRIVE","locality":"SHREWSBURY","townOrCity":"SHREWSBURY","district":"SHREWSBURY AND ATCHAM","county":"SHROPSHIRE","ppdCategoryType":"Standard","recordStatus":"Addition","latitude":52.685736,"longitude":-2.758112,"postcodeStart":"SY3 9","postcode":["SY3","9PG"]}
{"price":95000,"dateOfTransfer":"1997-06-06T00:00:00","postcodeFull":"SY3 9DD","propertyType":"Detached","oldOrNew":"Established","duration":"Freehold","paon":"23","saon":"","street":"GRANGEFIELDS ROAD","locality":"SHREWSBURY","townOrCity":"SHREWSBURY","district":"SHREWSBURY AND ATCHAM","county":"SHROPSHIRE","ppdCategoryType":"Standard","recordStatus":"Addition","latitude":52.69802,"longitude":-2.770698,"postcodeStart":"SY3 9","postcode":["SY3","9DD"]}
{"price":53000,"dateOfTransfer":"1997-06-04T00:00:00","postcodeFull":"SY3 9DQ","propertyType":"Terraced","oldOrNew":"Established","duration":"Freehold","paon":"11","saon":"","street":"BANK FARM MEWS","locality":"SHREWSBURY","townOrCity":"SHREWSBURY","district":"SHREWSBURY AND ATCHAM","county":"SHROPSHIRE","ppdCategoryType":"Standard","recordStatus":"Addition","latitude":52.694633,"longitude":-2.774456,"postcodeStart":"SY3 9","postcode":["SY3","9DQ"]}
{"price":59000,"dateOfTransfer":"1997-03-21T00:00:00","postcodeFull":"SY3 9HS","propertyType":"Semi-detached","oldOrNew":"Established","duration":"Freehold","paon":"44","saon":"","street":"ALEXANDRA AVENUE","locality":"SHREWSBURY","townOrCity":"SHREWSBURY","district":"SHREWSBURY AND ATCHAM","county":"SHROPSHIRE","ppdCategoryType":"Standard","recordStatus":"Addition","latitude":52.689637,"longitude":-2.767251,"postcodeStart":"SY3 9","postcode":["SY3","9HS"]}
{"price":71000,"dateOfTransfer":"1997-03-07T00:00:00","postcodeFull":"SY3 9EY","propertyType":"Terraced","oldOrNew":"Established","duration":"Freehold","paon":"3","saon":"","street":"CHURCH ROW","locality":"MEOLE BRACE","townOrCity":"SHREWSBURY","district":"SHREWSBURY AND ATCHAM","county":"SHROPSHIRE","ppdCategoryType":"Standard","recordStatus":"Addition","latitude":52.691131,"longitude":-2.760765,"postcodeStart":"SY3 9","postcode":["SY3","9EY"]}
{"price":33500,"dateOfTransfer":"1997-05-30T00:00:00","postcodeFull":"SY3 9ES","propertyType":"Terraced","oldOrNew":"Established","duration":"Freehold","paon":"21","saon":"","street":"MEOLE CRESCENT","locality":"SHREWSBURY","townOrCity":"SHREWSBURY","district":"SHREWSBURY AND ATCHAM","county":"SHROPSHIRE","ppdCategoryType":"Standard","recordStatus":"Addition","latitude":52.692424,"longitude":-2.761722,"postcodeStart":"SY3 9","postcode":["SY3","9ES"]}
{"price":132000,"dateOfTransfer":"1997-11-05T00:00:00","postcodeFull":"SY3 9AL","propertyType":"Detached","oldOrNew":"Established","duration":"Freehold","paon":"92","saon":"","street":"ROMAN ROAD","locality":"SHREWSBURY","townOrCity":"SHREWSBURY","district":"SHREWSBURY AND ATCHAM","county":"SHROPSHIRE","ppdCategoryType":"Standard","recordStatus":"Addition","latitude":52.697825,"longitude":-2.767008,"postcodeStart":"SY3 9","postcode":["SY3","9AL"]}
{"price":112000,"dateOfTransfer":"1997-05-16T00:00:00","postcodeFull":"SY3 9JS","propertyType":"Terraced","oldOrNew":"Established","duration":"Freehold","paon":"4","saon":"","street":"MEOLE HALL GARDENS","locality":"SHREWSBURY","townOrCity":"SHREWSBURY","district":"SHREWSBURY AND ATCHAM","county":"SHROPSHIRE","ppdCategoryType":"Standard","recordStatus":"Addition","latitude":52.690708,"longitude":-2.760154,"postcodeStart":"SY3 9","postcode":["SY3","9JS"]}
{"price":155000,"dateOfTransfer":"1997-12-19T00:00:00","postcodeFull":"SY3 9QL","propertyType":"Detached","oldOrNew":"Established","duration":"Freehold","paon":"1","saon":"","street":"RIVINGTON AVENUE","locality":"SHREWSBURY","townOrCity":"SHREWSBURY","district":"SHREWSBURY AND ATCHAM","county":"SHROPSHIRE","ppdCategoryType":"Standard","recordStatus":"Addition","latitude":52.687572,"longitude":-2.766756,"postcodeStart":"SY3 9","postcode":["SY3","9QL"]}
{"price":51000,"dateOfTransfer":"1997-12-16T00:00:00","postcodeFull":"SY3 9HR","propertyType":"Semi-detached","oldOrNew":"Established","duration":"Freehold","paon":"35","saon":"","street":"WASHFORD ROAD","locality":"SHREWSBURY","townOrCity":"SHREWSBURY","district":"SHREWSBURY AND ATCHAM","county":"SHROPSHIRE","ppdCategoryType":"Standard","recordStatus":"Addition","latitude":52.690625,"longitude":-2.766897,"postcodeStart":"SY3 9","postcode":["SY3","9HR"]}
{"price":100000,"dateOfTransfer":"1997-04-16T00:00:00","postcodeFull":"SY3 9BT","propertyType":"Semi-detached","oldOrNew":"Established","duration":"Freehold","paon":"1","saon":"","street":"STILTON CLOSE","locality":"SHREWSBURY","townOrCity":"SHREWSBURY","district":"SHREWSBURY AND ATCHAM","county":"SHROPSHIRE","ppdCategoryType":"Standard","recordStatus":"Addition","latitude":52.701787,"longitude":-2.78435,"postcodeStart":"SY3 9","postcode":["SY3","9BT"]}
{"price":75000,"dateOfTransfer":"1997-08-08T00:00:00","postcodeFull":"SY3 9HS","propertyType":"Detached","oldOrNew":"Established","duration":"Freehold","paon":"45","saon":"","street":"ALEXANDRA AVENUE","locality":"SHREWSBURY","townOrCity":"SHREWSBURY","district":"SHREWSBURY AND ATCHAM","county":"SHROPSHIRE","ppdCategoryType":"Standard","recordStatus":"Addition","latitude":52.689637,"longitude":-2.767251,"postcodeStart":"SY3 9","postcode":["SY3","9HS"]}
{"price":54000,"dateOfTransfer":"1997-01-24T00:00:00","postcodeFull":"SY3 9HR","propertyType":"Semi-detached","oldOrNew":"Established","duration":"Freehold","paon":"33","saon":"","street":"WASHFORD ROAD","locality":"SHREWSBURY","townOrCity":"SHREWSBURY","district":"SHREWSBURY AND ATCHAM","county":"SHROPSHIRE","ppdCategoryType":"Standard","recordStatus":"Addition","latitude":52.690625,"longitude":-2.766897,"postcodeStart":"SY3 9","postcode":["SY3","9HR"]}
{"price":59000,"dateOfTransfer":"1997-12-15T00:00:00","postcodeFull":"SY3 9JT","propertyType":"Terraced","oldOrNew":"Established","duration":"Freehold","paon":"GLAN-Y-DON","saon":"","street":"MILL ROAD","locality":"SHREWSBURY","townOrCity":"SHREWSBURY","district":"SHREWSBURY AND ATCHAM","county":"SHROPSHIRE","ppdCategoryType":"Standard","recordStatus":"Addition","latitude":52.691899,"longitude":-2.757925,"postcodeStart":"SY3 9","postcode":["SY3","9JT"]}
{"price":79750,"dateOfTransfer":"1997-08-08T00:00:00","postcodeFull":"SY3 9DG","propertyType":"Semi-detached","oldOrNew":"Established","duration":"Freehold","paon":"21","saon":"","street":"GRANGE ROAD","locality":"SHREWSBURY","townOrCity":"SHREWSBURY","district":"SHREWSBURY AND ATCHAM","county":"SHROPSHIRE","ppdCategoryType":"Standard","recordStatus":"Addition","latitude":52.695991,"longitude":-2.770233,"postcodeStart":"SY3 9","postcode":["SY3","9DG"]}
{"price":123000,"dateOfTransfer":"1997-02-17T00:00:00","postcodeFull":"SY3 9AN","propertyType":"Detached","oldOrNew":"Established","duration":"Freehold","paon":"84","saon":"","street":"ROMAN ROAD","locality":"SHREWSBURY","townOrCity":"SHREWSBURY","district":"SHREWSBURY AND ATCHAM","county":"SHROPSHIRE","ppdCategoryType":"Standard","recordStatus":"Addition","latitude":52.698828,"longitude":-2.769009,"postcodeStart":"SY3 9","postcode":["SY3","9AN"]}
{"price":82000,"dateOfTransfer":"1997-08-22T00:00:00","postcodeFull":"SY3 9DA","propertyType":"Semi-detached","oldOrNew":"Established","duration":"Freehold","paon":"1","saon":"","street":"GRANGE ROAD","locality":"SHREWSBURY","townOrCity":"SHREWSBURY","district":"SHREWSBURY AND ATCHAM","county":"SHROPSHIRE","ppdCategoryType":"Standard","recordStatus":"Addition","latitude":52.697911,"longitude":-2.768121,"postcodeStart":"SY3 9","postcode":["SY3","9DA"]}
{"price":170000,"dateOfTransfer":"1997-08-08T00:00:00","postcodeFull":"SY3 9AT","propertyType":"Detached","oldOrNew":"Established","duration":"Freehold","paon":"24","saon":"","street":"ROMAN ROAD","locality":"SHREWSBURY","townOrCity":"SHREWSBURY","district":"SHREWSBURY AND ATCHAM","county":"SHROPSHIRE","ppdCategoryType":"Standard","recordStatus":"Addition","latitude":52.703208,"longitude":-2.771988,"postcodeStart":"SY3 9","postcode":["SY3","9AT"]}
{"price":80000,"dateOfTransfer":"1997-06-20T00:00:00","postcodeFull":"SY3 9DL","propertyType":"Semi-detached","oldOrNew":"Established","duration":"Freehold","paon":"5","saon":"","street":"BANK DRIVE","locality":"SHREWSBURY","townOrCity":"SHREWSBURY","district":"SHREWSBURY AND ATCHAM","county":"SHROPSHIRE","ppdCategoryType":"Standard","recordStatus":"Addition","latitude":52.693358,"longitude":-2.770143,"postcodeStart":"SY3 9","postcode":["SY3","9DL"]}
{"price":55000,"dateOfTransfer":"1997-08-01T00:00:00","postcodeFull":"SY3 9HX","propertyType":"Detached","oldOrNew":"Established","duration":"Freehold","paon":"10","saon":"","street":"VICTORIA ROAD","locality":"SHREWSBURY","townOrCity":"SHREWSBURY","district":"SHREWSBURY AND ATCHAM","county":"SHROPSHIRE","ppdCategoryType":"Standard","recordStatus":"Addition","latitude":52.690648,"longitude":-2.766128,"postcodeStart":"SY3 9","postcode":["SY3","9HX"]}
{"price":73000,"dateOfTransfer":"1997-06-09T00:00:00","postcodeFull":"SY3 9EH","propertyType":"Semi-detached","oldOrNew":"Established","duration":"Freehold","paon":"9","saon":"","street":"PRIORY RIDGE","locality":"SHREWSBURY","townOrCity":"SHREWSBURY","district":"SHREWSBURY AND ATCHAM","county":"SHROPSHIRE","ppdCategoryType":"Standard","recordStatus":"Addition","latitude":52.69532,"longitude":-2.765649,"postcodeStart":"SY3 9","postcode":["SY3","9EH"]}
{"price":83500,"dateOfTransfer":"1997-05-06T00:00:00","postcodeFull":"SY3 9AN","propertyType":"Semi-detached","oldOrNew":"Established","duration":"Freehold","paon":"74","saon":"","street":"ROMAN ROAD","locality":"SHREWSBURY","townOrCity":"SHREWSBURY","district":"SHREWSBURY AND ATCHAM","county":"SHROPSHIRE","ppdCategoryType":"Standard","recordStatus":"Addition","latitude":52.698828,"longitude":-2.769009,"postcodeStart":"SY3 9","postcode":["SY3","9AN"]}
{"price":70000,"dateOfTransfer":"1997-07-23T00:00:00","postcodeFull":"SY3 9HH","propertyType":"Detached","oldOrNew":"Established","duration":"Freehold","paon":"6","saon":"","street":"BURNSIDE GARDENS","locality":"SHREWSBURY","townOrCity":"SHREWSBURY","district":"SHREWSBURY AND ATCHAM","county":"SHROPSHIRE","ppdCategoryType":"Standard","recordStatus":"Addition","latitude":52.688628,"longitude":-2.761937,"postcodeStart":"SY3 9","postcode":["SY3","9HH"]}
{"price":51000,"dateOfTransfer":"1997-12-15T00:00:00","postcodeFull":"SY3 9JX","propertyType":"Terraced","oldOrNew":"Established","duration":"Freehold","paon":"3","saon":"","street":"THE ELMS","locality":"SHREWSBURY","townOrCity":"SHREWSBURY","district":"SHREWSBURY AND ATCHAM","county":"SHROPSHIRE","ppdCategoryType":"Standard","recordStatus":"Addition","latitude":52.692281,"longitude":-2.756731,"postcodeStart":"SY3 9","postcode":["SY3","9JX"]}
{"price":47000,"dateOfTransfer":"1997-02-14T00:00:00","postcodeFull":"SY3 9JB","propertyType":"Terraced","oldOrNew":"Established","duration":"Freehold","paon":"9","saon":"","street":"ALMS COURT","locality":"SHREWSBURY","townOrCity":"SHREWSBURY","district":"SHREWSBURY AND ATCHAM","county":"SHROPSHIRE","ppdCategoryType":"Standard","recordStatus":"Addition","latitude":52.692711,"longitude":-2.756075,"postcodeStart":"SY3 9","postcode":["SY3","9JB"]}
{"price":83000,"dateOfTransfer":"1997-05-15T00:00:00","postcodeFull":"SY3 9DJ","propertyType":"Semi-detached","oldOrNew":"Established","duration":"Freehold","paon":"8","saon":"","street":"BANK DRIVE WEST","locality":"SHREWSBURY","townOrCity":"SHREWSBURY","district":"SHREWSBURY AND ATCHAM","county":"SHROPSHIRE","ppdCategoryType":"Standard","recordStatus":"Addition","latitude":52.693372,"longitude":-2.770779,"postcodeStart":"SY3 9","postcode":["SY3","9DJ"]}
{"price":72500,"dateOfTransfer":"1997-04-28T00:00:00","postcodeFull":"SY3 9RB","propertyType":"Detached","oldOrNew":"Established","duration":"Freehold","paon":"2","saon":"","street":"ASPEN GROVE","locality":"SHREWSBURY","townOrCity":"SHREWSBURY","district":"SHREWSBURY AND ATCHAM","county":"SHROPSHIRE","ppdCategoryType":"Standard","recordStatus":"Addition","latitude":52.70148,"longitude":-2.779121,"postcodeStart":"SY3 9","postcode":["SY3","9RB"]}
