{"price":132000,"dateOfTransfer":"1995-12-14T00:00:00","postcodeFull":"TA19 0ED","propertyType":"Flat/Maisonette/Townhouse","oldOrNew":"Established","duration":"Leasehold","paon":"6","saon":"","street":"ASHCOMBE COURT","locality":"ILMINSTER","townOrCity":"ILMINSTER","district":"SOUTH SOMERSET","county":"SOMERSET","ppdCategoryType":"Standard","recordStatus":"Addition","latitude":50.927316,"longitude":-2.914027,"postcodeStart":"TA19 0","postcode":["TA19","0ED"]}
{"price":41000,"dateOfTransfer":"1995-04-13T00:00:00","postcodeFull":"TA19 0NT","propertyType":"Semi-detached","oldOrNew":"Established","duration":"Freehold","paon":"UPPER WAKE COTTAGE","saon":"","street":"","locality":"KINGSTONE","townOrCity":"ILMINSTER","district":"SOUTH SOMERSET","county":"SOMERSET","ppdCategoryType":"Standard","recordStatus":"Addition","latitude":50.917189,"longitude":-2.888578,"postcodeStart":"TA19 0","postcode":["TA19","0NT"]}
{"price":46000,"dateOfTransfer":"1995-10-26T00:00:00","postcodeFull":"TA19 0EA","propertyType":"Terraced","oldOrNew":"Established","duration":"Freehold","paon":"37","saon":"","street":"LADYMEADE","locality":"ILMINSTER","townOrCity":"ILMINSTER","district":"SOUTH SOMERSET","county":"SOMERSET","ppdCategoryType":"Standard","recordStatus":"Addition","latitude":50.925736,"longitude":-2.915974,"postcodeStart":"TA19 0","postcode":["TA19","0EA"]}
{"price":57500,"dateOfTransfer":"1995-10-06T00:00:00","postcodeFull":"TA19 0EW","propertyType":"Semi-detached","oldOrNew":"Established","duration":"Freehold","paon":"3","saon":"","street":"LISTERCOMBE CLOSE","locality":"ILMINSTER","townOrCity":"ILMINSTER","district":"SOUTH SOMERSET","county":"SOMERSET","ppdCategoryType":"Standard","recordStatus":"Addition","latitude":50.921521,"longitude":-2.910006,"postcodeStart":"TA19 0","postcode":["TA19","0EW"]}
{"price":133000,"dateOfTransfer":"1995-06-08T00:00:00","postcodeFull":"TA19 0QG","propertyType":"Detached","oldOrNew":"Established","duration":"Freehold","paon":"7","saon":"","street":"APPLE CLOSE","locality":"DOWLISH WAKE","townOrCity":"ILMINSTER","district":"SOUTH SOMERSET","county":"SOMERSET","ppdCategoryType":"Standard","recordStatus":"Addition","latitude":50.909508,"longitude":-2.888787,"postcodeStart":"TA19 0","postcode":["TA19","0QG"]}
{"price":144000,"dateOfTransfer":"1995-06-08T00:00:00","postcodeFull":"TA19 0EE","propertyType":"Detached","oldOrNew":"New build","duration":"Freehold","paon":"5","saon":"","street":"BREOWAN CLOSE","locality":"ILMINSTER","townOrCity":"ILMINSTER","district":"SOUTH SOMERSET","county":"SOMERSET","ppdCategoryType":"Standard","recordStatus":"Addition","latitude":50.926545,"longitude":-2.913713,"postcodeStart":"TA19 0","postcode":["TA19","0EE"]}
{"price":155000,"dateOfTransfer":"1995-11-17T00:00:00","postcodeFull":"TA19 0PZ","propertyType":"Detached","oldOrNew":"Established","duration":"Freehold","paon":"HAMSTONE HOUSE","saon":"","street":"UPTON LANE","locality":"SEAVINGTON","townOrCity":"ILMINSTER","district":"SOUTH SOMERSET","county":"SOMERSET","ppdCategoryType":"Standard","recordStatus":"Addition","latitude":50.934433,"longitude":-2.845516,"postcodeStart":"TA19 0","postcode":["TA19","0PZ"]}
{"price":71000,"dateOfTransfer":"1995-11-27T00:00:00","postcodeFull":"TA19 0EA","propertyType":"Semi-detached","oldOrNew":"Established","duration":"Freehold","paon":"20","saon":"","street":"LADYMEADE","locality":"ILMINSTER","townOrCity":"ILMINSTER","district":"SOUTH SOMERSET","county":"SOMERSET","ppdCategoryType":"Standard","recordStatus":"Addition","latitude":50.925736,"longitude":-2.915974,"postcodeStart":"TA19 0","postcode":["TA19","0EA"]}
{"price":85500,"dateOfTransfer":"1995-11-23T00:00:00","postcodeFull":"TA19 0JD","propertyType":"Detached","oldOrNew":"Established","duration":"Freehold","paon":"POUND COTTAGE","saon":"","street":"","locality":"BARRINGTON","townOrCity":"ILMINSTER","district":"SOUTH SOMERSET","county":"SOMERSET","ppdCategoryType":"Standard","recordStatus":"Addition","latitude":50.959023,"longitude":-2.871862,"postcodeStart":"TA19 0","postcode":["TA19","0JD"]}
{"price":24380,"dateOfTransfer":"1995-06-19T00:00:00","postcodeFull":"TA19 0QX","propertyType":"Semi-detached","oldOrNew":"Established","duration":"Freehold","paon":"14","saon":"","street":"ST MARYS CLOSE","locality":"SEAVINGTON","townOrCity":"ILMINSTER","district":"SOUTH SOMERSET","county":"SOMERSET","ppdCategoryType":"Standard","recordStatus":"Addition","latitude":50.92932,"longitude":-2.856024,"postcodeStart":"TA19 0","postcode":["TA19","0QX"]}
{"price":79000,"dateOfTransfer":"1995-05-12T00:00:00","postcodeFull":"TA19 0EP","propertyType":"Detached","oldOrNew":"Established","duration":"Freehold","paon":"HIGHMINSTER","saon":"","street":"LONG CLOSE","locality":"ILMINSTER","townOrCity":"ILMINSTER","district":"SOUTH SOMERSET","county":"SOMERSET","ppdCategoryType":"Standard","recordStatus":"Addition","latitude":50.919684,"longitude":-2.910264,"postcodeStart":"TA19 0","postcode":["TA19","0EP"]}
{"price":60000,"dateOfTransfer":"1995-11-30T00:00:00","postcodeFull":"TA19 0AP","propertyType":"Detached","oldOrNew":"Established","duration":"Freehold","paon":"CUBE HOUSE","saon":"","street":"FROG LANE","locality":"ILMINSTER","townOrCity":"ILMINSTER","district":"SOUTH SOMERSET","county":"SOMERSET","ppdCategoryType":"Standard","recordStatus":"Addition","latitude":50.9265,"longitude":-2.908112,"postcodeStart":"TA19 0","postcode":["TA19","0AP"]}
{"price":47000,"dateOfTransfer":"1995-07-26T00:00:00","postcodeFull":"TA19 0LW","propertyType":"Terraced","oldOrNew":"Established","duration":"Freehold","paon":"ALSTON COTTAGE","saon":"","street":"NORTH STREET","locality":"SHEPTON BEAUCHAMP","townOrCity":"ILMINSTER","district":"SOUTH SOMERSET","county":"SOMERSET","ppdCategoryType":"Standard","recordStatus":"Addition","latitude":50.951539,"longitude":-2.851421,"postcodeStart":"TA19 0","postcode":["TA19","0LW"]}
{"price":92500,"dateOfTransfer":"1995-11-27T00:00:00","postcodeFull":"TA19 0JL","propertyType":"Detached","oldOrNew":"Established","duration":"Freehold","paon":"EASTLYN","saon":"","street":"GIBBS LANE","locality":"BARRINGTON","townOrCity":"ILMINSTER","district":"SOUTH SOMERSET","county":"SOMERSET","ppdCategoryType":"Standard","recordStatus":"Addition","latitude":50.96059,"longitude":-2.867933,"postcodeStart":"TA19 0","postcode":["TA19","0JL"]}
{"price":57000,"dateOfTransfer":"1995-05-30T00:00:00","postcodeFull":"TA19 0QH","propertyType":"Semi-detached","oldOrNew":"Established","duration":"Freehold","paon":"WINCHESTER COTTAGES","saon":"5","street":"WATER STREET","locality":"SEAVINGTON","townOrCity":"ILMINSTER","district":"SOUTH SOMERSET","county":"SOMERSET","ppdCategoryType":"Standard","recordStatus":"Addition","latitude":50.930632,"longitude":-2.843825,"postcodeStart":"TA19 0","postcode":["TA19","0QH"]}
{"price":122000,"dateOfTransfer":"1995-08-01T00:00:00","postcodeFull":"TA19 0NS","propertyType":"Detached","oldOrNew":"Established","duration":"Freehold","paon":"KINGSTONE FARM","saon":"","street":"","locality":"KINGSTONE","townOrCity":"ILMINSTER","district":"SOUTH SOMERSET","county":"SOMERSET","ppdCategoryType":"Standard","recordStatus":"Addition","latitude":50.91895,"longitude":-2.885268,"postcodeStart":"TA19 0","postcode":["TA19","0NS"]}
{"price":34000,"dateOfTransfer":"1995-06-16T00:00:00","postcodeFull":"TA19 0DG","propertyType":"Terraced","oldOrNew":"Established","duration":"Freehold","paon":"11","saon":"","street":"NORTH STREET","locality":"ILMINSTER","townOrCity":"ILMINSTER","district":"SOUTH SOMERSET","county":"SOMERSET","ppdCategoryType":"Standard","recordStatus":"Addition","latitude":50.927373,"longitude":-2.910348,"postcodeStart":"TA19 0","postcode":["TA19","0DG"]}
{"price":26650,"dateOfTransfer":"1995-12-04T00:00:00","postcodeFull":"TA19 0NU","propertyType":"Semi-detached","oldOrNew":"Established","duration":"Freehold","paon":"5","saon":"","street":"KINGSTONE CROSS","locality":"ILMINSTER","townOrCity":"ILMINSTER","district":"SOUTH SOMERSET","county":"SOMERSET","ppdCategoryType":"Standard","recordStatus":"Addition","latitude":50.917572,"longitude":-2.88904,"postcodeStart":"TA19 0","postcode":["TA19","0NU"]}
{"price":117000,"dateOfTransfer":"1995-07-24T00:00:00","postcodeFull":"TA19 0QG","propertyType":"Detached","oldOrNew":"Established","duration":"Freehold","paon":"5","saon":"","street":"APPLE CLOSE","locality":"DOWLISH WAKE","townOrCity":"ILMINSTER","district":"SOUTH SOMERSET","county":"SOMERSET","ppdCategoryType":"Standard","recordStatus":"Addition","latitude":50.909508,"longitude":-2.888787,"postcodeStart":"TA19 0","postcode":["TA19","0QG"]}
{"price":20700,"dateOfTransfer":"1995-06-02T00:00:00","postcodeFull":"TA19 0QX","propertyType":"Semi-detached","oldOrNew":"Established","duration":"Freehold","paon":"15","saon":"","street":"ST MARYS CLOSE","locality":"SEAVINGTON","townOrCity":"ILMINSTER","district":"SOUTH SOMERSET","county":"SOMERSET","ppdCategoryType":"Standard","recordStatus":"Addition","latitude":50.92932,"longitude":-2.856024,"postcodeStart":"TA19 0","postcode":["TA19","0QX"]}
{"price":40500,"dateOfTransfer":"1995-05-23T00:00:00","postcodeFull":"TA19 0AR","propertyType":"Terraced","oldOrNew":"Established","duration":"Freehold","paon":"19","saon":"","street":"LOVE LANE","locality":"ILMINSTER","townOrCity":"ILMINSTER","district":"SOUTH SOMERSET","county":"SOMERSET","ppdCategoryType":"Standard","recordStatus":"Addition","latitude":50.92641,"longitude":-2.905657,"postcodeStart":"TA19 0","postcode":["TA19","0AR"]}
{"price":280000,"dateOfTransfer":"1995-03-03T00:00:00","postcodeFull":"TA19 0JE","propertyType":"Detached","oldOrNew":"Established","duration":"Freehold","paon":"THE PRIORY","saon":"","street":"","locality":"BARRINGTON","townOrCity":"ILMINSTER","district":"SOUTH SOMERSET","county":"SOMERSET","ppdCategoryType":"Standard","recordStatus":"Addition","latitude":50.96062,"longitude":-2.873473,"postcodeStart":"TA19 0","postcode":["TA19","0JE"]}
{"price":43000,"dateOfTransfer":"1995-06-16T00:00:00","postcodeFull":"TA19 0HW","propertyType":"Terraced","oldOrNew":"Established","duration":"Freehold","paon":"6","saon":"","street":"HIGHER MEAD","locality":"ILMINSTER","townOrCity":"ILMINSTER","district":"SOUTH SOMERSET","county":"SOMERSET","ppdCategoryType":"Standard","recordStatus":"Addition","latitude":50.922027,"longitude":-2.915318,"postcodeStart":"TA19 0","postcode":["TA19","0HW"]}
{"price":48750,"dateOfTransfer":"1995-05-05T00:00:00","postcodeFull":"TA19 0EA","propertyType":"Semi-detached","oldOrNew":"Established","duration":"Freehold","paon":"41","saon":"","street":"LADYMEADE","locality":"ILMINSTER","townOrCity":"ILMINSTER","district":"SOUTH SOMERSET","county":"SOMERSET","ppdCategoryType":"Standard","recordStatus":"Addition","latitude":50.925736,"longitude":-2.915974,"postcodeStart":"TA19 0","postcode":["TA19","0EA"]}
{"price":52500,"dateOfTransfer":"1995-11-17T00:00:00","postcodeFull":"TA19 0HH","propertyType":"Semi-detached","oldOrNew":"Established","duration":"Freehold","paon":"49","saon":"","street":"HERNE RISE","locality":"ILMINSTER","townOrCity":"ILMINSTER","district":"SOUTH SOMERSET","county":"SOMERSET","ppdCategoryType":"Standard","recordStatus":"Addition","latitude":50.921104,"longitude":-2.913806,"postcodeStart":"TA19 0","postcode":["TA19","0HH"]}
{"price":220000,"dateOfTransfer":"1995-07-21T00:00:00","postcodeFull":"TA19 0NY","propertyType":"Detached","oldOrNew":"Established","duration":"Freehold","paon":"MILL COTTAGE","saon":"","street":"","locality":"DOWLISH WAKE","townOrCity":"ILMINSTER","district":"SOUTH SOMERSET","county":"SOMERSET","ppdCategoryType":"Standard","recordStatus":"Addition","latitude":50.910402,"longitude":-2.889501,"postcodeStart":"TA19 0","postcode":["TA19","0NY"]}
{"price":19000,"dateOfTransfer":"1995-10-30T00:00:00","postcodeFull":"TA19 0EF","propertyType":"Flat/Maisonette/Townhouse","oldOrNew":"Established","duration":"Leasehold","paon":"MUCHELNEY HOUSE","saon":"FLAT 18","street":"ABBOTS CLOSE","locality":"ILMINSTER","townOrCity":"ILMINSTER","district":"SOUTH SOMERSET","county":"SOMERSET","ppdCategoryType":"Standard","recordStatus":"Addition","latitude":50.925485,"longitude":-2.913522,"postcodeStart":"TA19 0","postcode":["TA19","0EF"]}
{"price":129000,"dateOfTransfer":"1995-01-24T00:00:00","postcodeFull":"TA19 0ED","propertyType":"Flat/Maisonette/Townhouse","oldOrNew":"New build","duration":"Leasehold","paon":"21","saon":"","street":"ASHCOMBE COURT","locality":"ILMINSTER","townOrCity":"ILMINSTER","district":"SOUTH SOMERSET","county":"SOMERSET","ppdCategoryType":"Standard","recordStatus":"Addition","latitude":50.927316,"longitude":-2.914027,"postcodeStart":"TA19 0","postcode":["TA19","0ED"]}
{"price":174000,"dateOfTransfer":"1995-03-30T00:00:00","postcodeFull":"TA19 0JR","propertyType":"Detached","oldOrNew":"Established","duration":"Freehold","paon":"ELLANDS COTTAGE","saon":"","street":"WATER STREET","locality":"BARRINGTON","townOrCity":"ILMINSTER","district":"SOUTH SOMERSET","county":"SOMERSET","ppdCategoryType":"Standard","recordStatus":"Addition","latitude":50.959159,"longitude":-2.863327,"postcodeStart":"TA19 0","postcode":["TA19","0JR"]}
{"price":117000,"dateOfTransfer":"1995-03-16T00:00:00","postcodeFull":"TA19 0AT","propertyType":"Detached","oldOrNew":"Established","duration":"Freehold","paon":"SILVER HOW","saon":"","street":"BAY HILL","locality":"ILMINSTER","townOrCity":"ILMINSTER","district":"SOUTH SOMERSET","county":"SOMERSET","ppdCategoryType":"Standard","recordStatus":"Addition","latitude":50.926768,"longitude":-2.903615,"postcodeStart":"TA19 0","postcode":["TA19","0AT"]}
{"price":50000,"dateOfTransfer":"1995-06-16T00:00:00","postcodeFull":"TA19 0EA","propertyType":"Semi-detached","oldOrNew":"Established","duration":"Freehold","paon":"17","saon":"","street":"LADYMEADE","locality":"ILMINSTER","townOrCity":"ILMINSTER","district":"SOUTH SOMERSET","county":"SOMERSET","ppdCategoryType":"Standard","recordStatus":"Addition","latitude":50.925736,"longitude":-2.915974,"postcodeStart":"TA19 0","postcode":["TA19","0EA"]}
{"price":54500,"dateOfTransfer":"1995-09-29T00:00:00","postcodeFull":"TA19 0LB","propertyType":"Terraced","oldOrNew":"Established","duration":"Freehold","paon":"AMBER COTTAGE","saon":"","street":"MIDDLE STREET","locality":"SHEPTON BEAUCHAMP","townOrCity":"ILMINSTER","district":"SOUTH SOMERSET","county":"SOMERSET","ppdCategoryType":"Standard","recordStatus":"Addition","latitude":50.948245,"longitude":-2.850536,"postcodeStart":"TA19 0","postcode":["TA19","0LB"]}
{"price":35500,"dateOfTransfer":"1995-02-03T00:00:00","postcodeFull":"TA19 0JX","propertyType":"Semi-detached","oldOrNew":"Established","duration":"Freehold","paon":"6","saon":"","street":"BELMONT TERRACE","locality":"SHEPTON BEAUCHAMP","townOrCity":"ILMINSTER","district":"SOUTH SOMERSET","county":"SOMERSET","ppdCategoryType":"Standard","recordStatus":"Addition","latitude":50.946277,"longitude":-2.851728,"postcodeStart":"TA19 0","postcode":["TA19","0JX"]}
{"price":201000,"dateOfTransfer":"1995-08-14T00:00:00","postcodeFull":"TA19 0PW","propertyType":"Detached","oldOrNew":"Established","duration":"Freehold","paon":"THE OLD RECTORY","saon":"","street":"","locality":"CRICKET MALHERBIE","townOrCity":"ILMINSTER","district":"SOUTH SOMERSET","county":"SOMERSET","ppdCategoryType":"Standard","recordStatus":"Addition","latitude":50.899852,"longitude":-2.910778,"postcodeStart":"TA19 0","postcode":["TA19","0PW"]}
{"price":75000,"dateOfTransfer":"1995-01-20T00:00:00","postcodeFull":"TA19 0NA","propertyType":"Detached","oldOrNew":"Established","duration":"Freehold","paon":"THE COVERS","saon":"","street":"LAMBROOK ROAD","locality":"SHEPTON BEAUCHAMP","townOrCity":"ILMINSTER","district":"SOUTH SOMERSET","county":"SOMERSET","ppdCategoryType":"Standard","recordStatus":"Addition","latitude":50.954192,"longitude":-2.842629,"postcodeStart":"TA19 0","postcode":["TA19","0NA"]}
{"price":144500,"dateOfTransfer":"1995-06-12T00:00:00","postcodeFull":"TA19 0EE","propertyType":"Detached","oldOrNew":"New build","duration":"Freehold","paon":"7","saon":"","street":"BREOWAN CLOSE","locality":"ILMINSTER","townOrCity":"ILMINSTER","district":"SOUTH SOMERSET","county":"SOMERSET","ppdCategoryType":"Standard","recordStatus":"Addition","latitude":50.926545,"longitude":-2.913713,"postcodeStart":"TA19 0","postcode":["TA19","0EE"]}
{"price":90000,"dateOfTransfer":"1995-09-06T00:00:00","postcodeFull":"TA19 0NX","propertyType":"Detached","oldOrNew":"Established","duration":"Freehold","paon":"LITTLE GARTH","saon":"","street":"","locality":"DOWLISH WAKE","townOrCity":"ILMINSTER","district":"SOUTH SOMERSET","county":"SOMERSET","ppdCategoryType":"Standard","recordStatus":"Addition","latitude":50.91218,"longitude":-2.888639,"postcodeStart":"TA19 0","postcode":["TA19","0NX"]}
{"price":45250,"dateOfTransfer":"1995-09-29T00:00:00","postcodeFull":"TA19 0QT","propertyType":"Terraced","oldOrNew":"Established","duration":"Freehold","paon":"KEY HAVEN","saon":"","street":"TOWNSEND","locality":"SEAVINGTON","townOrCity":"ILMINSTER","district":"SOUTH SOMERSET","county":"SOMERSET","ppdCategoryType":"Standard","recordStatus":"Addition","latitude":50.928504,"longitude":-2.858201,"postcodeStart":"TA19 0","postcode":["TA19","0QT"]}
{"price":123800,"dateOfTransfer":"1995-06-01T00:00:00","postcodeFull":"TA19 0EE","propertyType":"Detached","oldOrNew":"New build","duration":"Freehold","paon":"6","saon":"","street":"BREOWAN CLOSE","locality":"ILMINSTER","townOrCity":"ILMINSTER","district":"SOUTH SOMERSET","county":"SOMERSET","ppdCategoryType":"Standard","recordStatus":"Addition","latitude":50.926545,"longitude":-2.913713,"postcodeStart":"TA19 0","postcode":["TA19","0EE"]}
{"price":94500,"dateOfTransfer":"1995-07-27T00:00:00","postcodeFull":"TA19 0NZ","propertyType":"Detached","oldOrNew":"Established","duration":"Freehold","paon":"WALLBRIDGE BYRE","saon":"","street":"","locality":"DOWLISH WAKE","townOrCity":"ILMINSTER","district":"SOUTH SOMERSET","county":"SOMERSET","ppdCategoryType":"Standard","recordStatus":"Addition","latitude":50.90773,"longitude":-2.890891,"postcodeStart":"TA19 0","postcode":["TA19","0NZ"]}
{"price":57500,"dateOfTransfer":"1995-12-11T00:00:00","postcodeFull":"TA19 0LY","propertyType":"Terraced","oldOrNew":"Established","duration":"Freehold","paon":"CARRICK","saon":"","street":"LAMBROOK ROAD","locality":"SHEPTON BEAUCHAMP","townOrCity":"ILMINSTER","district":"SOUTH SOMERSET","county":"SOMERSET","ppdCategoryType":"Standard","recordStatus":"Addition","latitude":50.952208,"longitude":-2.848444,"postcodeStart":"TA19 0","postcode":["TA19","0LY"]}
{"price":38500,"dateOfTransfer":"1995-01-17T00:00:00","postcodeFull":"TA19 0EH","propertyType":"Terraced","oldOrNew":"Established","duration":"Freehold","paon":"1","saon":"","street":"THE CROSS","locality":"ILMINSTER","townOrCity":"ILMINSTER","district":"SOUTH SOMERSET","county":"SOMERSET","ppdCategoryType":"Standard","recordStatus":"Addition","latitude":50.923141,"longitude":-2.910872,"postcodeStart":"TA19 0","postcode":["TA19","0EH"]}
{"price":25740,"dateOfTransfer":"1995-05-12T00:00:00","postcodeFull":"TA19 0BE","propertyType":"Terraced","oldOrNew":"Established","duration":"Freehold","paon":"92","saon":"","street":"BLACKDOWN VIEW","locality":"ILMINSTER","townOrCity":"ILMINSTER","district":"SOUTH SOMERSET","county":"SOMERSET","ppdCategoryType":"Standard","recordStatus":"Addition","latitude":50.927832,"longitude":-2.905471,"postcodeStart":"TA19 0","postcode":["TA19","0BE"]}
{"price":85000,"dateOfTransfer":"1995-07-07T00:00:00","postcodeFull":"TA19 0ED","propertyType":"Flat/Maisonette/Townhouse","oldOrNew":"Established","duration":"Leasehold","paon":"2","saon":"","street":"ASHCOMBE COURT","locality":"ILMINSTER","townOrCity":"ILMINSTER","district":"SOUTH SOMERSET","county":"SOMERSET","ppdCategoryType":"Standard","recordStatus":"Addition","latitude":50.927316,"longitude":-2.914027,"postcodeStart":"TA19 0","postcode":["TA19","0ED"]}
{"price":144500,"dateOfTransfer":"1995-07-05T00:00:00","postcodeFull":"TA19 0EE","propertyType":"Semi-detached","oldOrNew":"New build","duration":"Freehold","paon":"8","saon":"","street":"BREOWAN CLOSE","locality":"ILMINSTER","townOrCity":"ILMINSTER","district":"SOUTH SOMERSET","county":"SOMERSET","ppdCategoryType":"Standard","recordStatus":"Addition","latitude":50.926545,"longitude":-2.913713,"postcodeStart":"TA19 0","postcode":["TA19","0EE"]}
{"price":44000,"dateOfTransfer":"1995-06-23T00:00:00","postcodeFull":"TA19 0AT","propertyType":"Detached","oldOrNew":"Established","duration":"Leasehold","paon":"3","saon":"","street":"BAY HILL","locality":"ILMINSTER","townOrCity":"ILMINSTER","district":"SOUTH SOMERSET","county":"SOMERSET","ppdCategoryType":"Standard","recordStatus":"Addition","latitude":50.926768,"longitude":-2.903615,"postcodeStart":"TA19 0","postcode":["TA19","0AT"]}
{"price":36000,"dateOfTransfer":"1995-02-28T00:00:00","postcodeFull":"TA19 0ER","propertyType":"Terraced","oldOrNew":"Established","duration":"Freehold","paon":"4","saon":"","street":"THE CRESCENT","locality":"ILMINSTER","townOrCity":"ILMINSTER","district":"SOUTH SOMERSET","county":"SOMERSET","ppdCategoryType":"Standard","recordStatus":"Addition","latitude":50.919757,"longitude":-2.912519,"postcodeStart":"TA19 0","postcode":["TA19","0ER"]}
{"price":7500,"dateOfTransfer":"1995-11-28T00:00:00","postcodeFull":"TA19 0BG","propertyType":"Terraced","oldOrNew":"Established","duration":"Freehold","paon":"126","saon":"","street":"BLACKDOWN VIEW","locality":"ILMINSTER","townOrCity":"ILMINSTER","district":"SOUTH SOMERSET","county":"SOMERSET","ppdCategoryType":"Standard","recordStatus":"Addition","latitude":50.927807,"longitude":-2.906424,"postcodeStart":"TA19 0","postcode":["TA19","0BG"]}
{"price":190000,"dateOfTransfer":"1995-11-03T00:00:00","postcodeFull":"TA19 0QB","propertyType":"Detached","oldOrNew":"Established","duration":"Freehold","paon":"SEAVINGTON HOUSE","saon":"","street":"","locality":"SEAVINGTON","townOrCity":"ILMINSTER","district":"SOUTH SOMERSET","county":"SOMERSET","ppdCategoryType":"Standard","recordStatus":"Addition","latitude":50.932356,"longitude":-2.832927,"postcodeStart":"TA19 0","postcode":["TA19","0QB"]}
{"price":25250,"dateOfTransfer":"1995-12-04T00:00:00","postcodeFull":"TA19 0DH","propertyType":"Flat/Maisonette/Townhouse","oldOrNew":"Established","duration":"Leasehold","paon":"KEY HOUSE","saon":"FLAT 4","street":"SILVER STREET","locality":"","townOrCity":"ILMINSTER","district":"SOUTH SOMERSET","county":"SOMERSET","ppdCategoryType":"Standard","recordStatus":"Addition","latitude":50.926512,"longitude":-2.911109,"postcodeStart":"TA19 0","postcode":["TA19","0DH"]}
{"price":48500,"dateOfTransfer":"1995-03-17T00:00:00","postcodeFull":"TA19 0BD","propertyType":"Semi-detached","oldOrNew":"Established","duration":"Freehold","paon":"57","saon":"","street":"BLACKDOWN VIEW","locality":"ILMINSTER","townOrCity":"ILMINSTER","district":"SOUTH SOMERSET","county":"SOMERSET","ppdCategoryType":"Standard","recordStatus":"Addition","latitude":50.928604,"longitude":-2.905643,"postcodeStart":"TA19 0","postcode":["TA19","0BD"]}
{"price":67000,"dateOfTransfer":"1995-05-12T00:00:00","postcodeFull":"TA19 0EA","propertyType":"Semi-detached","oldOrNew":"Established","duration":"Freehold","paon":"6","saon":"","street":"LADYMEADE","locality":"ILMINSTER","townOrCity":"ILMINSTER","district":"SOUTH SOMERSET","county":"SOMERSET","ppdCategoryType":"Standard","recordStatus":"Addition","latitude":50.925736,"longitude":-2.915974,"postcodeStart":"TA19 0","postcode":["TA19","0EA"]}
{"price":86000,"dateOfTransfer":"1995-04-24T00:00:00","postcodeFull":"TA19 0JG","propertyType":"Detached","oldOrNew":"Established","duration":"Freehold","paon":"TURNPIKE CORNER","saon":"","street":"SUNNYSIDE TERRACE","locality":"BARRINGTON","townOrCity":"ILMINSTER","district":"SOUTH SOMERSET","county":"SOMERSET","ppdCategoryType":"Standard","recordStatus":"Addition","latitude":50.961659,"longitude":-2.876454,"postcodeStart":"TA19 0","postcode":["TA19","0JG"]}
{"price":58000,"dateOfTransfer":"1995-12-21T00:00:00","postcodeFull":"TA19 0JF","propertyType":"Semi-detached","oldOrNew":"Established","duration":"Freehold","paon":"2","saon":"","street":"SHARLANDS","locality":"BARRINGTON","townOrCity":"ILMINSTER","district":"SOUTH SOMERSET","county":"SOMERSET","ppdCategoryType":"Standard","recordStatus":"Addition","latitude":50.962505,"longitude":-2.877552,"postcodeStart":"TA19 0","postcode":["TA19","0JF"]}
{"price":152000,"dateOfTransfer":"1995-01-20T00:00:00","postcodeFull":"TA19 0ED","propertyType":"Flat/Maisonette/Townhouse","oldOrNew":"Established","duration":"Leasehold","paon":"9","saon":"","street":"ASHCOMBE COURT","locality":"ILMINSTER","townOrCity":"ILMINSTER","district":"SOUTH SOMERSET","county":"SOMERSET","ppdCategoryType":"Standard","recordStatus":"Addition","latitude":50.927316,"longitude":-2.914027,"postcodeStart":"TA19 0","postcode":["TA19","0ED"]}
{"price":225000,"dateOfTransfer":"1995-10-27T00:00:00","postcodeFull":"TA19 0NY","propertyType":"Detached","oldOrNew":"Established","duration":"Freehold","paon":"MILL COTTAGE","saon":"","street":"","locality":"DOWLISH WAKE","townOrCity":"ILMINSTER","district":"SOUTH SOMERSET","county":"SOMERSET","ppdCategoryType":"Standard","recordStatus":"Addition","latitude":50.910402,"longitude":-2.889501,"postcodeStart":"TA19 0","postcode":["TA19","0NY"]}
{"price":44000,"dateOfTransfer":"1995-03-31T00:00:00","postcodeFull":"TA19 0HQ","propertyType":"Terraced","oldOrNew":"Established","duration":"Freehold","paon":"15","saon":"","street":"THE INCLINE","locality":"ILMINSTER","townOrCity":"ILMINSTER","district":"SOUTH SOMERSET","county":"SOMERSET","ppdCategoryType":"Standard","recordStatus":"Addition","latitude":50.922723,"longitude":-2.916,"postcodeStart":"TA19 0","postcode":["TA19","0HQ"]}
{"price":48000,"dateOfTransfer":"1995-09-29T00:00:00","postcodeFull":"TA19 0HL","propertyType":"Semi-detached","oldOrNew":"Established","duration":"Freehold","paon":"84","saon":"","street":"HERNE RISE","locality":"ILMINSTER","townOrCity":"ILMINSTER","district":"SOUTH SOMERSET","county":"SOMERSET","ppdCategoryType":"Standard","recordStatus":"Addition","latitude":50.920899,"longitude":-2.914712,"postcodeStart":"TA19 0","postcode":["TA19","0HL"]}
{"price":35000,"dateOfTransfer":"1995-02-20T00:00:00","postcodeFull":"TA19 0AY","propertyType":"Terraced","oldOrNew":"Established","duration":"Freehold","paon":"39","saon":"","street":"BUTTS","locality":"ILMINSTER","townOrCity":"ILMINSTER","district":"SOUTH SOMERSET","county":"SOMERSET","ppdCategoryType":"Standard","recordStatus":"Addition","latitude":50.927404,"longitude":-2.907412,"postcodeStart":"TA19 0","postcode":["TA19","0AY"]}
{"price":35000,"dateOfTransfer":"1995-11-30T00:00:00","postcodeFull":"TA19 0AW","propertyType":"Terraced","oldOrNew":"Established","duration":"Freehold","paon":"58","saon":"","street":"EAST STREET","locality":"ILMINSTER","townOrCity":"ILMINSTER","district":"SOUTH SOMERSET","county":"SOMERSET","ppdCategoryType":"Standard","recordStatus":"Addition","latitude":50.927037,"longitude":-2.905997,"postcodeStart":"TA19 0","postcode":["TA19","0AW"]}
{"price":106000,"dateOfTransfer":"1995-09-15T00:00:00","postcodeFull":"TA19 0LE","propertyType":"Detached","oldOrNew":"Established","duration":"Freehold","paon":"MARTLETTS","saon":"","street":"MIDDLE STREET","locality":"SHEPTON BEAUCHAMP","townOrCity":"ILMINSTER","district":"SOUTH SOMERSET","county":"SOMERSET","ppdCategoryType":"Standard","recordStatus":"Addition","latitude":50.949184,"longitude":-2.851222,"postcodeStart":"TA19 0","postcode":["TA19","0LE"]}
{"price":200000,"dateOfTransfer":"1995-07-12T00:00:00","postcodeFull":"TA19 0LQ","propertyType":"Detached","oldOrNew":"Established","duration":"Freehold","paon":"SALISBURY HOUSE","saon":"","street":"CHURCH STREET","locality":"SHEPTON BEAUCHAMP","townOrCity":"ILMINSTER","district":"SOUTH SOMERSET","county":"SOMERSET","ppdCategoryType":"Standard","recordStatus":"Addition","latitude":50.950217,"longitude":-2.851558,"postcodeStart":"TA19 0","postcode":["TA19","0LQ"]}
{"price":105000,"dateOfTransfer":"1995-09-06T00:00:00","postcodeFull":"TA19 0JZ","propertyType":"Detached","oldOrNew":"Established","duration":"Freehold","paon":"ORCHARD CORNER","saon":"","street":"SILVER STREET","locality":"SHEPTON BEAUCHAMP","townOrCity":"ILMINSTER","district":"SOUTH SOMERSET","county":"SOMERSET","ppdCategoryType":"Standard","recordStatus":"Addition","latitude":50.947091,"longitude":-2.850899,"postcodeStart":"TA19 0","postcode":["TA19","0JZ"]}
{"price":179000,"dateOfTransfer":"1995-10-19T00:00:00","postcodeFull":"TA19 0LQ","propertyType":"Detached","oldOrNew":"Established","duration":"Freehold","paon":"BEAUCHAMP HOUSE","saon":"","street":"CHURCH STREET","locality":"SHEPTON BEAUCHAMP","townOrCity":"ILMINSTER","district":"SOUTH SOMERSET","county":"SOMERSET","ppdCategoryType":"Standard","recordStatus":"Addition","latitude":50.950217,"longitude":-2.851558,"postcodeStart":"TA19 0","postcode":["TA19","0LQ"]}
{"price":37000,"dateOfTransfer":"1995-09-22T00:00:00","postcodeFull":"TA19 0DT","propertyType":"Terraced","oldOrNew":"Established","duration":"Freehold","paon":"9B","saon":"","street":"WHARF LANE","locality":"ILMINSTER","townOrCity":"ILMINSTER","district":"SOUTH SOMERSET","county":"SOMERSET","ppdCategoryType":"Standard","recordStatus":"Addition","latitude":50.926529,"longitude":-2.912424,"postcodeStart":"TA19 0","postcode":["TA19","0DT"]}
{"price":33500,"dateOfTransfer":"1995-12-14T00:00:00","postcodeFull":"TA19 0AW","propertyType":"Terraced","oldOrNew":"New build","duration":"Freehold","paon":"74C","saon":"","street":"EAST STREET","locality":"ILMINSTER","townOrCity":"ILMINSTER","district":"SOUTH SOMERSET","county":"SOMERSET","ppdCategoryType":"Standard","recordStatus":"Addition","latitude":50.927037,"longitude":-2.905997,"postcodeStart":"TA19 0","postcode":["TA19","0AW"]}
{"price":69500,"dateOfTransfer":"1995-12-20T00:00:00","postcodeFull":"TA19 0ND","propertyType":"Terraced","oldOrNew":"Established","duration":"Freehold","paon":"16","saon":"","street":"PIECE LANE","locality":"SHEPTON BEAUCHAMP","townOrCity":"ILMINSTER","district":"SOUTH SOMERSET","county":"SOMERSET","ppdCategoryType":"Standard","recordStatus":"Addition","latitude":50.953227,"longitude":-2.84674,"postcodeStart":"TA19 0","postcode":["TA19","0ND"]}
{"price":66000,"dateOfTransfer":"1995-12-12T00:00:00","postcodeFull":"TA19 0EP","propertyType":"Semi-detached","oldOrNew":"Established","duration":"Freehold","paon":"19","saon":"","street":"LONG CLOSE","locality":"ILMINSTER","townOrCity":"ILMINSTER","district":"TAUNTON DEANE","county":"SOMERSET","ppdCategoryType":"Standard","recordStatus":"Addition","latitude":50.919684,"longitude":-2.910264,"postcodeStart":"TA19 0","postcode":["TA19","0EP"]}
{"price":47000,"dateOfTransfer":"1995-12-14T00:00:00","postcodeFull":"TA19 0BQ","propertyType":"Terraced","oldOrNew":"Established","duration":"Freehold","paon":"30","saon":"","street":"DITTON STREET","locality":"ILMINSTER","townOrCity":"ILMINSTER","district":"SOUTH SOMERSET","county":"SOMERSET","ppdCategoryType":"Standard","recordStatus":"Addition","latitude":50.925826,"longitude":-2.910242,"postcodeStart":"TA19 0","postcode":["TA19","0BQ"]}
{"price":55500,"dateOfTransfer":"1995-09-01T00:00:00","postcodeFull":"TA19 0PJ","propertyType":"Semi-detached","oldOrNew":"Established","duration":"Freehold","paon":"6","saon":"","street":"GREENWAY","locality":"DOWLISH FORD","townOrCity":"ILMINSTER","district":"SOUTH SOMERSET","county":"SOMERSET","ppdCategoryType":"Standard","recordStatus":"Addition","latitude":50.913809,"longitude":-2.918642,"postcodeStart":"TA19 0","postcode":["TA19","0PJ"]}
{"price":40500,"dateOfTransfer":"1995-04-21T00:00:00","postcodeFull":"TA19 0EL","propertyType":"Terraced","oldOrNew":"Established","duration":"Freehold","paon":"9","saon":"","street":"LISTERS HILL","locality":"ILMINSTER","townOrCity":"ILMINSTER","district":"SOUTH SOMERSET","county":"SOMERSET","ppdCategoryType":"Standard","recordStatus":"Addition","latitude":50.922135,"longitude":-2.910844,"postcodeStart":"TA19 0","postcode":["TA19","0EL"]}
{"price":75000,"dateOfTransfer":"1995-07-28T00:00:00","postcodeFull":"TA19 0NE","propertyType":"Detached","oldOrNew":"Established","duration":"Freehold","paon":"19","saon":"","street":"BRIMGROVE LANE","locality":"SHEPTON BEAUCHAMP","townOrCity":"ILMINSTER","district":"SOUTH SOMERSET","county":"SOMERSET","ppdCategoryType":"Standard","recordStatus":"Addition","latitude":50.954147,"longitude":-2.843866,"postcodeStart":"TA19 0","postcode":["TA19","0NE"]}
{"price":134500,"dateOfTransfer":"1995-09-29T00:00:00","postcodeFull":"TA19 0EE","propertyType":"Detached","oldOrNew":"New build","duration":"Freehold","paon":"1","saon":"","street":"BREOWAN CLOSE","locality":"ILMINSTER","townOrCity":"ILMINSTER","district":"SOUTH SOMERSET","county":"SOMERSET","ppdCategoryType":"Standard","recordStatus":"Addition","latitude":50.926545,"longitude":-2.913713,"postcodeStart":"TA19 0","postcode":["TA19","0EE"]}
{"price":33500,"dateOfTransfer":"1995-11-16T00:00:00","postcodeFull":"TA19 0NA","propertyType":"Terraced","oldOrNew":"Established","duration":"Freehold","paon":"WAYSIDE","saon":"","street":"LAMBROOK ROAD","locality":"SHEPTON BEAUCHAMP","townOrCity":"ILMINSTER","district":"SOUTH SOMERSET","county":"SOMERSET","ppdCategoryType":"Standard","recordStatus":"Addition","latitude":50.954192,"longitude":-2.842629,"postcodeStart":"TA19 0","postcode":["TA19","0NA"]}
{"price":58500,"dateOfTransfer":"1995-03-29T00:00:00","postcodeFull":"TA19 0RN","propertyType":"Semi-detached","oldOrNew":"Established","duration":"Freehold","paon":"PARK FARM HOUSE","saon":"","street":"","locality":"DONYATT","townOrCity":"ILMINSTER","district":"SOUTH SOMERSET","county":"SOMERSET","ppdCategoryType":"Standard","recordStatus":"Addition","latitude":50.925345,"longitude":-2.935786,"postcodeStart":"TA19 0","postcode":["TA19","0RN"]}
{"price":129000,"dateOfTransfer":"1995-10-16T00:00:00","postcodeFull":"TA19 0PZ","propertyType":"Detached","oldOrNew":"Established","duration":"Freehold","paon":"UPTON BARN","saon":"","street":"UPTON LANE","locality":"SEAVINGTON","townOrCity":"ILMINSTER","district":"SOUTH SOMERSET","county":"SOMERSET","ppdCategoryType":"Standard","recordStatus":"Addition","latitude":50.934433,"longitude":-2.845516,"postcodeStart":"TA19 0","postcode":["TA19","0PZ"]}
{"price":48000,"dateOfTransfer":"1995-03-01T00:00:00","postcodeFull":"TA19 0AJ","propertyType":"Flat/Maisonette/Townhouse","oldOrNew":"Established","duration":"Freehold","paon":"28","saon":"","street":"EAST STREET","locality":"","townOrCity":"ILMINSTER","district":"SOUTH SOMERSET","county":"SOMERSET","ppdCategoryType":"Standard","recordStatus":"Addition","latitude":50.926671,"longitude":-2.909196,"postcodeStart":"TA19 0","postcode":["TA19","0AJ"]}
{"price":12000,"dateOfTransfer":"1995-10-31T00:00:00","postcodeFull":"TA19 0BQ","propertyType":"Flat/Maisonette/Townhouse","oldOrNew":"Established","duration":"Leasehold","paon":"6","saon":"","street":"DITTON STREET","locality":"","townOrCity":"ILMINSTER","district":"SOUTH SOMERSET","county":"SOMERSET","ppdCategoryType":"Standard","recordStatus":"Addition","latitude":50.925826,"longitude":-2.910242,"postcodeStart":"TA19 0","postcode":["TA19","0BQ"]}
{"price":88500,"dateOfTransfer":"1995-10-20T00:00:00","postcodeFull":"TA19 0QD","propertyType":"Detached","oldOrNew":"Established","duration":"Freehold","paon":"ASHLEIGH","saon":"","street":"SCHOOL LANE","locality":"SEAVINGTON","townOrCity":"ILMINSTER","district":"SOUTH SOMERSET","county":"SOMERSET","ppdCategoryType":"Standard","recordStatus":"Addition","latitude":50.931526,"longitude":-2.840853,"postcodeStart":"TA19 0","postcode":["TA19","0QD"]}
{"price":74000,"dateOfTransfer":"1995-10-12T00:00:00","postcodeFull":"TA19 0LZ","propertyType":"Semi-detached","oldOrNew":"Established","duration":"Freehold","paon":"THE JAYS","saon":"","street":"LAMBROOK ROAD","locality":"SHEPTON BEAUCHAMP","townOrCity":"ILMINSTER","district":"SOUTH SOMERSET","county":"SOMERSET","ppdCategoryType":"Standard","recordStatus":"Addition","latitude":50.953011,"longitude":-2.844401,"postcodeStart":"TA19 0","postcode":["TA19","0LZ"]}
{"price":146000,"dateOfTransfer":"1995-05-01T00:00:00","postcodeFull":"TA19 0QD","propertyType":"Detached","oldOrNew":"Established","duration":"Freehold","paon":"LONG RANGE","saon":"","street":"SCHOOL LANE","locality":"SEAVINGTON","townOrCity":"ILMINSTER","district":"SOUTH SOMERSET","county":"SOMERSET","ppdCategoryType":"Standard","recordStatus":"Addition","latitude":50.931526,"longitude":-2.840853,"postcodeStart":"TA19 0","postcode":["TA19","0QD"]}
{"price":80000,"dateOfTransfer":"1995-11-17T00:00:00","postcodeFull":"TA19 0EB","propertyType":"Detached","oldOrNew":"Established","duration":"Freehold","paon":"18","saon":"","street":"GREENDALE","locality":"ILMINSTER","townOrCity":"ILMINSTER","district":"SOUTH SOMERSET","county":"SOMERSET","ppdCategoryType":"Standard","recordStatus":"Addition","latitude":50.925758,"longitude":-2.917696,"postcodeStart":"TA19 0","postcode":["TA19","0EB"]}
{"price":40000,"dateOfTransfer":"1995-06-23T00:00:00","postcodeFull":"TA19 0JN","propertyType":"Detached","oldOrNew":"New build","duration":"Freehold","paon":"ORCHARD RISE","saon":"","street":"","locality":"BARRINGTON","townOrCity":"ILMINSTER","district":"SOUTH SOMERSET","county":"SOMERSET","ppdCategoryType":"Standard","recordStatus":"Addition","latitude":50.958868,"longitude":-2.866283,"postcodeStart":"TA19 0","postcode":["TA19","0JN"]}
{"price":31000,"dateOfTransfer":"1995-02-06T00:00:00","postcodeFull":"TA19 0EH","propertyType":"Terraced","oldOrNew":"Established","duration":"Freehold","paon":"9","saon":"","street":"THE CROSS","locality":"ILMINSTER","townOrCity":"ILMINSTER","district":"SOUTH SOMERSET","county":"SOMERSET","ppdCategoryType":"Standard","recordStatus":"Addition","latitude":50.923141,"longitude":-2.910872,"postcodeStart":"TA19 0","postcode":["TA19","0EH"]}
{"price":54000,"dateOfTransfer":"1995-01-17T00:00:00","postcodeFull":"TA19 0HL","propertyType":"Semi-detached","oldOrNew":"Established","duration":"Freehold","paon":"72","saon":"","street":"HERNE RISE","locality":"ILMINSTER","townOrCity":"ILMINSTER","district":"SOUTH SOMERSET","county":"SOMERSET","ppdCategoryType":"Standard","recordStatus":"Addition","latitude":50.920899,"longitude":-2.914712,"postcodeStart":"TA19 0","postcode":["TA19","0HL"]}
{"price":91000,"dateOfTransfer":"1995-02-06T00:00:00","postcodeFull":"TA19 0LT","propertyType":"Detached","oldOrNew":"Established","duration":"Freehold","paon":"SLEEPY HOLLOW","saon":"","street":"ROBINS LANE","locality":"SHEPTON BEAUCHAMP","townOrCity":"ILMINSTER","district":"SOUTH SOMERSET","county":"SOMERSET","ppdCategoryType":"Standard","recordStatus":"Addition","latitude":50.949906,"longitude":-2.850879,"postcodeStart":"TA19 0","postcode":["TA19","0LT"]}
{"price":23630,"dateOfTransfer":"1995-07-14T00:00:00","postcodeFull":"TA19 0AY","propertyType":"Terraced","oldOrNew":"Established","duration":"Freehold","paon":"36","saon":"","street":"BUTTS","locality":"ILMINSTER","townOrCity":"ILMINSTER","district":"SOUTH SOMERSET","county":"SOMERSET","ppdCategoryType":"Standard","recordStatus":"Addition","latitude":50.927404,"longitude":-2.907412,"postcodeStart":"TA19 0","postcode":["TA19","0AY"]}
{"price":30000,"dateOfTransfer":"1995-10-20T00:00:00","postcodeFull":"TA19 0AW","propertyType":"Terraced","oldOrNew":"Established","duration":"Freehold","paon":"62","saon":"","street":"EAST STREET","locality":"ILMINSTER","townOrCity":"ILMINSTER","district":"SOUTH SOMERSET","county":"SOMERSET","ppdCategoryType":"Standard","recordStatus":"Addition","latitude":50.927037,"longitude":-2.905997,"postcodeStart":"TA19 0","postcode":["TA19","0AW"]}
{"price":17500,"dateOfTransfer":"1995-01-05T00:00:00","postcodeFull":"TA19 0PB","propertyType":"Semi-detached","oldOrNew":"Established","duration":"Freehold","paon":"5","saon":"","street":"MOOLHAM LANE","locality":"ILMINSTER","townOrCity":"ILMINSTER","district":"SOUTH SOMERSET","county":"SOMERSET","ppdCategoryType":"Standard","recordStatus":"Addition","latitude":50.917953,"longitude":-2.894567,"postcodeStart":"TA19 0","postcode":["TA19","0PB"]}
{"price":69000,"dateOfTransfer":"1995-04-24T00:00:00","postcodeFull":"TA19 0JP","propertyType":"Detached","oldOrNew":"Established","duration":"Freehold","paon":"FARTHINGS","saon":"","street":"","locality":"BARRINGTON","townOrCity":"ILMINSTER","district":"SOUTH SOMERSET","county":"SOMERSET","ppdCategoryType":"Standard","recordStatus":"Addition","latitude":50.958054,"longitude":-2.863017,"postcodeStart":"TA19 0","postcode":["TA19","0JP"]}
{"price":63150,"dateOfTransfer":"1995-08-04T00:00:00","postcodeFull":"TA19 0EH","propertyType":"Detached","oldOrNew":"Established","duration":"Freehold","paon":"40","saon":"","street":"THE CROSS","locality":"ILMINSTER","townOrCity":"ILMINSTER","district":"SOUTH SOMERSET","county":"SOMERSET","ppdCategoryType":"Standard","recordStatus":"Addition","latitude":50.923141,"longitude":-2.910872,"postcodeStart":"TA19 0","postcode":["TA19","0EH"]}
{"price":40000,"dateOfTransfer":"1995-09-15T00:00:00","postcodeFull":"TA19 0AY","propertyType":"Terraced","oldOrNew":"Established","duration":"Freehold","paon":"33","saon":"","street":"BUTTS","locality":"ILMINSTER","townOrCity":"ILMINSTER","district":"SOUTH SOMERSET","county":"SOMERSET","ppdCategoryType":"Standard","recordStatus":"Addition","latitude":50.927404,"longitude":-2.907412,"postcodeStart":"TA19 0","postcode":["TA19","0AY"]}
{"price":58000,"dateOfTransfer":"1995-10-26T00:00:00","postcodeFull":"TA19 0HJ","propertyType":"Semi-detached","oldOrNew":"Established","duration":"Freehold","paon":"20","saon":"","street":"HERNE RISE","locality":"ILMINSTER","townOrCity":"ILMINSTER","district":"SOUTH SOMERSET","county":"SOMERSET","ppdCategoryType":"Standard","recordStatus":"Addition","latitude":50.921981,"longitude":-2.914364,"postcodeStart":"TA19 0","postcode":["TA19","0HJ"]}
{"price":24581,"dateOfTransfer":"1995-12-01T00:00:00","postcodeFull":"TA19 0EF","propertyType":"Terraced","oldOrNew":"Established","duration":"Freehold","paon":"8","saon":"","street":"ABBOTS CLOSE","locality":"ILMINSTER","townOrCity":"ILMINSTER","district":"SOUTH SOMERSET","county":"SOMERSET","ppdCategoryType":"Standard","recordStatus":"Addition","latitude":50.925485,"longitude":-2.913522,"postcodeStart":"TA19 0","postcode":["TA19","0EF"]}
{"price":35000,"dateOfTransfer":"1995-05-05T00:00:00","postcodeFull":"TA19 0AT","propertyType":"Detached","oldOrNew":"Established","duration":"Freehold","paon":"8B","saon":"","street":"BAY HILL","locality":"ILMINSTER","townOrCity":"ILMINSTER","district":"SOUTH SOMERSET","county":"SOMERSET","ppdCategoryType":"Standard","recordStatus":"Addition","latitude":50.926768,"longitude":-2.903615,"postcodeStart":"TA19 0","postcode":["TA19","0AT"]}
{"price":48500,"dateOfTransfer":"1995-11-17T00:00:00","postcodeFull":"TA19 0EA","propertyType":"Terraced","oldOrNew":"Established","duration":"Freehold","paon":"77","saon":"","street":"LADYMEADE","locality":"ILMINSTER","townOrCity":"ILMINSTER","district":"SOUTH SOMERSET","county":"SOMERSET","ppdCategoryType":"Standard","recordStatus":"Addition","latitude":50.925736,"longitude":-2.915974,"postcodeStart":"TA19 0","postcode":["TA19","0EA"]}
{"price":49950,"dateOfTransfer":"1995-07-07T00:00:00","postcodeFull":"TA19 0DG","propertyType":"Terraced","oldOrNew":"Established","duration":"Freehold","paon":"13","saon":"","street":"NORTH STREET","locality":"ILMINSTER","townOrCity":"ILMINSTER","district":"SOUTH SOMERSET","county":"SOMERSET","ppdCategoryType":"Standard","recordStatus":"Addition","latitude":50.927373,"longitude":-2.910348,"postcodeStart":"TA19 0","postcode":["TA19","0DG"]}
{"price":77000,"dateOfTransfer":"1995-05-19T00:00:00","postcodeFull":"TA19 0LY","propertyType":"Semi-detached","oldOrNew":"Established","duration":"Freehold","paon":"WILLOW BROOK","saon":"","street":"LAMBROOK ROAD","locality":"SHEPTON BEAUCHAMP","townOrCity":"ILMINSTER","district":"SOUTH SOMERSET","county":"SOMERSET","ppdCategoryType":"Standard","recordStatus":"Addition","latitude":50.952208,"longitude":-2.848444,"postcodeStart":"TA19 0","postcode":["TA19","0LY"]}
{"price":205000,"dateOfTransfer":"1995-12-11T00:00:00","postcodeFull":"TA19 0PR","propertyType":"Detached","oldOrNew":"Established","duration":"Freehold","paon":"BROOK HOUSE","saon":"","street":"","locality":"CUDWORTH","townOrCity":"ILMINSTER","district":"SOUTH SOMERSET","county":"SOMERSET","ppdCategoryType":"Standard","recordStatus":"Addition","latitude":50.894319,"longitude":-2.892441,"postcodeStart":"TA19 0","postcode":["TA19","0PR"]}
{"price":37000,"dateOfTransfer":"1996-03-29T00:00:00","postcodeFull":"TA19 0AW","propertyType":"Semi-detached","oldOrNew":"Established","duration":"Freehold","paon":"50","saon":"","street":"EAST STREET","locality":"ILMINSTER","townOrCity":"ILMINSTER","district":"SOUTH SOMERSET","county":"SOMERSET","ppdCategoryType":"Standard","recordStatus":"Addition","latitude":50.927037,"longitude":-2.905997,"postcodeStart":"TA19 0","postcode":["TA19","0AW"]}
{"price":60000,"dateOfTransfer":"1996-08-23T00:00:00","postcodeFull":"TA19 0PU","propertyType":"Detached","oldOrNew":"Established","duration":"Freehold","paon":"SCHOOL HOUSE","saon":"","street":"","locality":"LOWER CHILLINGTON","townOrCity":"ILMINSTER","district":"SOUTH SOMERSET","county":"SOMERSET","ppdCategoryType":"Standard","recordStatus":"Addition","latitude":50.896412,"longitude":-2.869967,"postcodeStart":"TA19 0","postcode":["TA19","0PU"]}
{"price":43000,"dateOfTransfer":"1996-08-01T00:00:00","postcodeFull":"TA19 0QD","propertyType":"Detached","oldOrNew":"Established","duration":"Freehold","paon":"LOVERIDGE","saon":"","street":"SCHOOL LANE","locality":"SEAVINGTON","townOrCity":"ILMINSTER","district":"SOUTH SOMERSET","county":"SOMERSET","ppdCategoryType":"Standard","recordStatus":"Addition","latitude":50.931526,"longitude":-2.840853,"postcodeStart":"TA19 0","postcode":["TA19","0QD"]}
{"price":38500,"dateOfTransfer":"1996-10-25T00:00:00","postcodeFull":"TA19 0AW","propertyType":"Terraced","oldOrNew":"Established","duration":"Freehold","paon":"70","saon":"","street":"EAST STREET","locality":"ILMINSTER","townOrCity":"ILMINSTER","district":"SOUTH SOMERSET","county":"SOMERSET","ppdCategoryType":"Standard","recordStatus":"Addition","latitude":50.927037,"longitude":-2.905997,"postcodeStart":"TA19 0","postcode":["TA19","0AW"]}
{"price":70000,"dateOfTransfer":"1996-08-30T00:00:00","postcodeFull":"TA19 0BY","propertyType":"Terraced","oldOrNew":"New build","duration":"Freehold","paon":"1","saon":"","street":"LITTLE LESTER","locality":"ILMINSTER","townOrCity":"ILMINSTER","district":"SOUTH SOMERSET","county":"SOMERSET","ppdCategoryType":"Standard","recordStatus":"Addition","latitude":50.920833,"longitude":-2.910486,"postcodeStart":"TA19 0","postcode":["TA19","0BY"]}
{"price":90000,"dateOfTransfer":"1996-12-04T00:00:00","postcodeFull":"TA19 0JZ","propertyType":"Detached","oldOrNew":"Established","duration":"Freehold","paon":"ORCHARD CORNER","saon":"","street":"SILVER STREET","locality":"SHEPTON BEAUCHAMP","townOrCity":"ILMINSTER","district":"SOUTH SOMERSET","county":"SOMERSET","ppdCategoryType":"Standard","recordStatus":"Addition","latitude":50.947091,"longitude":-2.850899,"postcodeStart":"TA19 0","postcode":["TA19","0JZ"]}
{"price":65000,"dateOfTransfer":"1996-04-12T00:00:00","postcodeFull":"TA19 0DD","propertyType":"Flat/Maisonette/Townhouse","oldOrNew":"Established","duration":"Leasehold","paon":"VICTORIA COURT","saon":"7","street":"SILVER STREET","locality":"ILMINSTER","townOrCity":"ILMINSTER","district":"SOUTH SOMERSET","county":"SOMERSET","ppdCategoryType":"Standard","recordStatus":"Addition","latitude":50.926866,"longitude":-2.910737,"postcodeStart":"TA19 0","postcode":["TA19","0DD"]}
{"price":40000,"dateOfTransfer":"1996-04-29T00:00:00","postcodeFull":"TA19 0AY","propertyType":"Terraced","oldOrNew":"Established","duration":"Freehold","paon":"26","saon":"ISLE COTTAGE","street":"BUTTS","locality":"ILMINSTER","townOrCity":"ILMINSTER","district":"SOUTH SOMERSET","county":"SOMERSET","ppdCategoryType":"Standard","recordStatus":"Addition","latitude":50.927404,"longitude":-2.907412,"postcodeStart":"TA19 0","postcode":["TA19","0AY"]}
{"price":125000,"dateOfTransfer":"1996-10-25T00:00:00","postcodeFull":"TA19 0DU","propertyType":"Detached","oldOrNew":"Established","duration":"Freehold","paon":"THE OLD LIBRARY, 27","saon":"","street":"COURT BARTON","locality":"ILMINSTER","townOrCity":"ILMINSTER","district":"SOUTH SOMERSET","county":"SOMERSET","ppdCategoryType":"Standard","recordStatus":"Addition","latitude":50.927734,"longitude":-2.912371,"postcodeStart":"TA19 0","postcode":["TA19","0DU"]}
{"price":157500,"dateOfTransfer":"1996-05-17T00:00:00","postcodeFull":"TA19 0QP","propertyType":"Detached","oldOrNew":"Established","duration":"Freehold","paon":"BARN END ANNEXE","saon":"","street":"CHURCH LANE","locality":"SEAVINGTON","townOrCity":"ILMINSTER","district":"SOUTH SOMERSET","county":"SOMERSET","ppdCategoryType":"Standard","recordStatus":"Addition","latitude":50.929036,"longitude":-2.851864,"postcodeStart":"TA19 0","postcode":["TA19","0QP"]}
{"price":50500,"dateOfTransfer":"1996-07-26T00:00:00","postcodeFull":"TA19 0HH","propertyType":"Semi-detached","oldOrNew":"Established","duration":"Freehold","paon":"89","saon":"","street":"HERNE RISE","locality":"ILMINSTER","townOrCity":"ILMINSTER","district":"SOUTH SOMERSET","county":"SOMERSET","ppdCategoryType":"Standard","recordStatus":"Addition","latitude":50.921104,"longitude":-2.913806,"postcodeStart":"TA19 0","postcode":["TA19","0HH"]}
{"price":67500,"dateOfTransfer":"1996-02-26T00:00:00","postcodeFull":"TA19 0ND","propertyType":"Detached","oldOrNew":"Established","duration":"Freehold","paon":"15","saon":"","street":"PIECE LANE","locality":"SHEPTON BEAUCHAMP","townOrCity":"ILMINSTER","district":"SOUTH SOMERSET","county":"SOMERSET","ppdCategoryType":"Standard","recordStatus":"Addition","latitude":50.953227,"longitude":-2.84674,"postcodeStart":"TA19 0","postcode":["TA19","0ND"]}
{"price":146000,"dateOfTransfer":"1996-08-16T00:00:00","postcodeFull":"TA19 0NZ","propertyType":"Detached","oldOrNew":"Established","duration":"Freehold","paon":"MIDFORD","saon":"","street":"","locality":"DOWLISH WAKE","townOrCity":"ILMINSTER","district":"SOUTH SOMERSET","county":"SOMERSET","ppdCategoryType":"Standard","recordStatus":"Addition","latitude":50.90773,"longitude":-2.890891,"postcodeStart":"TA19 0","postcode":["TA19","0NZ"]}
{"price":100000,"dateOfTransfer":"1996-12-31T00:00:00","postcodeFull":"TA19 0ED","propertyType":"Flat/Maisonette/Townhouse","oldOrNew":"New build","duration":"Leasehold","paon":"22","saon":"","street":"ASHCOMBE COURT","locality":"ILMINSTER","townOrCity":"ILMINSTER","district":"SOUTH SOMERSET","county":"SOMERSET","ppdCategoryType":"Standard","recordStatus":"Addition","latitude":50.927316,"longitude":-2.914027,"postcodeStart":"TA19 0","postcode":["TA19","0ED"]}
{"price":65000,"dateOfTransfer":"1996-12-05T00:00:00","postcodeFull":"TA19 0AN","propertyType":"Terraced","oldOrNew":"Established","duration":"Freehold","paon":"THE OLD COACH HOUSE","saon":"","street":"EAST STREET","locality":"","townOrCity":"ILMINSTER","district":"SOUTH SOMERSET","county":"SOMERSET","ppdCategoryType":"Standard","recordStatus":"Addition","latitude":50.927123,"longitude":-2.907825,"postcodeStart":"TA19 0","postcode":["TA19","0AN"]}
{"price":59950,"dateOfTransfer":"1996-05-10T00:00:00","postcodeFull":"TA19 0JE","propertyType":"Terraced","oldOrNew":"Established","duration":"Freehold","paon":"HAYLOFT","saon":"","street":"","locality":"BARRINGTON","townOrCity":"ILMINSTER","district":"SOUTH SOMERSET","county":"SOMERSET","ppdCategoryType":"Standard","recordStatus":"Addition","latitude":50.96062,"longitude":-2.873473,"postcodeStart":"TA19 0","postcode":["TA19","0JE"]}
{"price":43500,"dateOfTransfer":"1996-07-30T00:00:00","postcodeFull":"TA19 0LN","propertyType":"Terraced","oldOrNew":"Established","duration":"Freehold","paon":"TULLIVERS","saon":"","street":"THE SHAMBLES","locality":"SHEPTON BEAUCHAMP","townOrCity":"ILMINSTER","district":"SOUTH SOMERSET","county":"SOMERSET","ppdCategoryType":"Standard","recordStatus":"Addition","latitude":50.951185,"longitude":-2.851814,"postcodeStart":"TA19 0","postcode":["TA19","0LN"]}
{"price":36000,"dateOfTransfer":"1996-10-11T00:00:00","postcodeFull":"TA19 0EH","propertyType":"Terraced","oldOrNew":"Established","duration":"Freehold","paon":"34","saon":"","street":"THE CROSS","locality":"ILMINSTER","townOrCity":"ILMINSTER","district":"SOUTH SOMERSET","county":"SOMERSET","ppdCategoryType":"Standard","recordStatus":"Addition","latitude":50.923141,"longitude":-2.910872,"postcodeStart":"TA19 0","postcode":["TA19","0EH"]}
{"price":53500,"dateOfTransfer":"1996-03-15T00:00:00","postcodeFull":"TA19 0HH","propertyType":"Semi-detached","oldOrNew":"Established","duration":"Freehold","paon":"13","saon":"","street":"HERNE RISE","locality":"ILMINSTER","townOrCity":"ILMINSTER","district":"SOUTH SOMERSET","county":"SOMERSET","ppdCategoryType":"Standard","recordStatus":"Addition","latitude":50.921104,"longitude":-2.913806,"postcodeStart":"TA19 0","postcode":["TA19","0HH"]}
{"price":73000,"dateOfTransfer":"1996-10-04T00:00:00","postcodeFull":"TA19 0PJ","propertyType":"Semi-detached","oldOrNew":"Established","duration":"Freehold","paon":"3","saon":"","street":"GREENWAY","locality":"DOWLISH FORD","townOrCity":"ILMINSTER","district":"SOUTH SOMERSET","county":"SOMERSET","ppdCategoryType":"Standard","recordStatus":"Addition","latitude":50.913809,"longitude":-2.918642,"postcodeStart":"TA19 0","postcode":["TA19","0PJ"]}
{"price":47500,"dateOfTransfer":"1996-03-15T00:00:00","postcodeFull":"TA19 0PE","propertyType":"Terraced","oldOrNew":"Established","duration":"Freehold","paon":"2","saon":"","street":"NEW BUILDINGS","locality":"DOWLISH FORD","townOrCity":"ILMINSTER","district":"SOUTH SOMERSET","county":"SOMERSET","ppdCategoryType":"Standard","recordStatus":"Addition","latitude":50.917039,"longitude":-2.912688,"postcodeStart":"TA19 0","postcode":["TA19","0PE"]}
{"price":59500,"dateOfTransfer":"1996-08-13T00:00:00","postcodeFull":"TA19 0QH","propertyType":"Terraced","oldOrNew":"Established","duration":"Freehold","paon":"MARLE GROUND","saon":"2","street":"WATER STREET","locality":"SEAVINGTON","townOrCity":"ILMINSTER","district":"SOUTH SOMERSET","county":"SOMERSET","ppdCategoryType":"Standard","recordStatus":"Addition","latitude":50.930632,"longitude":-2.843825,"postcodeStart":"TA19 0","postcode":["TA19","0QH"]}
{"price":51000,"dateOfTransfer":"1996-01-15T00:00:00","postcodeFull":"TA19 0LE","propertyType":"Semi-detached","oldOrNew":"Established","duration":"Freehold","paon":"SEPTEMBER COTTAGE","saon":"","street":"MIDDLE STREET","locality":"SHEPTON BEAUCHAMP","townOrCity":"ILMINSTER","district":"SOUTH SOMERSET","county":"SOMERSET","ppdCategoryType":"Standard","recordStatus":"Addition","latitude":50.949184,"longitude":-2.851222,"postcodeStart":"TA19 0","postcode":["TA19","0LE"]}
{"price":158000,"dateOfTransfer":"1996-08-16T00:00:00","postcodeFull":"TA19 0QP","propertyType":"Detached","oldOrNew":"Established","duration":"Freehold","paon":"THORNBURY","saon":"","street":"CHURCH LANE","locality":"SEAVINGTON","townOrCity":"ILMINSTER","district":"SOUTH SOMERSET","county":"SOMERSET","ppdCategoryType":"Standard","recordStatus":"Addition","latitude":50.929036,"longitude":-2.851864,"postcodeStart":"TA19 0","postcode":["TA19","0QP"]}
{"price":75500,"dateOfTransfer":"1996-07-31T00:00:00","postcodeFull":"TA19 0RT","propertyType":"Detached","oldOrNew":"Established","duration":"Freehold","paon":"THORNFIELD","saon":"","street":"POUND HILL","locality":"DONYATT","townOrCity":"ILMINSTER","district":"SOUTH SOMERSET","county":"SOMERSET","ppdCategoryType":"Standard","recordStatus":"Addition","latitude":50.924093,"longitude":-2.947229,"postcodeStart":"TA19 0","postcode":["TA19","0RT"]}
{"price":90000,"dateOfTransfer":"1996-06-12T00:00:00","postcodeFull":"TA19 0AN","propertyType":"Semi-detached","oldOrNew":"Established","duration":"Freehold","paon":"32","saon":"","street":"EAST STREET","locality":"ILMINSTER","townOrCity":"ILMINSTER","district":"SOUTH SOMERSET","county":"SOMERSET","ppdCategoryType":"Standard","recordStatus":"Addition","latitude":50.927123,"longitude":-2.907825,"postcodeStart":"TA19 0","postcode":["TA19","0AN"]}
{"price":47500,"dateOfTransfer":"1996-11-29T00:00:00","postcodeFull":"TA19 0JZ","propertyType":"Semi-detached","oldOrNew":"Established","duration":"Freehold","paon":"HILL VIEW","saon":"4","street":"SILVER STREET","locality":"SHEPTON BEAUCHAMP","townOrCity":"ILMINSTER","district":"SOUTH SOMERSET","county":"SOMERSET","ppdCategoryType":"Standard","recordStatus":"Addition","latitude":50.947091,"longitude":-2.850899,"postcodeStart":"TA19 0","postcode":["TA19","0JZ"]}
{"price":48500,"dateOfTransfer":"1996-02-16T00:00:00","postcodeFull":"TA19 0EA","propertyType":"Detached","oldOrNew":"Established","duration":"Freehold","paon":"54","saon":"","street":"LADYMEADE","locality":"ILMINSTER","townOrCity":"ILMINSTER","district":"SOUTH SOMERSET","county":"SOMERSET","ppdCategoryType":"Standard","recordStatus":"Addition","latitude":50.925736,"longitude":-2.915974,"postcodeStart":"TA19 0","postcode":["TA19","0EA"]}
{"price":75000,"dateOfTransfer":"1996-08-13T00:00:00","postcodeFull":"TA19 0LZ","propertyType":"Semi-detached","oldOrNew":"Established","duration":"Freehold","paon":"THE JAYS","saon":"","street":"LAMBROOK ROAD","locality":"SHEPTON BEAUCHAMP","townOrCity":"ILMINSTER","district":"SOUTH SOMERSET","county":"SOMERSET","ppdCategoryType":"Standard","recordStatus":"Addition","latitude":50.953011,"longitude":-2.844401,"postcodeStart":"TA19 0","postcode":["TA19","0LZ"]}
{"price":95000,"dateOfTransfer":"1996-06-04T00:00:00","postcodeFull":"TA19 0NS","propertyType":"Semi-detached","oldOrNew":"Established","duration":"Freehold","paon":"KINGSTONE FARM","saon":"EAST BYRE","street":"","locality":"KINGSTONE","townOrCity":"ILMINSTER","district":"SOUTH SOMERSET","county":"SOMERSET","ppdCategoryType":"Standard","recordStatus":"Addition","latitude":50.91895,"longitude":-2.885268,"postcodeStart":"TA19 0","postcode":["TA19","0NS"]}
{"price":167350,"dateOfTransfer":"1996-09-13T00:00:00","postcodeFull":"TA19 0JB","propertyType":"Detached","oldOrNew":"Established","duration":"Freehold","paon":"VINCES","saon":"","street":"","locality":"BARRINGTON","townOrCity":"ILMINSTER","district":"SOUTH SOMERSET","county":"SOMERSET","ppdCategoryType":"Standard","recordStatus":"Addition","latitude":50.959379,"longitude":-2.869819,"postcodeStart":"TA19 0","postcode":["TA19","0JB"]}
{"price":91500,"dateOfTransfer":"1996-07-31T00:00:00","postcodeFull":"TA19 0ED","propertyType":"Flat/Maisonette/Townhouse","oldOrNew":"Established","duration":"Leasehold","paon":"12","saon":"","street":"ASHCOMBE COURT","locality":"ILMINSTER","townOrCity":"ILMINSTER","district":"SOUTH SOMERSET","county":"SOMERSET","ppdCategoryType":"Standard","recordStatus":"Addition","latitude":50.927316,"longitude":-2.914027,"postcodeStart":"TA19 0","postcode":["TA19","0ED"]}
{"price":55000,"dateOfTransfer":"1996-12-11T00:00:00","postcodeFull":"TA19 0DU","propertyType":"Semi-detached","oldOrNew":"Established","duration":"Freehold","paon":"9","saon":"","street":"COURT BARTON","locality":"ILMINSTER","townOrCity":"ILMINSTER","district":"SOUTH SOMERSET","county":"SOMERSET","ppdCategoryType":"Standard","recordStatus":"Addition","latitude":50.927734,"longitude":-2.912371,"postcodeStart":"TA19 0","postcode":["TA19","0DU"]}
{"price":91000,"dateOfTransfer":"1996-03-29T00:00:00","postcodeFull":"TA19 0PW","propertyType":"Semi-detached","oldOrNew":"Established","duration":"Freehold","paon":"2","saon":"","street":"CRICKET COURT COTTAGE","locality":"CRICKET MALHERBIE","townOrCity":"ILMINSTER","district":"SOUTH SOMERSET","county":"SOMERSET","ppdCategoryType":"Standard","recordStatus":"Addition","latitude":50.899852,"longitude":-2.910778,"postcodeStart":"TA19 0","postcode":["TA19","0PW"]}
{"price":43250,"dateOfTransfer":"1996-09-27T00:00:00","postcodeFull":"TA19 0EH","propertyType":"Terraced","oldOrNew":"Established","duration":"Freehold","paon":"12","saon":"","street":"THE CROSS","locality":"ILMINSTER","townOrCity":"ILMINSTER","district":"SOUTH SOMERSET","county":"SOMERSET","ppdCategoryType":"Standard","recordStatus":"Addition","latitude":50.923141,"longitude":-2.910872,"postcodeStart":"TA19 0","postcode":["TA19","0EH"]}
{"price":84000,"dateOfTransfer":"1996-07-03T00:00:00","postcodeFull":"TA19 0DW","propertyType":"Semi-detached","oldOrNew":"Established","duration":"Freehold","paon":"47","saon":"","street":"SILVER STREET","locality":"ILMINSTER","townOrCity":"ILMINSTER","district":"SOUTH SOMERSET","county":"SOMERSET","ppdCategoryType":"Standard","recordStatus":"Addition","latitude":50.926999,"longitude":-2.912767,"postcodeStart":"TA19 0","postcode":["TA19","0DW"]}
{"price":92600,"dateOfTransfer":"1996-12-20T00:00:00","postcodeFull":"TA19 0BX","propertyType":"Detached","oldOrNew":"New build","duration":"Freehold","paon":"9","saon":"","street":"HERON WAY","locality":"ILMINSTER","townOrCity":"ILMINSTER","district":"SOUTH SOMERSET","county":"SOMERSET","ppdCategoryType":"Standard","recordStatus":"Addition","latitude":50.920392,"longitude":-2.909353,"postcodeStart":"TA19 0","postcode":["TA19","0BX"]}
{"price":48000,"dateOfTransfer":"1996-10-16T00:00:00","postcodeFull":"TA19 0EA","propertyType":"Semi-detached","oldOrNew":"Established","duration":"Freehold","paon":"34","saon":"","street":"LADYMEADE","locality":"ILMINSTER","townOrCity":"ILMINSTER","district":"SOUTH SOMERSET","county":"SOMERSET","ppdCategoryType":"Standard","recordStatus":"Addition","latitude":50.925736,"longitude":-2.915974,"postcodeStart":"TA19 0","postcode":["TA19","0EA"]}
{"price":38000,"dateOfTransfer":"1996-04-17T00:00:00","postcodeFull":"TA19 0AT","propertyType":"Terraced","oldOrNew":"Established","duration":"Freehold","paon":"8A","saon":"","street":"BAY HILL","locality":"ILMINSTER","townOrCity":"ILMINSTER","district":"SOUTH SOMERSET","county":"SOMERSET","ppdCategoryType":"Standard","recordStatus":"Addition","latitude":50.926768,"longitude":-2.903615,"postcodeStart":"TA19 0","postcode":["TA19","0AT"]}
{"price":58000,"dateOfTransfer":"1996-06-06T00:00:00","postcodeFull":"TA19 0LL","propertyType":"Terraced","oldOrNew":"Established","duration":"Freehold","paon":"6","saon":"","street":"PEBBLES ORCHARD","locality":"SHEPTON BEAUCHAMP","townOrCity":"ILMINSTER","district":"SOUTH SOMERSET","county":"SOMERSET","ppdCategoryType":"Standard","recordStatus":"Addition","latitude":50.951633,"longitude":-2.849544,"postcodeStart":"TA19 0","postcode":["TA19","0LL"]}
{"price":70000,"dateOfTransfer":"1996-11-29T00:00:00","postcodeFull":"TA19 0BY","propertyType":"Semi-detached","oldOrNew":"New build","duration":"Freehold","paon":"10","saon":"","street":"LITTLE LESTER","locality":"ILMINSTER","townOrCity":"ILMINSTER","district":"SOUTH SOMERSET","county":"SOMERSET","ppdCategoryType":"Standard","recordStatus":"Addition","latitude":50.920833,"longitude":-2.910486,"postcodeStart":"TA19 0","postcode":["TA19","0BY"]}
{"price":45000,"dateOfTransfer":"1996-08-16T00:00:00","postcodeFull":"TA19 0BQ","propertyType":"Terraced","oldOrNew":"Established","duration":"Freehold","paon":"25","saon":"","street":"DITTON STREET","locality":"ILMINSTER","townOrCity":"ILMINSTER","district":"SOUTH SOMERSET","county":"SOMERSET","ppdCategoryType":"Standard","recordStatus":"Addition","latitude":50.925826,"longitude":-2.910242,"postcodeStart":"TA19 0","postcode":["TA19","0BQ"]}
{"price":45000,"dateOfTransfer":"1996-09-18T00:00:00","postcodeFull":"TA19 0DT","propertyType":"Terraced","oldOrNew":"Established","duration":"Freehold","paon":"9A","saon":"","street":"WHARF LANE","locality":"ILMINSTER","townOrCity":"ILMINSTER","district":"SOUTH SOMERSET","county":"SOMERSET","ppdCategoryType":"Standard","recordStatus":"Addition","latitude":50.926529,"longitude":-2.912424,"postcodeStart":"TA19 0","postcode":["TA19","0DT"]}
{"price":43000,"dateOfTransfer":"1996-10-18T00:00:00","postcodeFull":"TA19 0JE","propertyType":"Semi-detached","oldOrNew":"Established","duration":"Freehold","paon":"PRIORY FARM COTTAGE","saon":"","street":"","locality":"BARRINGTON","townOrCity":"ILMINSTER","district":"SOUTH SOMERSET","county":"SOMERSET","ppdCategoryType":"Standard","recordStatus":"Addition","latitude":50.96062,"longitude":-2.873473,"postcodeStart":"TA19 0","postcode":["TA19","0JE"]}
{"price":207500,"dateOfTransfer":"1996-07-25T00:00:00","postcodeFull":"TA19 0NS","propertyType":"Detached","oldOrNew":"Established","duration":"Freehold","paon":"THE HAY BARN","saon":"","street":"","locality":"KINGSTONE","townOrCity":"ILMINSTER","district":"SOUTH SOMERSET","county":"SOMERSET","ppdCategoryType":"Standard","recordStatus":"Addition","latitude":50.91895,"longitude":-2.885268,"postcodeStart":"TA19 0","postcode":["TA19","0NS"]}
{"price":48000,"dateOfTransfer":"1996-08-30T00:00:00","postcodeFull":"TA19 0EA","propertyType":"Semi-detached","oldOrNew":"Established","duration":"Freehold","paon":"56","saon":"","street":"LADYMEADE","locality":"ILMINSTER","townOrCity":"ILMINSTER","district":"SOUTH SOMERSET","county":"SOMERSET","ppdCategoryType":"Standard","recordStatus":"Addition","latitude":50.925736,"longitude":-2.915974,"postcodeStart":"TA19 0","postcode":["TA19","0EA"]}
{"price":83500,"dateOfTransfer":"1996-05-07T00:00:00","postcodeFull":"TA19 0EA","propertyType":"Detached","oldOrNew":"Established","duration":"Freehold","paon":"10","saon":"","street":"LADYMEADE","locality":"ILMINSTER","townOrCity":"ILMINSTER","district":"SOUTH SOMERSET","county":"SOMERSET","ppdCategoryType":"Standard","recordStatus":"Addition","latitude":50.925736,"longitude":-2.915974,"postcodeStart":"TA19 0","postcode":["TA19","0EA"]}
{"price":170000,"dateOfTransfer":"1996-01-09T00:00:00","postcodeFull":"TA19 0RU","propertyType":"Detached","oldOrNew":"Established","duration":"Freehold","paon":"THE OLD RECTORY","saon":"","street":"","locality":"DONYATT","townOrCity":"ILMINSTER","district":"SOUTH SOMERSET","county":"SOMERSET","ppdCategoryType":"Standard","recordStatus":"Addition","latitude":50.922266,"longitude":-2.942981,"postcodeStart":"TA19 0","postcode":["TA19","0RU"]}
{"price":112000,"dateOfTransfer":"1996-11-01T00:00:00","postcodeFull":"TA19 0NE","propertyType":"Detached","oldOrNew":"Established","duration":"Freehold","paon":"BRIMGROVE COTTAGE","saon":"","street":"BRIMGROVE LANE","locality":"SHEPTON BEAUCHAMP","townOrCity":"ILMINSTER","district":"SOUTH SOMERSET","county":"SOMERSET","ppdCategoryType":"Standard","recordStatus":"Addition","latitude":50.954147,"longitude":-2.843866,"postcodeStart":"TA19 0","postcode":["TA19","0NE"]}
{"price":47000,"dateOfTransfer":"1996-04-26T00:00:00","postcodeFull":"TA19 0EZ","propertyType":"Terraced","oldOrNew":"Established","duration":"Freehold","paon":"33","saon":"","street":"THE MEAD","locality":"ILMINSTER","townOrCity":"ILMINSTER","district":"SOUTH SOMERSET","county":"SOMERSET","ppdCategoryType":"Standard","recordStatus":"Addition","latitude":50.922952,"longitude":-2.914411,"postcodeStart":"TA19 0","postcode":["TA19","0EZ"]}
{"price":68000,"dateOfTransfer":"1996-10-22T00:00:00","postcodeFull":"TA19 0BX","propertyType":"Detached","oldOrNew":"New build","duration":"Freehold","paon":"5","saon":"","street":"HERON WAY","locality":"ILMINSTER","townOrCity":"ILMINSTER","district":"SOUTH SOMERSET","county":"SOMERSET","ppdCategoryType":"Standard","recordStatus":"Addition","latitude":50.920392,"longitude":-2.909353,"postcodeStart":"TA19 0","postcode":["TA19","0BX"]}
{"price":67950,"dateOfTransfer":"1996-12-06T00:00:00","postcodeFull":"TA19 0BY","propertyType":"Terraced","oldOrNew":"New build","duration":"Freehold","paon":"2","saon":"","street":"LITTLE LESTER","locality":"ILMINSTER","townOrCity":"ILMINSTER","district":"SOUTH SOMERSET","county":"SOMERSET","ppdCategoryType":"Standard","recordStatus":"Addition","latitude":50.920833,"longitude":-2.910486,"postcodeStart":"TA19 0","postcode":["TA19","0BY"]}
{"price":13500,"dateOfTransfer":"1996-06-06T00:00:00","postcodeFull":"TA19 0EF","propertyType":"Terraced","oldOrNew":"Established","duration":"Leasehold","paon":"11","saon":"","street":"ABBOTS CLOSE","locality":"ILMINSTER","townOrCity":"ILMINSTER","district":"SOUTH SOMERSET","county":"SOMERSET","ppdCategoryType":"Standard","recordStatus":"Addition","latitude":50.925485,"longitude":-2.913522,"postcodeStart":"TA19 0","postcode":["TA19","0EF"]}
{"price":73000,"dateOfTransfer":"1996-07-26T00:00:00","postcodeFull":"TA19 0QD","propertyType":"Detached","oldOrNew":"Established","duration":"Freehold","paon":"SCHOOL HOUSE","saon":"","street":"SCHOOL LANE","locality":"SEAVINGTON","townOrCity":"ILMINSTER","district":"SOUTH SOMERSET","county":"SOMERSET","ppdCategoryType":"Standard","recordStatus":"Addition","latitude":50.931526,"longitude":-2.840853,"postcodeStart":"TA19 0","postcode":["TA19","0QD"]}
{"price":39500,"dateOfTransfer":"1996-05-22T00:00:00","postcodeFull":"TA19 0AY","propertyType":"Terraced","oldOrNew":"Established","duration":"Freehold","paon":"26","saon":"HILLVIEW COTTAGE","street":"BUTTS","locality":"ILMINSTER","townOrCity":"ILMINSTER","district":"SOUTH SOMERSET","county":"SOMERSET","ppdCategoryType":"Standard","recordStatus":"Addition","latitude":50.927404,"longitude":-2.907412,"postcodeStart":"TA19 0","postcode":["TA19","0AY"]}
{"price":45000,"dateOfTransfer":"1996-09-06T00:00:00","postcodeFull":"TA19 0EL","propertyType":"Terraced","oldOrNew":"Established","duration":"Freehold","paon":"5","saon":"","street":"LISTERS HILL","locality":"ILMINSTER","townOrCity":"ILMINSTER","district":"SOUTH SOMERSET","county":"SOMERSET","ppdCategoryType":"Standard","recordStatus":"Addition","latitude":50.922135,"longitude":-2.910844,"postcodeStart":"TA19 0","postcode":["TA19","0EL"]}
{"price":26250,"dateOfTransfer":"1996-06-28T00:00:00","postcodeFull":"TA19 0DJ","propertyType":"Flat/Maisonette/Townhouse","oldOrNew":"Established","duration":"Leasehold","paon":"14","saon":"FLAT 2","street":"SILVER STREET","locality":"ILMINSTER","townOrCity":"ILMINSTER","district":"SOUTH SOMERSET","county":"SOMERSET","ppdCategoryType":"Standard","recordStatus":"Addition","latitude":50.926721,"longitude":-2.910919,"postcodeStart":"TA19 0","postcode":["TA19","0DJ"]}
{"price":92000,"dateOfTransfer":"1996-07-27T00:00:00","postcodeFull":"TA19 0NY","propertyType":"Detached","oldOrNew":"Established","duration":"Freehold","paon":"BRIDGE COTTAGE","saon":"","street":"","locality":"DOWLISH WAKE","townOrCity":"ILMINSTER","district":"SOUTH SOMERSET","county":"SOMERSET","ppdCategoryType":"Standard","recordStatus":"Addition","latitude":50.910402,"longitude":-2.889501,"postcodeStart":"TA19 0","postcode":["TA19","0NY"]}
{"price":16125,"dateOfTransfer":"1996-08-09T00:00:00","postcodeFull":"TA19 0BG","propertyType":"Semi-detached","oldOrNew":"Established","duration":"Freehold","paon":"141","saon":"","street":"BLACKDOWN VIEW","locality":"ILMINSTER","townOrCity":"ILMINSTER","district":"SOUTH SOMERSET","county":"SOMERSET","ppdCategoryType":"Standard","recordStatus":"Addition","latitude":50.927807,"longitude":-2.906424,"postcodeStart":"TA19 0","postcode":["TA19","0BG"]}
{"price":148000,"dateOfTransfer":"1996-10-15T00:00:00","postcodeFull":"TA19 0QU","propertyType":"Detached","oldOrNew":"Established","duration":"Freehold","paon":"THE STABLES","saon":"","street":"WEST STREET","locality":"SEAVINGTON","townOrCity":"ILMINSTER","district":"SOUTH SOMERSET","county":"SOMERSET","ppdCategoryType":"Standard","recordStatus":"Addition","latitude":50.929656,"longitude":-2.857002,"postcodeStart":"TA19 0","postcode":["TA19","0QU"]}
{"price":204000,"dateOfTransfer":"1996-10-24T00:00:00","postcodeFull":"TA19 0LZ","propertyType":"Detached","oldOrNew":"Established","duration":"Freehold","paon":"THE WILLOWS","saon":"","street":"LAMBROOK ROAD","locality":"SHEPTON BEAUCHAMP","townOrCity":"ILMINSTER","district":"SOUTH SOMERSET","county":"SOMERSET","ppdCategoryType":"Standard","recordStatus":"Addition","latitude":50.953011,"longitude":-2.844401,"postcodeStart":"TA19 0","postcode":["TA19","0LZ"]}
{"price":88000,"dateOfTransfer":"1996-09-20T00:00:00","postcodeFull":"TA19 0NZ","propertyType":"Detached","oldOrNew":"Established","duration":"Freehold","paon":"HIGHLANDS","saon":"","street":"","locality":"DOWLISH WAKE","townOrCity":"ILMINSTER","district":"SOUTH SOMERSET","county":"SOMERSET","ppdCategoryType":"Standard","recordStatus":"Addition","latitude":50.90773,"longitude":-2.890891,"postcodeStart":"TA19 0","postcode":["TA19","0NZ"]}
{"price":51000,"dateOfTransfer":"1996-04-26T00:00:00","postcodeFull":"TA19 0JE","propertyType":"Semi-detached","oldOrNew":"Established","duration":"Freehold","paon":"PRIORY FARM COTTAGE","saon":"","street":"","locality":"BARRINGTON","townOrCity":"ILMINSTER","district":"SOUTH SOMERSET","county":"SOMERSET","ppdCategoryType":"Standard","recordStatus":"Addition","latitude":50.96062,"longitude":-2.873473,"postcodeStart":"TA19 0","postcode":["TA19","0JE"]}
{"price":80000,"dateOfTransfer":"1996-04-15T00:00:00","postcodeFull":"TA19 0JR","propertyType":"Semi-detached","oldOrNew":"Established","duration":"Freehold","paon":"6","saon":"","street":"WATER STREET","locality":"BARRINGTON","townOrCity":"ILMINSTER","district":"SOUTH SOMERSET","county":"SOMERSET","ppdCategoryType":"Standard","recordStatus":"Addition","latitude":50.959159,"longitude":-2.863327,"postcodeStart":"TA19 0","postcode":["TA19","0JR"]}
{"price":32500,"dateOfTransfer":"1996-03-29T00:00:00","postcodeFull":"TA19 0AW","propertyType":"Detached","oldOrNew":"Established","duration":"Freehold","paon":"74D","saon":"","street":"EAST STREET","locality":"ILMINSTER","townOrCity":"ILMINSTER","district":"SOUTH SOMERSET","county":"SOMERSET","ppdCategoryType":"Standard","recordStatus":"Addition","latitude":50.927037,"longitude":-2.905997,"postcodeStart":"TA19 0","postcode":["TA19","0AW"]}
{"price":25200,"dateOfTransfer":"1996-07-29T00:00:00","postcodeFull":"TA19 0QU","propertyType":"Semi-detached","oldOrNew":"Established","duration":"Freehold","paon":"3","saon":"","street":"COUNCIL HOUSES","locality":"SEAVINGTON","townOrCity":"ILMINSTER","district":"SOUTH SOMERSET","county":"SOMERSET","ppdCategoryType":"Standard","recordStatus":"Addition","latitude":50.929656,"longitude":-2.857002,"postcodeStart":"TA19 0","postcode":["TA19","0QU"]}
{"price":103500,"dateOfTransfer":"1996-05-08T00:00:00","postcodeFull":"TA19 0EB","propertyType":"Detached","oldOrNew":"Established","duration":"Freehold","paon":"26","saon":"","street":"GREENDALE","locality":"ILMINSTER","townOrCity":"ILMINSTER","district":"SOUTH SOMERSET","county":"SOMERSET","ppdCategoryType":"Standard","recordStatus":"Addition","latitude":50.925758,"longitude":-2.917696,"postcodeStart":"TA19 0","postcode":["TA19","0EB"]}
{"price":8500,"dateOfTransfer":"1996-12-06T00:00:00","postcodeFull":"TA19 0DH","propertyType":"Flat/Maisonette/Townhouse","oldOrNew":"Established","duration":"Leasehold","paon":"KEY HOUSE","saon":"FLAT 2","street":"SILVER STREET","locality":"","townOrCity":"ILMINSTER","district":"SOUTH SOMERSET","county":"SOMERSET","ppdCategoryType":"Standard","recordStatus":"Addition","latitude":50.926512,"longitude":-2.911109,"postcodeStart":"TA19 0","postcode":["TA19","0DH"]}
{"price":100000,"dateOfTransfer":"1996-11-12T00:00:00","postcodeFull":"TA19 0EB","propertyType":"Detached","oldOrNew":"Established","duration":"Freehold","paon":"25","saon":"","street":"GREENDALE","locality":"ILMINSTER","townOrCity":"ILMINSTER","district":"SOUTH SOMERSET","county":"SOMERSET","ppdCategoryType":"Standard","recordStatus":"Addition","latitude":50.925758,"longitude":-2.917696,"postcodeStart":"TA19 0","postcode":["TA19","0EB"]}
{"price":33000,"dateOfTransfer":"1996-04-26T00:00:00","postcodeFull":"TA19 0BW","propertyType":"Terraced","oldOrNew":"Established","duration":"Freehold","paon":"36","saon":"","street":"DITTON STREET","locality":"ILMINSTER","townOrCity":"ILMINSTER","district":"SOUTH SOMERSET","county":"SOMERSET","ppdCategoryType":"Standard","recordStatus":"Addition","latitude":50.924101,"longitude":-2.911147,"postcodeStart":"TA19 0","postcode":["TA19","0BW"]}
{"price":47000,"dateOfTransfer":"1996-08-27T00:00:00","postcodeFull":"TA19 0LY","propertyType":"Terraced","oldOrNew":"Established","duration":"Freehold","paon":"CROFT COTTAGE","saon":"","street":"LAMBROOK ROAD","locality":"SHEPTON BEAUCHAMP","townOrCity":"ILMINSTER","district":"SOUTH SOMERSET","county":"SOMERSET","ppdCategoryType":"Standard","recordStatus":"Addition","latitude":50.952208,"longitude":-2.848444,"postcodeStart":"TA19 0","postcode":["TA19","0LY"]}
{"price":37500,"dateOfTransfer":"1996-08-30T00:00:00","postcodeFull":"TA19 0EH","propertyType":"Semi-detached","oldOrNew":"Established","duration":"Freehold","paon":"35","saon":"","street":"THE CROSS","locality":"ILMINSTER","townOrCity":"ILMINSTER","district":"SOUTH SOMERSET","county":"SOMERSET","ppdCategoryType":"Standard","recordStatus":"Addition","latitude":50.923141,"longitude":-2.910872,"postcodeStart":"TA19 0","postcode":["TA19","0EH"]}
{"price":80000,"dateOfTransfer":"1996-07-29T00:00:00","postcodeFull":"TA19 0AX","propertyType":"Detached","oldOrNew":"Established","duration":"Freehold","paon":"TOAD HALL","saon":"","street":"BUTTS ROAD","locality":"ILMINSTER","townOrCity":"ILMINSTER","district":"SOUTH SOMERSET","county":"SOMERSET","ppdCategoryType":"Standard","recordStatus":"Addition","latitude":50.928231,"longitude":-2.909705,"postcodeStart":"TA19 0","postcode":["TA19","0AX"]}
{"price":78000,"dateOfTransfer":"1996-10-07T00:00:00","postcodeFull":"TA19 0JE","propertyType":"Detached","oldOrNew":"Established","duration":"Freehold","paon":"ORCHARD LEA","saon":"","street":"","locality":"BARRINGTON","townOrCity":"ILMINSTER","district":"SOUTH SOMERSET","county":"SOMERSET","ppdCategoryType":"Standard","recordStatus":"Addition","latitude":50.96062,"longitude":-2.873473,"postcodeStart":"TA19 0","postcode":["TA19","0JE"]}
{"price":62000,"dateOfTransfer":"1996-02-08T00:00:00","postcodeFull":"TA19 0QH","propertyType":"Detached","oldOrNew":"Established","duration":"Freehold","paon":"LATCHMERE","saon":"","street":"WATER STREET","locality":"SEAVINGTON","townOrCity":"ILMINSTER","district":"SOUTH SOMERSET","county":"SOMERSET","ppdCategoryType":"Standard","recordStatus":"Addition","latitude":50.930632,"longitude":-2.843825,"postcodeStart":"TA19 0","postcode":["TA19","0QH"]}
{"price":37000,"dateOfTransfer":"1996-12-18T00:00:00","postcodeFull":"TA19 0JB","propertyType":"Terraced","oldOrNew":"Established","duration":"Freehold","paon":"BRIDGE WELL","saon":"","street":"","locality":"BARRINGTON","townOrCity":"ILMINSTER","district":"SOUTH SOMERSET","county":"SOMERSET","ppdCategoryType":"Standard","recordStatus":"Addition","latitude":50.959379,"longitude":-2.869819,"postcodeStart":"TA19 0","postcode":["TA19","0JB"]}
{"price":40500,"dateOfTransfer":"1996-07-31T00:00:00","postcodeFull":"TA19 0AY","propertyType":"Terraced","oldOrNew":"Established","duration":"Freehold","paon":"BUTTS CASTLE","saon":"19","street":"BUTTS","locality":"ILMINSTER","townOrCity":"ILMINSTER","district":"SOUTH SOMERSET","county":"SOMERSET","ppdCategoryType":"Standard","recordStatus":"Addition","latitude":50.927404,"longitude":-2.907412,"postcodeStart":"TA19 0","postcode":["TA19","0AY"]}
{"price":130000,"dateOfTransfer":"1996-07-09T00:00:00","postcodeFull":"TA19 0JZ","propertyType":"Detached","oldOrNew":"Established","duration":"Freehold","paon":"SHOOTHAYES","saon":"","street":"SILVER STREET","locality":"SHEPTON BEAUCHAMP","townOrCity":"ILMINSTER","district":"SOUTH SOMERSET","county":"SOMERSET","ppdCategoryType":"Standard","recordStatus":"Addition","latitude":50.947091,"longitude":-2.850899,"postcodeStart":"TA19 0","postcode":["TA19","0JZ"]}
{"price":71500,"dateOfTransfer":"1996-12-06T00:00:00","postcodeFull":"TA19 0QY","propertyType":"Detached","oldOrNew":"Established","duration":"Freehold","paon":"YEW TREE COTTAGE","saon":"","street":"DAVIDS LANE","locality":"SEAVINGTON","townOrCity":"ILMINSTER","district":"SOUTH SOMERSET","county":"SOMERSET","ppdCategoryType":"Standard","recordStatus":"Addition","latitude":50.933445,"longitude":-2.840318,"postcodeStart":"TA19 0","postcode":["TA19","0QY"]}
{"price":24000,"dateOfTransfer":"1996-12-31T00:00:00","postcodeFull":"TA19 0BQ","propertyType":"Terraced","oldOrNew":"Established","duration":"Freehold","paon":"20","saon":"","street":"DITTON STREET","locality":"ILMINSTER","townOrCity":"ILMINSTER","district":"SOUTH SOMERSET","county":"SOMERSET","ppdCategoryType":"Standard","recordStatus":"Addition","latitude":50.925826,"longitude":-2.910242,"postcodeStart":"TA19 0","postcode":["TA19","0BQ"]}
{"price":100000,"dateOfTransfer":"1996-03-29T00:00:00","postcodeFull":"TA19 0JW","propertyType":"Terraced","oldOrNew":"Established","duration":"Freehold","paon":"DENMANS","saon":"","street":"","locality":"BARRINGTON","townOrCity":"ILMINSTER","district":"SOUTH SOMERSET","county":"SOMERSET","ppdCategoryType":"Standard","recordStatus":"Addition","latitude":50.959089,"longitude":-2.865385,"postcodeStart":"TA19 0","postcode":["TA19","0JW"]}
{"price":42500,"dateOfTransfer":"1996-04-26T00:00:00","postcodeFull":"TA19 0BE","propertyType":"Terraced","oldOrNew":"Established","duration":"Freehold","paon":"111","saon":"","street":"BLACKDOWN VIEW","locality":"ILMINSTER","townOrCity":"ILMINSTER","district":"SOUTH SOMERSET","county":"SOMERSET","ppdCategoryType":"Standard","recordStatus":"Addition","latitude":50.927832,"longitude":-2.905471,"postcodeStart":"TA19 0","postcode":["TA19","0BE"]}
{"price":72950,"dateOfTransfer":"1996-09-20T00:00:00","postcodeFull":"TA19 0ET","propertyType":"Detached","oldOrNew":"Established","duration":"Freehold","paon":"15","saon":"","street":"SPRINGFIELD","locality":"ILMINSTER","townOrCity":"ILMINSTER","district":"SOUTH SOMERSET","county":"SOMERSET","ppdCategoryType":"Standard","recordStatus":"Addition","latitude":50.921089,"longitude":-2.912283,"postcodeStart":"TA19 0","postcode":["TA19","0ET"]}
{"price":47500,"dateOfTransfer":"1996-03-15T00:00:00","postcodeFull":"TA19 0DR","propertyType":"Terraced","oldOrNew":"Established","duration":"Freehold","paon":"44","saon":"","street":"SILVER STREET","locality":"ILMINSTER","townOrCity":"ILMINSTER","district":"SOUTH SOMERSET","county":"SOMERSET","ppdCategoryType":"Standard","recordStatus":"Addition","latitude":50.927318,"longitude":-2.91278,"postcodeStart":"TA19 0","postcode":["TA19","0DR"]}
{"price":52500,"dateOfTransfer":"1996-02-19T00:00:00","postcodeFull":"TA19 0LE","propertyType":"Terraced","oldOrNew":"Established","duration":"Freehold","paon":"THE OLD NURSES COTTAGE","saon":"","street":"MIDDLE STREET","locality":"SHEPTON BEAUCHAMP","townOrCity":"ILMINSTER","district":"SOUTH SOMERSET","county":"SOMERSET","ppdCategoryType":"Standard","recordStatus":"Addition","latitude":50.949184,"longitude":-2.851222,"postcodeStart":"TA19 0","postcode":["TA19","0LE"]}
{"price":18205,"dateOfTransfer":"1996-08-14T00:00:00","postcodeFull":"TA19 0EF","propertyType":"Terraced","oldOrNew":"New build","duration":"Freehold","paon":"14","saon":"","street":"ABBOTS CLOSE","locality":"ILMINSTER","townOrCity":"ILMINSTER","district":"SOUTH SOMERSET","county":"SOMERSET","ppdCategoryType":"Standard","recordStatus":"Addition","latitude":50.925485,"longitude":-2.913522,"postcodeStart":"TA19 0","postcode":["TA19","0EF"]}
{"price":195000,"dateOfTransfer":"1996-07-02T00:00:00","postcodeFull":"TA19 0PT","propertyType":"Detached","oldOrNew":"Established","duration":"Freehold","paon":"HIGH RIDGE HOUSE","saon":"","street":"","locality":"HIGHER CHILLINGTON","townOrCity":"ILMINSTER","district":"SOUTH SOMERSET","county":"SOMERSET","ppdCategoryType":"Standard","recordStatus":"Addition","latitude":50.888784,"longitude":-2.870266,"postcodeStart":"TA19 0","postcode":["TA19","0PT"]}
{"price":60000,"dateOfTransfer":"1996-06-10T00:00:00","postcodeFull":"TA19 0EB","propertyType":"Semi-detached","oldOrNew":"Established","duration":"Freehold","paon":"17","saon":"","street":"GREENDALE","locality":"ILMINSTER","townOrCity":"ILMINSTER","district":"SOUTH SOMERSET","county":"SOMERSET","ppdCategoryType":"Standard","recordStatus":"Addition","latitude":50.925758,"longitude":-2.917696,"postcodeStart":"TA19 0","postcode":["TA19","0EB"]}
{"price":155000,"dateOfTransfer":"1996-06-20T00:00:00","postcodeFull":"TA19 0SB","propertyType":"Detached","oldOrNew":"Established","duration":"Freehold","paon":"OAKLEA","saon":"","street":"","locality":"SEA","townOrCity":"ILMINSTER","district":"SOUTH SOMERSET","county":"SOMERSET","ppdCategoryType":"Standard","recordStatus":"Addition","latitude":50.912863,"longitude":-2.928017,"postcodeStart":"TA19 0","postcode":["TA19","0SB"]}
{"price":109500,"dateOfTransfer":"1996-02-29T00:00:00","postcodeFull":"TA19 0NZ","propertyType":"Detached","oldOrNew":"Established","duration":"Freehold","paon":"GLENLEE","saon":"","street":"","locality":"DOWLISH WAKE","townOrCity":"ILMINSTER","district":"SOUTH SOMERSET","county":"SOMERSET","ppdCategoryType":"Standard","recordStatus":"Addition","latitude":50.90773,"longitude":-2.890891,"postcodeStart":"TA19 0","postcode":["TA19","0NZ"]}
{"price":24000,"dateOfTransfer":"1996-04-04T00:00:00","postcodeFull":"TA19 0ND","propertyType":"Detached","oldOrNew":"Established","duration":"Freehold","paon":"17","saon":"","street":"PIECE LANE","locality":"SHEPTON BEAUCHAMP","townOrCity":"ILMINSTER","district":"SOUTH SOMERSET","county":"SOMERSET","ppdCategoryType":"Standard","recordStatus":"Addition","latitude":50.953227,"longitude":-2.84674,"postcodeStart":"TA19 0","postcode":["TA19","0ND"]}
{"price":215000,"dateOfTransfer":"1996-11-21T00:00:00","postcodeFull":"TA19 0PD","propertyType":"Detached","oldOrNew":"Established","duration":"Freehold","paon":"MILL HOUSE","saon":"","street":"MOOLHAM LANE","locality":"MOOLHAM","townOrCity":"ILMINSTER","district":"SOUTH SOMERSET","county":"SOMERSET","ppdCategoryType":"Standard","recordStatus":"Addition","latitude":50.916369,"longitude":-2.907511,"postcodeStart":"TA19 0","postcode":["TA19","0PD"]}
{"price":68000,"dateOfTransfer":"1996-09-30T00:00:00","postcodeFull":"TA19 0LQ","propertyType":"Detached","oldOrNew":"Established","duration":"Freehold","paon":"TOURAINE","saon":"","street":"CHURCH STREET","locality":"SHEPTON BEAUCHAMP","townOrCity":"ILMINSTER","district":"SOUTH SOMERSET","county":"SOMERSET","ppdCategoryType":"Standard","recordStatus":"Addition","latitude":50.950217,"longitude":-2.851558,"postcodeStart":"TA19 0","postcode":["TA19","0LQ"]}
{"price":21675,"dateOfTransfer":"1996-11-08T00:00:00","postcodeFull":"TA19 0ER","propertyType":"Semi-detached","oldOrNew":"Established","duration":"Freehold","paon":"12","saon":"","street":"THE CRESCENT","locality":"ILMINSTER","townOrCity":"ILMINSTER","district":"SOUTH SOMERSET","county":"SOMERSET","ppdCategoryType":"Standard","recordStatus":"Addition","latitude":50.919757,"longitude":-2.912519,"postcodeStart":"TA19 0","postcode":["TA19","0ER"]}
{"price":67950,"dateOfTransfer":"1996-12-16T00:00:00","postcodeFull":"TA19 0BY","propertyType":"Terraced","oldOrNew":"New build","duration":"Freehold","paon":"3","saon":"","street":"LITTLE LESTER","locality":"ILMINSTER","townOrCity":"ILMINSTER","district":"SOUTH SOMERSET","county":"SOMERSET","ppdCategoryType":"Standard","recordStatus":"Addition","latitude":50.920833,"longitude":-2.910486,"postcodeStart":"TA19 0","postcode":["TA19","0BY"]}
{"price":133000,"dateOfTransfer":"1996-06-20T00:00:00","postcodeFull":"TA19 0EE","propertyType":"Detached","oldOrNew":"Established","duration":"Freehold","paon":"2","saon":"","street":"BREOWAN CLOSE","locality":"ILMINSTER","townOrCity":"ILMINSTER","district":"SOUTH SOMERSET","county":"SOMERSET","ppdCategoryType":"Standard","recordStatus":"Addition","latitude":50.926545,"longitude":-2.913713,"postcodeStart":"TA19 0","postcode":["TA19","0EE"]}
{"price":18205,"dateOfTransfer":"1996-05-17T00:00:00","postcodeFull":"TA19 0EF","propertyType":"Semi-detached","oldOrNew":"Established","duration":"Freehold","paon":"20","saon":"","street":"ABBOTS CLOSE","locality":"ILMINSTER","townOrCity":"ILMINSTER","district":"SOUTH SOMERSET","county":"SOMERSET","ppdCategoryType":"Standard","recordStatus":"Addition","latitude":50.925485,"longitude":-2.913522,"postcodeStart":"TA19 0","postcode":["TA19","0EF"]}
{"price":54950,"dateOfTransfer":"1996-05-23T00:00:00","postcodeFull":"TA19 0NT","propertyType":"Semi-detached","oldOrNew":"Established","duration":"Freehold","paon":"LOWER WAKE COTTAGE","saon":"","street":"","locality":"KINGSTONE","townOrCity":"ILMINSTER","district":"SOUTH SOMERSET","county":"SOMERSET","ppdCategoryType":"Standard","recordStatus":"Addition","latitude":50.917189,"longitude":-2.888578,"postcodeStart":"TA19 0","postcode":["TA19","0NT"]}
{"price":13000,"dateOfTransfer":"1996-01-12T00:00:00","postcodeFull":"TA19 0EF","propertyType":"Terraced","oldOrNew":"Established","duration":"Leasehold","paon":"12","saon":"","street":"ABBOTS CLOSE","locality":"ILMINSTER","townOrCity":"ILMINSTER","district":"SOUTH SOMERSET","county":"SOMERSET","ppdCategoryType":"Standard","recordStatus":"Addition","latitude":50.925485,"longitude":-2.913522,"postcodeStart":"TA19 0","postcode":["TA19","0EF"]}
{"price":36500,"dateOfTransfer":"1996-11-05T00:00:00","postcodeFull":"TA19 0AY","propertyType":"Terraced","oldOrNew":"Established","duration":"Freehold","paon":"BUTTS CASTLE","saon":"16","street":"BUTTS","locality":"ILMINSTER","townOrCity":"ILMINSTER","district":"SOUTH SOMERSET","county":"SOMERSET","ppdCategoryType":"Standard","recordStatus":"Addition","latitude":50.927404,"longitude":-2.907412,"postcodeStart":"TA19 0","postcode":["TA19","0AY"]}
{"price":71000,"dateOfTransfer":"1996-07-09T00:00:00","postcodeFull":"TA19 0PU","propertyType":"Detached","oldOrNew":"Established","duration":"Freehold","paon":"THE OLD STABLE","saon":"","street":"","locality":"LOWER CHILLINGTON","townOrCity":"ILMINSTER","district":"SOUTH SOMERSET","county":"SOMERSET","ppdCategoryType":"Standard","recordStatus":"Addition","latitude":50.896412,"longitude":-2.869967,"postcodeStart":"TA19 0","postcode":["TA19","0PU"]}
{"price":53500,"dateOfTransfer":"1996-04-29T00:00:00","postcodeFull":"TA19 0EN","propertyType":"Terraced","oldOrNew":"Established","duration":"Freehold","paon":"25","saon":"","street":"LISTERS HILL","locality":"ILMINSTER","townOrCity":"ILMINSTER","district":"SOUTH SOMERSET","county":"SOMERSET","ppdCategoryType":"Standard","recordStatus":"Addition","latitude":50.921143,"longitude":-2.911047,"postcodeStart":"TA19 0","postcode":["TA19","0EN"]}
{"price":30000,"dateOfTransfer":"1996-06-28T00:00:00","postcodeFull":"TA19 0AW","propertyType":"Semi-detached","oldOrNew":"Established","duration":"Freehold","paon":"60","saon":"","street":"EAST STREET","locality":"ILMINSTER","townOrCity":"ILMINSTER","district":"SOUTH SOMERSET","county":"SOMERSET","ppdCategoryType":"Standard","recordStatus":"Addition","latitude":50.927037,"longitude":-2.905997,"postcodeStart":"TA19 0","postcode":["TA19","0AW"]}
{"price":67000,"dateOfTransfer":"1996-11-01T00:00:00","postcodeFull":"TA19 0LY","propertyType":"Semi-detached","oldOrNew":"Established","duration":"Freehold","paon":"WESTWOOD","saon":"","street":"LAMBROOK ROAD","locality":"SHEPTON BEAUCHAMP","townOrCity":"ILMINSTER","district":"SOUTH SOMERSET","county":"SOMERSET","ppdCategoryType":"Standard","recordStatus":"Addition","latitude":50.952208,"longitude":-2.848444,"postcodeStart":"TA19 0","postcode":["TA19","0LY"]}
{"price":12750,"dateOfTransfer":"1996-04-18T00:00:00","postcodeFull":"TA19 0EF","propertyType":"Semi-detached","oldOrNew":"Established","duration":"Leasehold","paon":"19","saon":"","street":"ABBOTS CLOSE","locality":"ILMINSTER","townOrCity":"ILMINSTER","district":"SOUTH SOMERSET","county":"SOMERSET","ppdCategoryType":"Standard","recordStatus":"Addition","latitude":50.925485,"longitude":-2.913522,"postcodeStart":"TA19 0","postcode":["TA19","0EF"]}
{"price":24180,"dateOfTransfer":"1996-08-16T00:00:00","postcodeFull":"TA19 0BD","propertyType":"Semi-detached","oldOrNew":"Established","duration":"Freehold","paon":"72","saon":"","street":"BLACKDOWN VIEW","locality":"ILMINSTER","townOrCity":"ILMINSTER","district":"SOUTH SOMERSET","county":"SOMERSET","ppdCategoryType":"Standard","recordStatus":"Addition","latitude":50.928604,"longitude":-2.905643,"postcodeStart":"TA19 0","postcode":["TA19","0BD"]}
{"price":47000,"dateOfTransfer":"1996-07-12T00:00:00","postcodeFull":"TA19 0PE","propertyType":"Terraced","oldOrNew":"Established","duration":"Freehold","paon":"6","saon":"","street":"NEW BUILDINGS","locality":"DOWLISH FORD","townOrCity":"ILMINSTER","district":"SOUTH SOMERSET","county":"SOMERSET","ppdCategoryType":"Standard","recordStatus":"Addition","latitude":50.917039,"longitude":-2.912688,"postcodeStart":"TA19 0","postcode":["TA19","0PE"]}
{"price":85000,"dateOfTransfer":"1996-08-16T00:00:00","postcodeFull":"TA19 0QP","propertyType":"Detached","oldOrNew":"Established","duration":"Freehold","paon":"CHURCH LANE COTTAGE","saon":"","street":"CHURCH LANE","locality":"SEAVINGTON","townOrCity":"ILMINSTER","district":"SOUTH SOMERSET","county":"SOMERSET","ppdCategoryType":"Standard","recordStatus":"Addition","latitude":50.929036,"longitude":-2.851864,"postcodeStart":"TA19 0","postcode":["TA19","0QP"]}
{"price":12000,"dateOfTransfer":"1996-09-30T00:00:00","postcodeFull":"TA19 0DE","propertyType":"Terraced","oldOrNew":"Established","duration":"Freehold","paon":"55","saon":"","street":"ILE COURT","locality":"ILMINSTER","townOrCity":"ILMINSTER","district":"SOUTH SOMERSET","county":"SOMERSET","ppdCategoryType":"Standard","recordStatus":"Addition","latitude":50.927425,"longitude":-2.90941,"postcodeStart":"TA19 0","postcode":["TA19","0DE"]}
{"price":70000,"dateOfTransfer":"1996-09-27T00:00:00","postcodeFull":"TA19 0BY","propertyType":"Terraced","oldOrNew":"New build","duration":"Freehold","paon":"4","saon":"","street":"LITTLE LESTER","locality":"ILMINSTER","townOrCity":"ILMINSTER","district":"SOUTH SOMERSET","county":"SOMERSET","ppdCategoryType":"Standard","recordStatus":"Addition","latitude":50.920833,"longitude":-2.910486,"postcodeStart":"TA19 0","postcode":["TA19","0BY"]}
{"price":130000,"dateOfTransfer":"1996-08-01T00:00:00","postcodeFull":"TA19 0SB","propertyType":"Detached","oldOrNew":"Established","duration":"Freehold","paon":"GREEN MEADOWS","saon":"","street":"","locality":"SEA","townOrCity":"ILMINSTER","district":"SOUTH SOMERSET","county":"SOMERSET","ppdCategoryType":"Standard","recordStatus":"Addition","latitude":50.912863,"longitude":-2.928017,"postcodeStart":"TA19 0","postcode":["TA19","0SB"]}
{"price":84000,"dateOfTransfer":"1996-08-29T00:00:00","postcodeFull":"TA19 0LY","propertyType":"Detached","oldOrNew":"Established","duration":"Freehold","paon":"LITTLE PIPERS","saon":"","street":"LAMBROOK ROAD","locality":"SHEPTON BEAUCHAMP","townOrCity":"ILMINSTER","district":"SOUTH SOMERSET","county":"SOMERSET","ppdCategoryType":"Standard","recordStatus":"Addition","latitude":50.952208,"longitude":-2.848444,"postcodeStart":"TA19 0","postcode":["TA19","0LY"]}
{"price":65700,"dateOfTransfer":"1996-11-22T00:00:00","postcodeFull":"TA19 0LB","propertyType":"Semi-detached","oldOrNew":"Established","duration":"Freehold","paon":"COBBLERS","saon":"","street":"MIDDLE STREET","locality":"SHEPTON BEAUCHAMP","townOrCity":"ILMINSTER","district":"SOUTH SOMERSET","county":"SOMERSET","ppdCategoryType":"Standard","recordStatus":"Addition","latitude":50.948245,"longitude":-2.850536,"postcodeStart":"TA19 0","postcode":["TA19","0LB"]}
{"price":42000,"dateOfTransfer":"1996-11-01T00:00:00","postcodeFull":"TA19 0HH","propertyType":"Semi-detached","oldOrNew":"Established","duration":"Freehold","paon":"51","saon":"","street":"HERNE RISE","locality":"ILMINSTER","townOrCity":"ILMINSTER","district":"SOUTH SOMERSET","county":"SOMERSET","ppdCategoryType":"Standard","recordStatus":"Addition","latitude":50.921104,"longitude":-2.913806,"postcodeStart":"TA19 0","postcode":["TA19","0HH"]}
{"price":115000,"dateOfTransfer":"1997-03-21T00:00:00","postcodeFull":"TA19 0BX","propertyType":"Detached","oldOrNew":"New build","duration":"Freehold","paon":"22","saon":"","street":"HERON WAY","locality":"ILMINSTER","townOrCity":"ILMINSTER","district":"SOUTH SOMERSET","county":"SOMERSET","ppdCategoryType":"Standard","recordStatus":"Addition","latitude":50.920392,"longitude":-2.909353,"postcodeStart":"TA19 0","postcode":["TA19","0BX"]}
{"price":172000,"dateOfTransfer":"1997-11-14T00:00:00","postcodeFull":"TA19 0PB","propertyType":"Detached","oldOrNew":"Established","duration":"Freehold","paon":"LEYLANDS","saon":"","street":"MOOLHAM LANE","locality":"ILMINSTER","townOrCity":"ILMINSTER","district":"SOUTH SOMERSET","county":"SOMERSET","ppdCategoryType":"Standard","recordStatus":"Addition","latitude":50.917953,"longitude":-2.894567,"postcodeStart":"TA19 0","postcode":["TA19","0PB"]}
{"price":42500,"dateOfTransfer":"1997-03-19T00:00:00","postcodeFull":"TA19 0LE","propertyType":"Detached","oldOrNew":"Established","duration":"Freehold","paon":"HONEYMOUNT","saon":"","street":"MIDDLE STREET","locality":"SHEPTON BEAUCHAMP","townOrCity":"ILMINSTER","district":"SOUTH SOMERSET","county":"SOMERSET","ppdCategoryType":"Standard","recordStatus":"Addition","latitude":50.949184,"longitude":-2.851222,"postcodeStart":"TA19 0","postcode":["TA19","0LE"]}
{"price":74950,"dateOfTransfer":"1997-08-29T00:00:00","postcodeFull":"TA19 0BZ","propertyType":"Semi-detached","oldOrNew":"New build","duration":"Freehold","paon":"15","saon":"","street":"EAMES ORCHARD","locality":"ILMINSTER","townOrCity":"ILMINSTER","district":"SOUTH SOMERSET","county":"SOMERSET","ppdCategoryType":"Standard","recordStatus":"Addition","latitude":50.921226,"longitude":-2.90964,"postcodeStart":"TA19 0","postcode":["TA19","0BZ"]}
{"price":68950,"dateOfTransfer":"1997-05-28T00:00:00","postcodeFull":"TA19 0BY","propertyType":"Terraced","oldOrNew":"New build","duration":"Freehold","paon":"6","saon":"","street":"LITTLE LESTER","locality":"ILMINSTER","townOrCity":"ILMINSTER","district":"SOUTH SOMERSET","county":"SOMERSET","ppdCategoryType":"Standard","recordStatus":"Addition","latitude":50.920833,"longitude":-2.910486,"postcodeStart":"TA19 0","postcode":["TA19","0BY"]}
{"price":53000,"dateOfTransfer":"1997-10-30T00:00:00","postcodeFull":"TA19 0DY","propertyType":"Terraced","oldOrNew":"Established","duration":"Freehold","paon":"4","saon":"","street":"BERRYMANS LANE","locality":"ILMINSTER","townOrCity":"ILMINSTER","district":"SOUTH SOMERSET","county":"SOMERSET","ppdCategoryType":"Standard","recordStatus":"Addition","latitude":50.928142,"longitude":-2.911971,"postcodeStart":"TA19 0","postcode":["TA19","0DY"]}
{"price":80000,"dateOfTransfer":"1997-07-02T00:00:00","postcodeFull":"TA19 0AR","propertyType":"Detached","oldOrNew":"Established","duration":"Freehold","paon":"7","saon":"","street":"LOVE LANE","locality":"ILMINSTER","townOrCity":"ILMINSTER","district":"SOUTH SOMERSET","county":"SOMERSET","ppdCategoryType":"Standard","recordStatus":"Addition","latitude":50.92641,"longitude":-2.905657,"postcodeStart":"TA19 0","postcode":["TA19","0AR"]}
{"price":55000,"dateOfTransfer":"1997-06-26T00:00:00","postcodeFull":"TA19 0DD","propertyType":"Flat/Maisonette/Townhouse","oldOrNew":"New build","duration":"Leasehold","paon":"VICTORIA COURT","saon":"16","street":"SILVER STREET","locality":"ILMINSTER","townOrCity":"ILMINSTER","district":"SOUTH SOMERSET","county":"SOMERSET","ppdCategoryType":"Standard","recordStatus":"Addition","latitude":50.926866,"longitude":-2.910737,"postcodeStart":"TA19 0","postcode":["TA19","0DD"]}
