{"price":40000,"dateOfTransfer":"1995-05-25T00:00:00","postcodeFull":"TN17 3DR","propertyType":"Detached","oldOrNew":"Established","duration":"Freehold","paon":"LITTLE COTTAGE","saon":"","street":"HIGH STREET","locality":"CRANBROOK","townOrCity":"CRANBROOK","district":"TUNBRIDGE WELLS","county":"KENT","ppdCategoryType":"Standard","recordStatus":"Addition","latitude":51.095603,"longitude":0.532192,"postcodeStart":"TN17 3","postcode":["TN17","3DR"]}
{"price":67000,"dateOfTransfer":"1995-08-18T00:00:00","postcodeFull":"TN17 3NA","propertyType":"Semi-detached","oldOrNew":"Established","duration":"Freehold","paon":"10","saon":"","street":"WHEATFIELD CLOSE","locality":"CRANBROOK","townOrCity":"CRANBROOK","district":"TUNBRIDGE WELLS","county":"KENT","ppdCategoryType":"Standard","recordStatus":"Addition","latitude":51.097374,"longitude":0.529346,"postcodeStart":"TN17 3","postcode":["TN17","3NA"]}
{"price":55000,"dateOfTransfer":"1995-03-15T00:00:00","postcodeFull":"TN17 3HU","propertyType":"Semi-detached","oldOrNew":"New build","duration":"Freehold","paon":"BROOK HOUSE","saon":"","street":"THE TANYARD","locality":"CRANBROOK","townOrCity":"CRANBROOK","district":"TUNBRIDGE WELLS","county":"KENT","ppdCategoryType":"Standard","recordStatus":"Addition","latitude":51.095238,"longitude":0.536544,"postcodeStart":"TN17 3","postcode":["TN17","3HU"]}
{"price":77500,"dateOfTransfer":"1995-02-17T00:00:00","postcodeFull":"TN17 3ND","propertyType":"Semi-detached","oldOrNew":"Established","duration":"Freehold","paon":"8","saon":"","street":"WHEATFIELD LEA","locality":"CRANBROOK","townOrCity":"CRANBROOK","district":"TUNBRIDGE WELLS","county":"KENT","ppdCategoryType":"Standard","recordStatus":"Addition","latitude":51.098151,"longitude":0.530388,"postcodeStart":"TN17 3","postcode":["TN17","3ND"]}
{"price":75000,"dateOfTransfer":"1995-06-02T00:00:00","postcodeFull":"TN17 3NG","propertyType":"Semi-detached","oldOrNew":"Established","duration":"Freehold","paon":"19","saon":"","street":"OATFIELD DRIVE","locality":"CRANBROOK","townOrCity":"CRANBROOK","district":"TUNBRIDGE WELLS","county":"KENT","ppdCategoryType":"Standard","recordStatus":"Addition","latitude":51.098904,"longitude":0.531758,"postcodeStart":"TN17 3","postcode":["TN17","3NG"]}
{"price":48500,"dateOfTransfer":"1995-12-01T00:00:00","postcodeFull":"TN17 3HU","propertyType":"Semi-detached","oldOrNew":"Established","duration":"Freehold","paon":"1","saon":"","street":"SPRING COTTAGES","locality":"CRANBROOK","townOrCity":"CRANBROOK","district":"TUNBRIDGE WELLS","county":"KENT","ppdCategoryType":"Standard","recordStatus":"Addition","latitude":51.095238,"longitude":0.536544,"postcodeStart":"TN17 3","postcode":["TN17","3HU"]}
{"price":62500,"dateOfTransfer":"1995-04-20T00:00:00","postcodeFull":"TN17 3JG","propertyType":"Semi-detached","oldOrNew":"Established","duration":"Freehold","paon":"WELLINGTON COTTAGE","saon":"","street":"WATERLOO ROAD","locality":"CRANBROOK","townOrCity":"CRANBROOK","district":"TUNBRIDGE WELLS","county":"KENT","ppdCategoryType":"Standard","recordStatus":"Addition","latitude":51.095928,"longitude":0.537937,"postcodeStart":"TN17 3","postcode":["TN17","3JG"]}
{"price":63000,"dateOfTransfer":"1995-06-30T00:00:00","postcodeFull":"TN17 3PX","propertyType":"Semi-detached","oldOrNew":"Established","duration":"Freehold","paon":"6","saon":"","street":"WESTFIELD TERRACE","locality":"CRANBROOK","townOrCity":"CRANBROOK","district":"TUNBRIDGE WELLS","county":"KENT","ppdCategoryType":"Standard","recordStatus":"Addition","latitude":51.082309,"longitude":0.510091,"postcodeStart":"TN17 3","postcode":["TN17","3PX"]}
{"price":52000,"dateOfTransfer":"1995-03-17T00:00:00","postcodeFull":"TN17 3HT","propertyType":"Terraced","oldOrNew":"Established","duration":"Freehold","paon":"SPRING BANK","saon":"3","street":"THE TANYARD","locality":"CRANBROOK","townOrCity":"CRANBROOK","district":"TUNBRIDGE WELLS","county":"KENT","ppdCategoryType":"Standard","recordStatus":"Addition","latitude":51.095078,"longitude":0.536891,"postcodeStart":"TN17 3","postcode":["TN17","3HT"]}
{"price":64000,"dateOfTransfer":"1995-07-28T00:00:00","postcodeFull":"TN17 3DW","propertyType":"Terraced","oldOrNew":"Established","duration":"Freehold","paon":"GURRS COTTAGES","saon":"3","street":"HIGH STREET","locality":"CRANBROOK","townOrCity":"CRANBROOK","district":"TUNBRIDGE WELLS","county":"KENT","ppdCategoryType":"Standard","recordStatus":"Addition","latitude":51.095859,"longitude":0.533193,"postcodeStart":"TN17 3","postcode":["TN17","3DW"]}
{"price":38000,"dateOfTransfer":"1995-08-04T00:00:00","postcodeFull":"TN17 3QY","propertyType":"Flat/Maisonette/Townhouse","oldOrNew":"Established","duration":"Leasehold","paon":"26","saon":"","street":"HARTLEY COURT GARDENS","locality":"CRANBROOK","townOrCity":"CRANBROOK","district":"TUNBRIDGE WELLS","county":"KENT","ppdCategoryType":"Standard","recordStatus":"Addition","latitude":51.087537,"longitude":0.51263,"postcodeStart":"TN17 3","postcode":["TN17","3QY"]}
{"price":46500,"dateOfTransfer":"1995-09-25T00:00:00","postcodeFull":"TN17 3DF","propertyType":"Flat/Maisonette/Townhouse","oldOrNew":"Established","duration":"Leasehold","paon":"WHITE LION HOUSE","saon":"FLAT 4","street":"HIGH STREET","locality":"CRANBROOK","townOrCity":"CRANBROOK","district":"TUNBRIDGE WELLS","county":"KENT","ppdCategoryType":"Standard","recordStatus":"Addition","latitude":51.09632,"longitude":0.535216,"postcodeStart":"TN17 3","postcode":["TN17","3DF"]}
{"price":95000,"dateOfTransfer":"1995-08-10T00:00:00","postcodeFull":"TN17 3JQ","propertyType":"Semi-detached","oldOrNew":"Established","duration":"Freehold","paon":"BLACKBIRDS","saon":"","street":"WATERLOO ROAD","locality":"CRANBROOK","townOrCity":"CRANBROOK","district":"TUNBRIDGE WELLS","county":"KENT","ppdCategoryType":"Standard","recordStatus":"Addition","latitude":51.096759,"longitude":0.538841,"postcodeStart":"TN17 3","postcode":["TN17","3JQ"]}
{"price":56500,"dateOfTransfer":"1995-10-13T00:00:00","postcodeFull":"TN17 3QY","propertyType":"Semi-detached","oldOrNew":"Established","duration":"Freehold","paon":"17","saon":"","street":"HARTLEY COURT GARDENS","locality":"CRANBROOK","townOrCity":"CRANBROOK","district":"TUNBRIDGE WELLS","county":"KENT","ppdCategoryType":"Standard","recordStatus":"Addition","latitude":51.087537,"longitude":0.51263,"postcodeStart":"TN17 3","postcode":["TN17","3QY"]}
{"price":42000,"dateOfTransfer":"1995-05-04T00:00:00","postcodeFull":"TN17 3HF","propertyType":"Flat/Maisonette/Townhouse","oldOrNew":"Established","duration":"Leasehold","paon":"31","saon":"FLAT 1","street":"STONE STREET","locality":"CRANBROOK","townOrCity":"CRANBROOK","district":"TUNBRIDGE WELLS","county":"KENT","ppdCategoryType":"Standard","recordStatus":"Addition","latitude":51.096317,"longitude":0.536616,"postcodeStart":"TN17 3","postcode":["TN17","3HF"]}
{"price":46000,"dateOfTransfer":"1995-02-22T00:00:00","postcodeFull":"TN17 3QJ","propertyType":"Terraced","oldOrNew":"Established","duration":"Freehold","paon":"19","saon":"","street":"CAMPION CRESCENT","locality":"CRANBROOK","townOrCity":"CRANBROOK","district":"TUNBRIDGE WELLS","county":"KENT","ppdCategoryType":"Standard","recordStatus":"Addition","latitude":51.086778,"longitude":0.512303,"postcodeStart":"TN17 3","postcode":["TN17","3QJ"]}
{"price":215000,"dateOfTransfer":"1995-09-29T00:00:00","postcodeFull":"TN17 3PS","propertyType":"Detached","oldOrNew":"Established","duration":"Freehold","paon":"CHARITY FARM HOUSE","saon":"","street":"SWATTENDEN LANE","locality":"CRANBROOK","townOrCity":"CRANBROOK","district":"TUNBRIDGE WELLS","county":"KENT","ppdCategoryType":"Standard","recordStatus":"Addition","latitude":51.083202,"longitude":0.522077,"postcodeStart":"TN17 3","postcode":["TN17","3PS"]}
{"price":87500,"dateOfTransfer":"1995-06-02T00:00:00","postcodeFull":"TN17 3LS","propertyType":"Detached","oldOrNew":"Established","duration":"Freehold","paon":"8","saon":"","street":"WHEATFIELD WAY","locality":"CRANBROOK","townOrCity":"CRANBROOK","district":"TUNBRIDGE WELLS","county":"KENT","ppdCategoryType":"Standard","recordStatus":"Addition","latitude":51.097143,"longitude":0.526762,"postcodeStart":"TN17 3","postcode":["TN17","3LS"]}
{"price":118000,"dateOfTransfer":"1995-12-11T00:00:00","postcodeFull":"TN17 3AY","propertyType":"Detached","oldOrNew":"Established","duration":"Freehold","paon":"BRAMLEYS","saon":"","street":"DOROTHY AVENUE","locality":"CRANBROOK","townOrCity":"CRANBROOK","district":"TUNBRIDGE WELLS","county":"KENT","ppdCategoryType":"Standard","recordStatus":"Addition","latitude":51.091415,"longitude":0.539532,"postcodeStart":"TN17 3","postcode":["TN17","3AY"]}
{"price":83000,"dateOfTransfer":"1995-09-25T00:00:00","postcodeFull":"TN17 3ED","propertyType":"Semi-detached","oldOrNew":"Established","duration":"Freehold","paon":"ANGELA COTTAGES","saon":"2","street":"HIGH STREET","locality":"CRANBROOK","townOrCity":"CRANBROOK","district":"TUNBRIDGE WELLS","county":"KENT","ppdCategoryType":"Standard","recordStatus":"Addition","latitude":51.096729,"longitude":0.534624,"postcodeStart":"TN17 3","postcode":["TN17","3ED"]}
{"price":60000,"dateOfTransfer":"1995-10-12T00:00:00","postcodeFull":"TN17 3DW","propertyType":"Semi-detached","oldOrNew":"Established","duration":"Freehold","paon":"GURRS COTTAGES","saon":"2","street":"HIGH STREET","locality":"CRANBROOK","townOrCity":"CRANBROOK","district":"TUNBRIDGE WELLS","county":"KENT","ppdCategoryType":"Standard","recordStatus":"Addition","latitude":51.095859,"longitude":0.533193,"postcodeStart":"TN17 3","postcode":["TN17","3DW"]}
{"price":64000,"dateOfTransfer":"1995-02-17T00:00:00","postcodeFull":"TN17 3PX","propertyType":"Semi-detached","oldOrNew":"Established","duration":"Freehold","paon":"5","saon":"","street":"WESTFIELD TERRACE","locality":"CRANBROOK","townOrCity":"CRANBROOK","district":"TUNBRIDGE WELLS","county":"KENT","ppdCategoryType":"Standard","recordStatus":"Addition","latitude":51.082309,"longitude":0.510091,"postcodeStart":"TN17 3","postcode":["TN17","3PX"]}
{"price":24300,"dateOfTransfer":"1995-11-30T00:00:00","postcodeFull":"TN17 3BX","propertyType":"Flat/Maisonette/Townhouse","oldOrNew":"Established","duration":"Leasehold","paon":"58","saon":"","street":"TURNER AVENUE","locality":"CRANBROOK","townOrCity":"CRANBROOK","district":"TUNBRIDGE WELLS","county":"KENT","ppdCategoryType":"Standard","recordStatus":"Addition","latitude":51.090919,"longitude":0.536692,"postcodeStart":"TN17 3","postcode":["TN17","3BX"]}
{"price":52750,"dateOfTransfer":"1995-06-02T00:00:00","postcodeFull":"TN17 3DD","propertyType":"Terraced","oldOrNew":"Established","duration":"Freehold","paon":"16","saon":"","street":"TURNER AVENUE","locality":"CRANBROOK","townOrCity":"CRANBROOK","district":"TUNBRIDGE WELLS","county":"KENT","ppdCategoryType":"Standard","recordStatus":"Addition","latitude":51.09216,"longitude":0.537516,"postcodeStart":"TN17 3","postcode":["TN17","3DD"]}
{"price":72000,"dateOfTransfer":"1995-05-05T00:00:00","postcodeFull":"TN17 3NE","propertyType":"Semi-detached","oldOrNew":"Established","duration":"Freehold","paon":"85","saon":"","street":"WHEATFIELD WAY","locality":"CRANBROOK","townOrCity":"CRANBROOK","district":"TUNBRIDGE WELLS","county":"KENT","ppdCategoryType":"Standard","recordStatus":"Addition","latitude":51.099017,"longitude":0.531121,"postcodeStart":"TN17 3","postcode":["TN17","3NE"]}
{"price":310000,"dateOfTransfer":"1995-01-16T00:00:00","postcodeFull":"TN17 3PA","propertyType":"Detached","oldOrNew":"Established","duration":"Freehold","paon":"THE OLD OAST HOUSE","saon":"","street":"TENTERDEN ROAD","locality":"GOLFORD","townOrCity":"CRANBROOK","district":"TUNBRIDGE WELLS","county":"KENT","ppdCategoryType":"Standard","recordStatus":"Addition","latitude":51.099977,"longitude":0.570676,"postcodeStart":"TN17 3","postcode":["TN17","3PA"]}
{"price":85000,"dateOfTransfer":"1995-03-23T00:00:00","postcodeFull":"TN17 3LX","propertyType":"Detached","oldOrNew":"Established","duration":"Freehold","paon":"12","saon":"","street":"WHEATFIELD WAY","locality":"CRANBROOK","townOrCity":"CRANBROOK","district":"TUNBRIDGE WELLS","county":"KENT","ppdCategoryType":"Standard","recordStatus":"Addition","latitude":51.097676,"longitude":0.52782,"postcodeStart":"TN17 3","postcode":["TN17","3LX"]}
{"price":58000,"dateOfTransfer":"1995-07-28T00:00:00","postcodeFull":"TN17 3QJ","propertyType":"Semi-detached","oldOrNew":"Established","duration":"Freehold","paon":"12","saon":"","street":"CAMPION CRESCENT","locality":"CRANBROOK","townOrCity":"CRANBROOK","district":"TUNBRIDGE WELLS","county":"KENT","ppdCategoryType":"Standard","recordStatus":"Addition","latitude":51.086778,"longitude":0.512303,"postcodeStart":"TN17 3","postcode":["TN17","3QJ"]}
{"price":80000,"dateOfTransfer":"1995-06-02T00:00:00","postcodeFull":"TN17 3NB","propertyType":"Semi-detached","oldOrNew":"Established","duration":"Freehold","paon":"63","saon":"","street":"WHEATFIELD WAY","locality":"CRANBROOK","townOrCity":"CRANBROOK","district":"TUNBRIDGE WELLS","county":"KENT","ppdCategoryType":"Standard","recordStatus":"Addition","latitude":51.098468,"longitude":0.529477,"postcodeStart":"TN17 3","postcode":["TN17","3NB"]}
{"price":137000,"dateOfTransfer":"1995-09-11T00:00:00","postcodeFull":"TN17 3QS","propertyType":"Detached","oldOrNew":"Established","duration":"Freehold","paon":"GREENWOOD","saon":"","street":"HARTLEY ROAD","locality":"CRANBROOK","townOrCity":"CRANBROOK","district":"TUNBRIDGE WELLS","county":"KENT","ppdCategoryType":"Standard","recordStatus":"Addition","latitude":51.087399,"longitude":0.514364,"postcodeStart":"TN17 3","postcode":["TN17","3QS"]}
{"price":75000,"dateOfTransfer":"1995-09-29T00:00:00","postcodeFull":"TN17 3NJ","propertyType":"Detached","oldOrNew":"Established","duration":"Freehold","paon":"10","saon":"","street":"OATFIELD DRIVE","locality":"CRANBROOK","townOrCity":"CRANBROOK","district":"TUNBRIDGE WELLS","county":"KENT","ppdCategoryType":"Standard","recordStatus":"Addition","latitude":51.099777,"longitude":0.532163,"postcodeStart":"TN17 3","postcode":["TN17","3NJ"]}
{"price":48000,"dateOfTransfer":"1995-12-15T00:00:00","postcodeFull":"TN17 3LE","propertyType":"Detached","oldOrNew":"Established","duration":"Freehold","paon":"STAR CROSS","saon":"","street":"NEW ROAD","locality":"CRANBROOK","townOrCity":"CRANBROOK","district":"TUNBRIDGE WELLS","county":"KENT","ppdCategoryType":"Standard","recordStatus":"Addition","latitude":51.095085,"longitude":0.525461,"postcodeStart":"TN17 3","postcode":["TN17","3LE"]}
{"price":157000,"dateOfTransfer":"1995-01-05T00:00:00","postcodeFull":"TN17 3AY","propertyType":"Detached","oldOrNew":"Established","duration":"Freehold","paon":"OAK APPLES","saon":"","street":"DOROTHY AVENUE","locality":"CRANBROOK","townOrCity":"CRANBROOK","district":"TUNBRIDGE WELLS","county":"KENT","ppdCategoryType":"Standard","recordStatus":"Addition","latitude":51.091415,"longitude":0.539532,"postcodeStart":"TN17 3","postcode":["TN17","3AY"]}
{"price":103000,"dateOfTransfer":"1995-07-24T00:00:00","postcodeFull":"TN17 3PN","propertyType":"Detached","oldOrNew":"Established","duration":"Freehold","paon":"DOVES OAST","saon":"","street":"SWATTENDEN LANE","locality":"","townOrCity":"CRANBROOK","district":"TUNBRIDGE WELLS","county":"KENT","ppdCategoryType":"Standard","recordStatus":"Addition","latitude":51.079642,"longitude":0.545642,"postcodeStart":"TN17 3","postcode":["TN17","3PN"]}
{"price":55000,"dateOfTransfer":"1995-07-21T00:00:00","postcodeFull":"TN17 3DA","propertyType":"Semi-detached","oldOrNew":"Established","duration":"Freehold","paon":"11","saon":"","street":"ST DUNSTANS WALK","locality":"CRANBROOK","townOrCity":"CRANBROOK","district":"TUNBRIDGE WELLS","county":"KENT","ppdCategoryType":"Standard","recordStatus":"Addition","latitude":51.093406,"longitude":0.535214,"postcodeStart":"TN17 3","postcode":["TN17","3DA"]}
{"price":60000,"dateOfTransfer":"1995-11-17T00:00:00","postcodeFull":"TN17 3AH","propertyType":"Terraced","oldOrNew":"Established","duration":"Freehold","paon":"MILL COTTAGE","saon":"","street":"THE HILL","locality":"CRANBROOK","townOrCity":"CRANBROOK","district":"TUNBRIDGE WELLS","county":"KENT","ppdCategoryType":"Standard","recordStatus":"Addition","latitude":51.095031,"longitude":0.539088,"postcodeStart":"TN17 3","postcode":["TN17","3AH"]}
{"price":110000,"dateOfTransfer":"1995-04-28T00:00:00","postcodeFull":"TN17 3LN","propertyType":"Detached","oldOrNew":"Established","duration":"Freehold","paon":"WOODBURY","saon":"","street":"ORCHARD WAY","locality":"CRANBROOK","townOrCity":"CRANBROOK","district":"TUNBRIDGE WELLS","county":"KENT","ppdCategoryType":"Standard","recordStatus":"Addition","latitude":51.092089,"longitude":0.52126,"postcodeStart":"TN17 3","postcode":["TN17","3LN"]}
{"price":49000,"dateOfTransfer":"1995-06-02T00:00:00","postcodeFull":"TN17 3BY","propertyType":"Terraced","oldOrNew":"Established","duration":"Freehold","paon":"12","saon":"","street":"NORMAN RISE","locality":"CRANBROOK","townOrCity":"CRANBROOK","district":"TUNBRIDGE WELLS","county":"KENT","ppdCategoryType":"Standard","recordStatus":"Addition","latitude":51.091718,"longitude":0.536721,"postcodeStart":"TN17 3","postcode":["TN17","3BY"]}
{"price":86000,"dateOfTransfer":"1995-06-23T00:00:00","postcodeFull":"TN17 3BL","propertyType":"Semi-detached","oldOrNew":"Established","duration":"Freehold","paon":"DOBELLS","saon":"1","street":"BRICKENDEN ROAD","locality":"CRANBROOK","townOrCity":"CRANBROOK","district":"TUNBRIDGE WELLS","county":"KENT","ppdCategoryType":"Standard","recordStatus":"Addition","latitude":51.094633,"longitude":0.535867,"postcodeStart":"TN17 3","postcode":["TN17","3BL"]}
{"price":54500,"dateOfTransfer":"1995-01-11T00:00:00","postcodeFull":"TN17 3BZ","propertyType":"Terraced","oldOrNew":"Established","duration":"Freehold","paon":"4","saon":"","street":"PENNYFIELDS","locality":"CRANBROOK","townOrCity":"CRANBROOK","district":"TUNBRIDGE WELLS","county":"KENT","ppdCategoryType":"Standard","recordStatus":"Addition","latitude":51.091719,"longitude":0.538335,"postcodeStart":"TN17 3","postcode":["TN17","3BZ"]}
{"price":155000,"dateOfTransfer":"1995-02-06T00:00:00","postcodeFull":"TN17 3AY","propertyType":"Detached","oldOrNew":"Established","duration":"Freehold","paon":"BRAMLEY HOUSE","saon":"","street":"DOROTHY AVENUE","locality":"CRANBROOK","townOrCity":"CRANBROOK","district":"TUNBRIDGE WELLS","county":"KENT","ppdCategoryType":"Standard","recordStatus":"Addition","latitude":51.091415,"longitude":0.539532,"postcodeStart":"TN17 3","postcode":["TN17","3AY"]}
{"price":108000,"dateOfTransfer":"1995-07-14T00:00:00","postcodeFull":"TN17 3QX","propertyType":"Semi-detached","oldOrNew":"Established","duration":"Freehold","paon":"VECTIS","saon":"","street":"HARTLEY ROAD","locality":"CRANBROOK","townOrCity":"CRANBROOK","district":"TUNBRIDGE WELLS","county":"KENT","ppdCategoryType":"Standard","recordStatus":"Addition","latitude":51.089586,"longitude":0.517154,"postcodeStart":"TN17 3","postcode":["TN17","3QX"]}
{"price":42500,"dateOfTransfer":"1995-09-07T00:00:00","postcodeFull":"TN17 3DG","propertyType":"Terraced","oldOrNew":"Established","duration":"Freehold","paon":"2","saon":"","street":"CRANE LANE","locality":"CRANBROOK","townOrCity":"CRANBROOK","district":"TUNBRIDGE WELLS","county":"KENT","ppdCategoryType":"Standard","recordStatus":"Addition","latitude":51.095858,"longitude":0.534962,"postcodeStart":"TN17 3","postcode":["TN17","3DG"]}
{"price":44000,"dateOfTransfer":"1995-12-07T00:00:00","postcodeFull":"TN17 3BE","propertyType":"Flat/Maisonette/Townhouse","oldOrNew":"Established","duration":"Leasehold","paon":"6","saon":"","street":"BRAMLEY DRIVE","locality":"CRANBROOK","townOrCity":"CRANBROOK","district":"TUNBRIDGE WELLS","county":"KENT","ppdCategoryType":"Standard","recordStatus":"Addition","latitude":51.093315,"longitude":0.535666,"postcodeStart":"TN17 3","postcode":["TN17","3BE"]}
{"price":310000,"dateOfTransfer":"1995-09-01T00:00:00","postcodeFull":"TN17 3DT","propertyType":"Detached","oldOrNew":"Established","duration":"Freehold","paon":"CRANEHURST","saon":"","street":"HIGH STREET","locality":"CRANBROOK","townOrCity":"CRANBROOK","district":"TUNBRIDGE WELLS","county":"KENT","ppdCategoryType":"Standard","recordStatus":"Addition","latitude":51.095104,"longitude":0.530013,"postcodeStart":"TN17 3","postcode":["TN17","3DT"]}
{"price":52500,"dateOfTransfer":"1995-11-17T00:00:00","postcodeFull":"TN17 3AH","propertyType":"Terraced","oldOrNew":"Established","duration":"Freehold","paon":"MILESTONE COTTAGES","saon":"1","street":"THE HILL","locality":"CRANBROOK","townOrCity":"CRANBROOK","district":"TUNBRIDGE WELLS","county":"KENT","ppdCategoryType":"Standard","recordStatus":"Addition","latitude":51.095031,"longitude":0.539088,"postcodeStart":"TN17 3","postcode":["TN17","3AH"]}
{"price":47500,"dateOfTransfer":"1995-07-06T00:00:00","postcodeFull":"TN17 3QJ","propertyType":"Semi-detached","oldOrNew":"Established","duration":"Freehold","paon":"2","saon":"","street":"CAMPION CRESCENT","locality":"CRANBROOK","townOrCity":"CRANBROOK","district":"TUNBRIDGE WELLS","county":"KENT","ppdCategoryType":"Standard","recordStatus":"Addition","latitude":51.086778,"longitude":0.512303,"postcodeStart":"TN17 3","postcode":["TN17","3QJ"]}
{"price":72000,"dateOfTransfer":"1995-07-04T00:00:00","postcodeFull":"TN17 3NB","propertyType":"Semi-detached","oldOrNew":"Established","duration":"Freehold","paon":"42","saon":"","street":"WHEATFIELD WAY","locality":"CRANBROOK","townOrCity":"CRANBROOK","district":"TUNBRIDGE WELLS","county":"KENT","ppdCategoryType":"Standard","recordStatus":"Addition","latitude":51.098468,"longitude":0.529477,"postcodeStart":"TN17 3","postcode":["TN17","3NB"]}
{"price":54000,"dateOfTransfer":"1995-02-17T00:00:00","postcodeFull":"TN17 3BZ","propertyType":"Terraced","oldOrNew":"Established","duration":"Freehold","paon":"19","saon":"","street":"PENNYFIELDS","locality":"CRANBROOK","townOrCity":"CRANBROOK","district":"TUNBRIDGE WELLS","county":"KENT","ppdCategoryType":"Standard","recordStatus":"Addition","latitude":51.091719,"longitude":0.538335,"postcodeStart":"TN17 3","postcode":["TN17","3BZ"]}
{"price":86500,"dateOfTransfer":"1995-09-29T00:00:00","postcodeFull":"TN17 3HS","propertyType":"Detached","oldOrNew":"Established","duration":"Freehold","paon":"SPRING COTTAGE","saon":"","street":"THE HILL","locality":"CRANBROOK","townOrCity":"CRANBROOK","district":"TUNBRIDGE WELLS","county":"KENT","ppdCategoryType":"Standard","recordStatus":"Addition","latitude":51.095306,"longitude":0.538446,"postcodeStart":"TN17 3","postcode":["TN17","3HS"]}
{"price":75500,"dateOfTransfer":"1995-04-07T00:00:00","postcodeFull":"TN17 3QX","propertyType":"Semi-detached","oldOrNew":"Established","duration":"Freehold","paon":"HARTLEY VILLA","saon":"","street":"HARTLEY ROAD","locality":"CRANBROOK","townOrCity":"CRANBROOK","district":"TUNBRIDGE WELLS","county":"KENT","ppdCategoryType":"Standard","recordStatus":"Addition","latitude":51.089586,"longitude":0.517154,"postcodeStart":"TN17 3","postcode":["TN17","3QX"]}
{"price":80000,"dateOfTransfer":"1995-11-30T00:00:00","postcodeFull":"TN17 3NB","propertyType":"Detached","oldOrNew":"Established","duration":"Freehold","paon":"48","saon":"","street":"WHEATFIELD WAY","locality":"CRANBROOK","townOrCity":"CRANBROOK","district":"TUNBRIDGE WELLS","county":"KENT","ppdCategoryType":"Standard","recordStatus":"Addition","latitude":51.098468,"longitude":0.529477,"postcodeStart":"TN17 3","postcode":["TN17","3NB"]}
{"price":88000,"dateOfTransfer":"1995-01-31T00:00:00","postcodeFull":"TN17 3DT","propertyType":"Semi-detached","oldOrNew":"Established","duration":"Freehold","paon":"FARTHINGS","saon":"","street":"HIGH STREET","locality":"CRANBROOK","townOrCity":"CRANBROOK","district":"TUNBRIDGE WELLS","county":"KENT","ppdCategoryType":"Standard","recordStatus":"Addition","latitude":51.095104,"longitude":0.530013,"postcodeStart":"TN17 3","postcode":["TN17","3DT"]}
{"price":58500,"dateOfTransfer":"1995-06-30T00:00:00","postcodeFull":"TN17 3AN","propertyType":"Semi-detached","oldOrNew":"Established","duration":"Freehold","paon":"APRIL GARDEN, 1","saon":"","street":"DOROTHY AVENUE","locality":"CRANBROOK","townOrCity":"CRANBROOK","district":"TUNBRIDGE WELLS","county":"KENT","ppdCategoryType":"Standard","recordStatus":"Addition","latitude":51.093222,"longitude":0.540788,"postcodeStart":"TN17 3","postcode":["TN17","3AN"]}
{"price":66000,"dateOfTransfer":"1995-05-05T00:00:00","postcodeFull":"TN17 3JB","propertyType":"Flat/Maisonette/Townhouse","oldOrNew":"Established","duration":"Leasehold","paon":"22","saon":"","street":"RECTORY FIELDS","locality":"CRANBROOK","townOrCity":"CRANBROOK","district":"TUNBRIDGE WELLS","county":"KENT","ppdCategoryType":"Standard","recordStatus":"Addition","latitude":51.09887,"longitude":0.535827,"postcodeStart":"TN17 3","postcode":["TN17","3JB"]}
{"price":295000,"dateOfTransfer":"1995-10-26T00:00:00","postcodeFull":"TN17 3NW","propertyType":"Detached","oldOrNew":"Established","duration":"Freehold","paon":"APPLE TREE COTTAGE","saon":"","street":"GOLFORD ROAD","locality":"","townOrCity":"CRANBROOK","district":"TUNBRIDGE WELLS","county":"KENT","ppdCategoryType":"Standard","recordStatus":"Addition","latitude":51.094346,"longitude":0.547391,"postcodeStart":"TN17 3","postcode":["TN17","3NW"]}
{"price":82500,"dateOfTransfer":"1996-10-28T00:00:00","postcodeFull":"TN17 3ND","propertyType":"Semi-detached","oldOrNew":"Established","duration":"Freehold","paon":"16","saon":"","street":"WHEATFIELD LEA","locality":"CRANBROOK","townOrCity":"CRANBROOK","district":"TUNBRIDGE WELLS","county":"KENT","ppdCategoryType":"Standard","recordStatus":"Addition","latitude":51.098151,"longitude":0.530388,"postcodeStart":"TN17 3","postcode":["TN17","3ND"]}
{"price":74000,"dateOfTransfer":"1996-11-29T00:00:00","postcodeFull":"TN17 3BY","propertyType":"Detached","oldOrNew":"Established","duration":"Freehold","paon":"16","saon":"","street":"NORMAN RISE","locality":"CRANBROOK","townOrCity":"CRANBROOK","district":"TUNBRIDGE WELLS","county":"KENT","ppdCategoryType":"Standard","recordStatus":"Addition","latitude":51.091718,"longitude":0.536721,"postcodeStart":"TN17 3","postcode":["TN17","3BY"]}
{"price":190000,"dateOfTransfer":"1996-06-03T00:00:00","postcodeFull":"TN17 3QD","propertyType":"Detached","oldOrNew":"Established","duration":"Freehold","paon":"EDGEHILL","saon":"","street":"HAWKHURST ROAD","locality":"CRANBROOK","townOrCity":"CRANBROOK","district":"TUNBRIDGE WELLS","county":"KENT","ppdCategoryType":"Standard","recordStatus":"Addition","latitude":51.07974,"longitude":0.509979,"postcodeStart":"TN17 3","postcode":["TN17","3QD"]}
{"price":183000,"dateOfTransfer":"1996-11-22T00:00:00","postcodeFull":"TN17 3LZ","propertyType":"Detached","oldOrNew":"New build","duration":"Freehold","paon":"56","saon":"","street":"JOYCE CLOSE","locality":"CRANBROOK","townOrCity":"CRANBROOK","district":"TUNBRIDGE WELLS","county":"KENT","ppdCategoryType":"Standard","recordStatus":"Addition","latitude":51.096479,"longitude":0.529526,"postcodeStart":"TN17 3","postcode":["TN17","3LZ"]}
{"price":55000,"dateOfTransfer":"1996-10-24T00:00:00","postcodeFull":"TN17 3BY","propertyType":"Semi-detached","oldOrNew":"Established","duration":"Freehold","paon":"11","saon":"","street":"NORMAN RISE","locality":"CRANBROOK","townOrCity":"CRANBROOK","district":"TUNBRIDGE WELLS","county":"KENT","ppdCategoryType":"Standard","recordStatus":"Addition","latitude":51.091718,"longitude":0.536721,"postcodeStart":"TN17 3","postcode":["TN17","3BY"]}
{"price":76950,"dateOfTransfer":"1996-12-19T00:00:00","postcodeFull":"TN17 3LZ","propertyType":"Semi-detached","oldOrNew":"New build","duration":"Freehold","paon":"11","saon":"","street":"JOYCE CLOSE","locality":"CRANBROOK","townOrCity":"CRANBROOK","district":"TUNBRIDGE WELLS","county":"KENT","ppdCategoryType":"Standard","recordStatus":"Addition","latitude":51.096479,"longitude":0.529526,"postcodeStart":"TN17 3","postcode":["TN17","3LZ"]}
{"price":69000,"dateOfTransfer":"1996-07-24T00:00:00","postcodeFull":"TN17 3EN","propertyType":"Terraced","oldOrNew":"Established","duration":"Freehold","paon":"RAVENSCRAIG","saon":"","street":"HIGH STREET","locality":"CRANBROOK","townOrCity":"CRANBROOK","district":"TUNBRIDGE WELLS","county":"KENT","ppdCategoryType":"Standard","recordStatus":"Addition","latitude":51.095496,"longitude":0.530531,"postcodeStart":"TN17 3","postcode":["TN17","3EN"]}
{"price":76950,"dateOfTransfer":"1996-08-02T00:00:00","postcodeFull":"TN17 3LZ","propertyType":"Terraced","oldOrNew":"New build","duration":"Freehold","paon":"14","saon":"","street":"JOYCE CLOSE","locality":"CRANBROOK","townOrCity":"CRANBROOK","district":"TUNBRIDGE WELLS","county":"KENT","ppdCategoryType":"Standard","recordStatus":"Addition","latitude":51.096479,"longitude":0.529526,"postcodeStart":"TN17 3","postcode":["TN17","3LZ"]}
{"price":79500,"dateOfTransfer":"1996-12-16T00:00:00","postcodeFull":"TN17 3QP","propertyType":"Detached","oldOrNew":"Established","duration":"Freehold","paon":"CARTREF","saon":"","street":"HARTLEY ROAD","locality":"CRANBROOK","townOrCity":"CRANBROOK","district":"TUNBRIDGE WELLS","county":"KENT","ppdCategoryType":"Standard","recordStatus":"Addition","latitude":51.088917,"longitude":0.515289,"postcodeStart":"TN17 3","postcode":["TN17","3QP"]}
{"price":34000,"dateOfTransfer":"1996-08-30T00:00:00","postcodeFull":"TN17 3QY","propertyType":"Flat/Maisonette/Townhouse","oldOrNew":"Established","duration":"Leasehold","paon":"31","saon":"","street":"HARTLEY COURT GARDENS","locality":"CRANBROOK","townOrCity":"CRANBROOK","district":"TUNBRIDGE WELLS","county":"KENT","ppdCategoryType":"Standard","recordStatus":"Addition","latitude":51.087537,"longitude":0.51263,"postcodeStart":"TN17 3","postcode":["TN17","3QY"]}
{"price":40000,"dateOfTransfer":"1996-12-09T00:00:00","postcodeFull":"TN17 3DN","propertyType":"Flat/Maisonette/Townhouse","oldOrNew":"Established","duration":"Freehold","paon":"37","saon":"","street":"HIGH STREET","locality":"","townOrCity":"CRANBROOK","district":"TUNBRIDGE WELLS","county":"KENT","ppdCategoryType":"Standard","recordStatus":"Addition","latitude":51.095975,"longitude":0.534097,"postcodeStart":"TN17 3","postcode":["TN17","3DN"]}
{"price":131000,"dateOfTransfer":"1996-09-27T00:00:00","postcodeFull":"TN17 3LZ","propertyType":"Detached","oldOrNew":"New build","duration":"Freehold","paon":"19","saon":"","street":"JOYCE CLOSE","locality":"CRANBROOK","townOrCity":"CRANBROOK","district":"TUNBRIDGE WELLS","county":"KENT","ppdCategoryType":"Standard","recordStatus":"Addition","latitude":51.096479,"longitude":0.529526,"postcodeStart":"TN17 3","postcode":["TN17","3LZ"]}
{"price":135950,"dateOfTransfer":"1996-12-20T00:00:00","postcodeFull":"TN17 3LZ","propertyType":"Detached","oldOrNew":"New build","duration":"Freehold","paon":"21","saon":"","street":"JOYCE CLOSE","locality":"CRANBROOK","townOrCity":"CRANBROOK","district":"TUNBRIDGE WELLS","county":"KENT","ppdCategoryType":"Standard","recordStatus":"Addition","latitude":51.096479,"longitude":0.529526,"postcodeStart":"TN17 3","postcode":["TN17","3LZ"]}
{"price":71700,"dateOfTransfer":"1996-10-23T00:00:00","postcodeFull":"TN17 3ND","propertyType":"Semi-detached","oldOrNew":"Established","duration":"Freehold","paon":"9","saon":"","street":"WHEATFIELD LEA","locality":"CRANBROOK","townOrCity":"CRANBROOK","district":"TUNBRIDGE WELLS","county":"KENT","ppdCategoryType":"Standard","recordStatus":"Addition","latitude":51.098151,"longitude":0.530388,"postcodeStart":"TN17 3","postcode":["TN17","3ND"]}
{"price":74000,"dateOfTransfer":"1996-09-10T00:00:00","postcodeFull":"TN17 3LA","propertyType":"Semi-detached","oldOrNew":"Established","duration":"Freehold","paon":"50","saon":"","street":"OATFIELD DRIVE","locality":"CRANBROOK","townOrCity":"CRANBROOK","district":"TUNBRIDGE WELLS","county":"KENT","ppdCategoryType":"Standard","recordStatus":"Addition","latitude":51.098159,"longitude":0.53336,"postcodeStart":"TN17 3","postcode":["TN17","3LA"]}
{"price":93500,"dateOfTransfer":"1996-07-31T00:00:00","postcodeFull":"TN17 3LL","propertyType":"Detached","oldOrNew":"Established","duration":"Freehold","paon":"7","saon":"","street":"GREENWAY","locality":"CRANBROOK","townOrCity":"CRANBROOK","district":"TUNBRIDGE WELLS","county":"KENT","ppdCategoryType":"Standard","recordStatus":"Addition","latitude":51.093536,"longitude":0.524223,"postcodeStart":"TN17 3","postcode":["TN17","3LL"]}
{"price":68000,"dateOfTransfer":"1996-12-20T00:00:00","postcodeFull":"TN17 3DN","propertyType":"Terraced","oldOrNew":"Established","duration":"Freehold","paon":"35","saon":"","street":"HIGH STREET","locality":"CRANBROOK","townOrCity":"CRANBROOK","district":"TUNBRIDGE WELLS","county":"KENT","ppdCategoryType":"Standard","recordStatus":"Addition","latitude":51.095975,"longitude":0.534097,"postcodeStart":"TN17 3","postcode":["TN17","3DN"]}
{"price":28500,"dateOfTransfer":"1996-10-03T00:00:00","postcodeFull":"TN17 3HF","propertyType":"Flat/Maisonette/Townhouse","oldOrNew":"Established","duration":"Leasehold","paon":"33","saon":"FLAT 4","street":"STONE STREET","locality":"CRANBROOK","townOrCity":"CRANBROOK","district":"TUNBRIDGE WELLS","county":"KENT","ppdCategoryType":"Standard","recordStatus":"Addition","latitude":51.096317,"longitude":0.536616,"postcodeStart":"TN17 3","postcode":["TN17","3HF"]}
{"price":133750,"dateOfTransfer":"1996-12-20T00:00:00","postcodeFull":"TN17 3LZ","propertyType":"Detached","oldOrNew":"New build","duration":"Freehold","paon":"23","saon":"","street":"JOYCE CLOSE","locality":"CRANBROOK","townOrCity":"CRANBROOK","district":"TUNBRIDGE WELLS","county":"KENT","ppdCategoryType":"Standard","recordStatus":"Addition","latitude":51.096479,"longitude":0.529526,"postcodeStart":"TN17 3","postcode":["TN17","3LZ"]}
{"price":121000,"dateOfTransfer":"1996-09-10T00:00:00","postcodeFull":"TN17 3AY","propertyType":"Detached","oldOrNew":"Established","duration":"Freehold","paon":"BRAMLEYS","saon":"","street":"DOROTHY AVENUE","locality":"CRANBROOK","townOrCity":"CRANBROOK","district":"TUNBRIDGE WELLS","county":"KENT","ppdCategoryType":"Standard","recordStatus":"Addition","latitude":51.091415,"longitude":0.539532,"postcodeStart":"TN17 3","postcode":["TN17","3AY"]}
{"price":47500,"dateOfTransfer":"1996-07-26T00:00:00","postcodeFull":"TN17 3AE","propertyType":"Terraced","oldOrNew":"Established","duration":"Freehold","paon":"1","saon":"","street":"TIPPENS CLOSE","locality":"CRANBROOK","townOrCity":"CRANBROOK","district":"TUNBRIDGE WELLS","county":"KENT","ppdCategoryType":"Standard","recordStatus":"Addition","latitude":51.094525,"longitude":0.539189,"postcodeStart":"TN17 3","postcode":["TN17","3AE"]}
{"price":68000,"dateOfTransfer":"1996-01-26T00:00:00","postcodeFull":"TN17 3DN","propertyType":"Terraced","oldOrNew":"Established","duration":"Freehold","paon":"RIVERDALE","saon":"","street":"HIGH STREET","locality":"CRANBROOK","townOrCity":"CRANBROOK","district":"TUNBRIDGE WELLS","county":"KENT","ppdCategoryType":"Standard","recordStatus":"Addition","latitude":51.095975,"longitude":0.534097,"postcodeStart":"TN17 3","postcode":["TN17","3DN"]}
{"price":50000,"dateOfTransfer":"1996-11-05T00:00:00","postcodeFull":"TN17 3DF","propertyType":"Flat/Maisonette/Townhouse","oldOrNew":"Established","duration":"Leasehold","paon":"UPPER MILLSTONE","saon":"","street":"HIGH STREET","locality":"CRANBROOK","townOrCity":"CRANBROOK","district":"TUNBRIDGE WELLS","county":"KENT","ppdCategoryType":"Standard","recordStatus":"Addition","latitude":51.09632,"longitude":0.535216,"postcodeStart":"TN17 3","postcode":["TN17","3DF"]}
{"price":66000,"dateOfTransfer":"1996-11-11T00:00:00","postcodeFull":"TN17 3AJ","propertyType":"Terraced","oldOrNew":"Established","duration":"Freehold","paon":"7","saon":"","street":"THE HILL","locality":"","townOrCity":"CRANBROOK","district":"TUNBRIDGE WELLS","county":"KENT","ppdCategoryType":"Standard","recordStatus":"Addition","latitude":51.094799,"longitude":0.540232,"postcodeStart":"TN17 3","postcode":["TN17","3AJ"]}
{"price":255000,"dateOfTransfer":"1996-09-27T00:00:00","postcodeFull":"TN17 3QE","propertyType":"Detached","oldOrNew":"Established","duration":"Freehold","paon":"BULL FARM BARN","saon":"","street":"GLASSENBURY ROAD","locality":"CRANBROOK","townOrCity":"CRANBROOK","district":"TUNBRIDGE WELLS","county":"KENT","ppdCategoryType":"Standard","recordStatus":"Addition","latitude":51.085982,"longitude":0.507876,"postcodeStart":"TN17 3","postcode":["TN17","3QE"]}
{"price":64000,"dateOfTransfer":"1996-05-28T00:00:00","postcodeFull":"TN17 3JY","propertyType":"Terraced","oldOrNew":"Established","duration":"Freehold","paon":"RECTORY COTTAGES","saon":"4","street":"RECTORY LANE","locality":"CRANBROOK","townOrCity":"CRANBROOK","district":"TUNBRIDGE WELLS","county":"KENT","ppdCategoryType":"Standard","recordStatus":"Addition","latitude":51.097157,"longitude":0.534776,"postcodeStart":"TN17 3","postcode":["TN17","3JY"]}
{"price":34950,"dateOfTransfer":"1996-08-09T00:00:00","postcodeFull":"TN17 3RG","propertyType":"Terraced","oldOrNew":"Established","duration":"Leasehold","paon":"8","saon":"","street":"BROADCLOTH","locality":"CRANBROOK","townOrCity":"CRANBROOK","district":"TUNBRIDGE WELLS","county":"KENT","ppdCategoryType":"Standard","recordStatus":"Addition","latitude":51.091054,"longitude":0.535772,"postcodeStart":"TN17 3","postcode":["TN17","3RG"]}
{"price":57000,"dateOfTransfer":"1996-01-17T00:00:00","postcodeFull":"TN17 3JB","propertyType":"Flat/Maisonette/Townhouse","oldOrNew":"Established","duration":"Leasehold","paon":"29","saon":"","street":"RECTORY FIELDS","locality":"CRANBROOK","townOrCity":"CRANBROOK","district":"TUNBRIDGE WELLS","county":"KENT","ppdCategoryType":"Standard","recordStatus":"Addition","latitude":51.09887,"longitude":0.535827,"postcodeStart":"TN17 3","postcode":["TN17","3JB"]}
{"price":73000,"dateOfTransfer":"1996-10-18T00:00:00","postcodeFull":"TN17 3LS","propertyType":"Semi-detached","oldOrNew":"Established","duration":"Freehold","paon":"9","saon":"","street":"WHEATFIELD WAY","locality":"CRANBROOK","townOrCity":"CRANBROOK","district":"TUNBRIDGE WELLS","county":"KENT","ppdCategoryType":"Standard","recordStatus":"Addition","latitude":51.097143,"longitude":0.526762,"postcodeStart":"TN17 3","postcode":["TN17","3LS"]}
{"price":40000,"dateOfTransfer":"1996-02-29T00:00:00","postcodeFull":"TN17 3EN","propertyType":"Terraced","oldOrNew":"Established","duration":"Freehold","paon":"MAY COTTAGE","saon":"","street":"HIGH STREET","locality":"CRANBROOK","townOrCity":"CRANBROOK","district":"TUNBRIDGE WELLS","county":"KENT","ppdCategoryType":"Standard","recordStatus":"Addition","latitude":51.095496,"longitude":0.530531,"postcodeStart":"TN17 3","postcode":["TN17","3EN"]}
{"price":63000,"dateOfTransfer":"1996-11-28T00:00:00","postcodeFull":"TN17 3JB","propertyType":"Flat/Maisonette/Townhouse","oldOrNew":"Established","duration":"Leasehold","paon":"29","saon":"","street":"RECTORY FIELDS","locality":"CRANBROOK","townOrCity":"CRANBROOK","district":"TUNBRIDGE WELLS","county":"KENT","ppdCategoryType":"Standard","recordStatus":"Addition","latitude":51.09887,"longitude":0.535827,"postcodeStart":"TN17 3","postcode":["TN17","3JB"]}
{"price":190000,"dateOfTransfer":"1996-10-25T00:00:00","postcodeFull":"TN17 3LZ","propertyType":"Detached","oldOrNew":"New build","duration":"Freehold","paon":"57","saon":"","street":"JOYCE CLOSE","locality":"CRANBROOK","townOrCity":"CRANBROOK","district":"TUNBRIDGE WELLS","county":"KENT","ppdCategoryType":"Standard","recordStatus":"Addition","latitude":51.096479,"longitude":0.529526,"postcodeStart":"TN17 3","postcode":["TN17","3LZ"]}
{"price":164500,"dateOfTransfer":"1996-02-23T00:00:00","postcodeFull":"TN17 3LR","propertyType":"Detached","oldOrNew":"Established","duration":"Freehold","paon":"THE COURTYARD","saon":"","street":"ANGLEY ROAD","locality":"CRANBROOK","townOrCity":"CRANBROOK","district":"TUNBRIDGE WELLS","county":"KENT","ppdCategoryType":"Standard","recordStatus":"Addition","latitude":51.094717,"longitude":0.523659,"postcodeStart":"TN17 3","postcode":["TN17","3LR"]}
{"price":56500,"dateOfTransfer":"1996-09-30T00:00:00","postcodeFull":"TN17 3AJ","propertyType":"Terraced","oldOrNew":"Established","duration":"Freehold","paon":"3","saon":"","street":"THE HILL","locality":"CRANBROOK","townOrCity":"CRANBROOK","district":"TUNBRIDGE WELLS","county":"KENT","ppdCategoryType":"Standard","recordStatus":"Addition","latitude":51.094799,"longitude":0.540232,"postcodeStart":"TN17 3","postcode":["TN17","3AJ"]}
{"price":79000,"dateOfTransfer":"1996-08-02T00:00:00","postcodeFull":"TN17 3LL","propertyType":"Semi-detached","oldOrNew":"Established","duration":"Freehold","paon":"4","saon":"","street":"GREENWAY","locality":"CRANBROOK","townOrCity":"CRANBROOK","district":"TUNBRIDGE WELLS","county":"KENT","ppdCategoryType":"Standard","recordStatus":"Addition","latitude":51.093536,"longitude":0.524223,"postcodeStart":"TN17 3","postcode":["TN17","3LL"]}
{"price":75000,"dateOfTransfer":"1996-07-02T00:00:00","postcodeFull":"TN17 3AH","propertyType":"Semi-detached","oldOrNew":"Established","duration":"Freehold","paon":"THE MILL HOUSE","saon":"","street":"THE HILL","locality":"CRANBROOK","townOrCity":"CRANBROOK","district":"TUNBRIDGE WELLS","county":"KENT","ppdCategoryType":"Standard","recordStatus":"Addition","latitude":51.095031,"longitude":0.539088,"postcodeStart":"TN17 3","postcode":["TN17","3AH"]}
{"price":49500,"dateOfTransfer":"1996-12-18T00:00:00","postcodeFull":"TN17 3AE","propertyType":"Terraced","oldOrNew":"Established","duration":"Freehold","paon":"2","saon":"","street":"TIPPENS CLOSE","locality":"CRANBROOK","townOrCity":"CRANBROOK","district":"TUNBRIDGE WELLS","county":"KENT","ppdCategoryType":"Standard","recordStatus":"Addition","latitude":51.094525,"longitude":0.539189,"postcodeStart":"TN17 3","postcode":["TN17","3AE"]}
{"price":53500,"dateOfTransfer":"1996-06-03T00:00:00","postcodeFull":"TN17 3DD","propertyType":"Terraced","oldOrNew":"Established","duration":"Freehold","paon":"32","saon":"","street":"TURNER AVENUE","locality":"CRANBROOK","townOrCity":"CRANBROOK","district":"TUNBRIDGE WELLS","county":"KENT","ppdCategoryType":"Standard","recordStatus":"Addition","latitude":51.09216,"longitude":0.537516,"postcodeStart":"TN17 3","postcode":["TN17","3DD"]}
{"price":81250,"dateOfTransfer":"1996-12-16T00:00:00","postcodeFull":"TN17 3PU","propertyType":"Semi-detached","oldOrNew":"Established","duration":"Freehold","paon":"DUKES COTTAGES","saon":"1","street":"HAWKHURST ROAD","locality":"CRANBROOK","townOrCity":"CRANBROOK","district":"TUNBRIDGE WELLS","county":"KENT","ppdCategoryType":"Standard","recordStatus":"Addition","latitude":51.083402,"longitude":0.508693,"postcodeStart":"TN17 3","postcode":["TN17","3PU"]}
{"price":88000,"dateOfTransfer":"1996-12-20T00:00:00","postcodeFull":"TN17 3NH","propertyType":"Semi-detached","oldOrNew":"Established","duration":"Freehold","paon":"12","saon":"","street":"OATFIELD CLOSE","locality":"CRANBROOK","townOrCity":"CRANBROOK","district":"TUNBRIDGE WELLS","county":"KENT","ppdCategoryType":"Standard","recordStatus":"Addition","latitude":51.099211,"longitude":0.533333,"postcodeStart":"TN17 3","postcode":["TN17","3NH"]}
{"price":86000,"dateOfTransfer":"1996-07-11T00:00:00","postcodeFull":"TN17 3AD","propertyType":"Detached","oldOrNew":"Established","duration":"Freehold","paon":"CORNER HOUSE","saon":"","street":"THE HILL","locality":"CRANBROOK","townOrCity":"CRANBROOK","district":"TUNBRIDGE WELLS","county":"KENT","ppdCategoryType":"Standard","recordStatus":"Addition","latitude":51.094752,"longitude":0.538647,"postcodeStart":"TN17 3","postcode":["TN17","3AD"]}
{"price":159950,"dateOfTransfer":"1996-10-10T00:00:00","postcodeFull":"TN17 3LZ","propertyType":"Detached","oldOrNew":"New build","duration":"Freehold","paon":"20","saon":"","street":"JOYCE CLOSE","locality":"CRANBROOK","townOrCity":"CRANBROOK","district":"TUNBRIDGE WELLS","county":"KENT","ppdCategoryType":"Standard","recordStatus":"Addition","latitude":51.096479,"longitude":0.529526,"postcodeStart":"TN17 3","postcode":["TN17","3LZ"]}
{"price":62500,"dateOfTransfer":"1996-11-25T00:00:00","postcodeFull":"TN17 3JB","propertyType":"Flat/Maisonette/Townhouse","oldOrNew":"Established","duration":"Leasehold","paon":"14","saon":"","street":"RECTORY FIELDS","locality":"CRANBROOK","townOrCity":"CRANBROOK","district":"TUNBRIDGE WELLS","county":"KENT","ppdCategoryType":"Standard","recordStatus":"Addition","latitude":51.09887,"longitude":0.535827,"postcodeStart":"TN17 3","postcode":["TN17","3JB"]}
{"price":85000,"dateOfTransfer":"1996-10-29T00:00:00","postcodeFull":"TN17 3QP","propertyType":"Detached","oldOrNew":"Established","duration":"Freehold","paon":"HAWTHORN","saon":"","street":"HARTLEY ROAD","locality":"CRANBROOK","townOrCity":"CRANBROOK","district":"TUNBRIDGE WELLS","county":"KENT","ppdCategoryType":"Standard","recordStatus":"Addition","latitude":51.088917,"longitude":0.515289,"postcodeStart":"TN17 3","postcode":["TN17","3QP"]}
{"price":35000,"dateOfTransfer":"1996-05-29T00:00:00","postcodeFull":"TN17 3HF","propertyType":"Flat/Maisonette/Townhouse","oldOrNew":"Established","duration":"Leasehold","paon":"17A","saon":"","street":"STONE STREET","locality":"CRANBROOK","townOrCity":"CRANBROOK","district":"TUNBRIDGE WELLS","county":"KENT","ppdCategoryType":"Standard","recordStatus":"Addition","latitude":51.096317,"longitude":0.536616,"postcodeStart":"TN17 3","postcode":["TN17","3HF"]}
{"price":190000,"dateOfTransfer":"1996-05-31T00:00:00","postcodeFull":"TN17 3EW","propertyType":"Semi-detached","oldOrNew":"Established","duration":"Freehold","paon":"ELLERSLIE","saon":"","street":"HIGH STREET","locality":"CRANBROOK","townOrCity":"CRANBROOK","district":"TUNBRIDGE WELLS","county":"KENT","ppdCategoryType":"Standard","recordStatus":"Addition","latitude":51.094947,"longitude":0.527614,"postcodeStart":"TN17 3","postcode":["TN17","3EW"]}
{"price":75000,"dateOfTransfer":"1996-02-23T00:00:00","postcodeFull":"TN17 3LE","propertyType":"Semi-detached","oldOrNew":"Established","duration":"Freehold","paon":"APPLEGARTH","saon":"","street":"NEW ROAD","locality":"CRANBROOK","townOrCity":"CRANBROOK","district":"TUNBRIDGE WELLS","county":"KENT","ppdCategoryType":"Standard","recordStatus":"Addition","latitude":51.095085,"longitude":0.525461,"postcodeStart":"TN17 3","postcode":["TN17","3LE"]}
{"price":157000,"dateOfTransfer":"1996-12-11T00:00:00","postcodeFull":"TN17 3LZ","propertyType":"Detached","oldOrNew":"New build","duration":"Freehold","paon":"22","saon":"","street":"JOYCE CLOSE","locality":"CRANBROOK","townOrCity":"CRANBROOK","district":"TUNBRIDGE WELLS","county":"KENT","ppdCategoryType":"Standard","recordStatus":"Addition","latitude":51.096479,"longitude":0.529526,"postcodeStart":"TN17 3","postcode":["TN17","3LZ"]}
{"price":75950,"dateOfTransfer":"1996-09-20T00:00:00","postcodeFull":"TN17 3LZ","propertyType":"Terraced","oldOrNew":"New build","duration":"Freehold","paon":"15","saon":"","street":"JOYCE CLOSE","locality":"CRANBROOK","townOrCity":"CRANBROOK","district":"TUNBRIDGE WELLS","county":"KENT","ppdCategoryType":"Standard","recordStatus":"Addition","latitude":51.096479,"longitude":0.529526,"postcodeStart":"TN17 3","postcode":["TN17","3LZ"]}
{"price":76000,"dateOfTransfer":"1996-10-04T00:00:00","postcodeFull":"TN17 3NA","propertyType":"Semi-detached","oldOrNew":"Established","duration":"Freehold","paon":"9","saon":"","street":"WHEATFIELD CLOSE","locality":"CRANBROOK","townOrCity":"CRANBROOK","district":"TUNBRIDGE WELLS","county":"KENT","ppdCategoryType":"Standard","recordStatus":"Addition","latitude":51.097374,"longitude":0.529346,"postcodeStart":"TN17 3","postcode":["TN17","3NA"]}
{"price":86000,"dateOfTransfer":"1996-03-21T00:00:00","postcodeFull":"TN17 3HJ","propertyType":"Semi-detached","oldOrNew":"Established","duration":"Freehold","paon":"HOLFIELD HOUSE","saon":"","street":"ST DAVIDS BRIDGE","locality":"CRANBROOK","townOrCity":"CRANBROOK","district":"TUNBRIDGE WELLS","county":"KENT","ppdCategoryType":"Standard","recordStatus":"Addition","latitude":51.095771,"longitude":0.537259,"postcodeStart":"TN17 3","postcode":["TN17","3HJ"]}
{"price":97000,"dateOfTransfer":"1996-06-07T00:00:00","postcodeFull":"TN17 3DR","propertyType":"Terraced","oldOrNew":"Established","duration":"Freehold","paon":"FERN COTTAGE","saon":"","street":"HIGH STREET","locality":"CRANBROOK","townOrCity":"CRANBROOK","district":"TUNBRIDGE WELLS","county":"KENT","ppdCategoryType":"Standard","recordStatus":"Addition","latitude":51.095603,"longitude":0.532192,"postcodeStart":"TN17 3","postcode":["TN17","3DR"]}
{"price":40000,"dateOfTransfer":"1996-11-15T00:00:00","postcodeFull":"TN17 3AH","propertyType":"Terraced","oldOrNew":"Established","duration":"Freehold","paon":"SURE HILL COTTAGE","saon":"","street":"THE HILL","locality":"CRANBROOK","townOrCity":"CRANBROOK","district":"TUNBRIDGE WELLS","county":"KENT","ppdCategoryType":"Standard","recordStatus":"Addition","latitude":51.095031,"longitude":0.539088,"postcodeStart":"TN17 3","postcode":["TN17","3AH"]}
{"price":53000,"dateOfTransfer":"1996-11-22T00:00:00","postcodeFull":"TN17 3BY","propertyType":"Terraced","oldOrNew":"Established","duration":"Freehold","paon":"12","saon":"","street":"NORMAN RISE","locality":"CRANBROOK","townOrCity":"CRANBROOK","district":"TUNBRIDGE WELLS","county":"KENT","ppdCategoryType":"Standard","recordStatus":"Addition","latitude":51.091718,"longitude":0.536721,"postcodeStart":"TN17 3","postcode":["TN17","3BY"]}
{"price":81000,"dateOfTransfer":"1996-10-04T00:00:00","postcodeFull":"TN17 3LA","propertyType":"Semi-detached","oldOrNew":"Established","duration":"Freehold","paon":"35","saon":"","street":"OATFIELD DRIVE","locality":"CRANBROOK","townOrCity":"CRANBROOK","district":"TUNBRIDGE WELLS","county":"KENT","ppdCategoryType":"Standard","recordStatus":"Addition","latitude":51.098159,"longitude":0.53336,"postcodeStart":"TN17 3","postcode":["TN17","3LA"]}
{"price":160000,"dateOfTransfer":"1996-12-18T00:00:00","postcodeFull":"TN17 3LZ","propertyType":"Detached","oldOrNew":"New build","duration":"Freehold","paon":"55","saon":"","street":"JOYCE CLOSE","locality":"CRANBROOK","townOrCity":"CRANBROOK","district":"TUNBRIDGE WELLS","county":"KENT","ppdCategoryType":"Standard","recordStatus":"Addition","latitude":51.096479,"longitude":0.529526,"postcodeStart":"TN17 3","postcode":["TN17","3LZ"]}
{"price":79250,"dateOfTransfer":"1996-07-19T00:00:00","postcodeFull":"TN17 3LU","propertyType":"Semi-detached","oldOrNew":"Established","duration":"Freehold","paon":"11","saon":"","street":"WHEATFIELD DRIVE","locality":"CRANBROOK","townOrCity":"CRANBROOK","district":"TUNBRIDGE WELLS","county":"KENT","ppdCategoryType":"Standard","recordStatus":"Addition","latitude":51.09611,"longitude":0.527449,"postcodeStart":"TN17 3","postcode":["TN17","3LU"]}
{"price":58000,"dateOfTransfer":"1996-10-04T00:00:00","postcodeFull":"TN17 3AN","propertyType":"Detached","oldOrNew":"Established","duration":"Freehold","paon":"THE GABLES","saon":"","street":"DOROTHY AVENUE","locality":"CRANBROOK","townOrCity":"CRANBROOK","district":"TUNBRIDGE WELLS","county":"KENT","ppdCategoryType":"Standard","recordStatus":"Addition","latitude":51.093222,"longitude":0.540788,"postcodeStart":"TN17 3","postcode":["TN17","3AN"]}
{"price":106500,"dateOfTransfer":"1996-04-30T00:00:00","postcodeFull":"TN17 3QY","propertyType":"Detached","oldOrNew":"Established","duration":"Freehold","paon":"13","saon":"","street":"HARTLEY COURT GARDENS","locality":"CRANBROOK","townOrCity":"CRANBROOK","district":"TUNBRIDGE WELLS","county":"KENT","ppdCategoryType":"Standard","recordStatus":"Addition","latitude":51.087537,"longitude":0.51263,"postcodeStart":"TN17 3","postcode":["TN17","3QY"]}
{"price":54000,"dateOfTransfer":"1996-08-16T00:00:00","postcodeFull":"TN17 3BU","propertyType":"Semi-detached","oldOrNew":"Established","duration":"Freehold","paon":"18","saon":"","street":"BROOKSIDE","locality":"CRANBROOK","townOrCity":"CRANBROOK","district":"TUNBRIDGE WELLS","county":"KENT","ppdCategoryType":"Standard","recordStatus":"Addition","latitude":51.094123,"longitude":0.53491,"postcodeStart":"TN17 3","postcode":["TN17","3BU"]}
{"price":104950,"dateOfTransfer":"1996-10-25T00:00:00","postcodeFull":"TN17 3LZ","propertyType":"Detached","oldOrNew":"New build","duration":"Freehold","paon":"9","saon":"","street":"JOYCE CLOSE","locality":"CRANBROOK","townOrCity":"CRANBROOK","district":"TUNBRIDGE WELLS","county":"KENT","ppdCategoryType":"Standard","recordStatus":"Addition","latitude":51.096479,"longitude":0.529526,"postcodeStart":"TN17 3","postcode":["TN17","3LZ"]}
{"price":59950,"dateOfTransfer":"1996-12-20T00:00:00","postcodeFull":"TN17 3ER","propertyType":"Detached","oldOrNew":"Established","duration":"Freehold","paon":"DRILL HALL COTTAGE","saon":"","street":"CAUSTON ROAD","locality":"CRANBROOK","townOrCity":"CRANBROOK","district":"TUNBRIDGE WELLS","county":"KENT","ppdCategoryType":"Standard","recordStatus":"Addition","latitude":51.097411,"longitude":0.530505,"postcodeStart":"TN17 3","postcode":["TN17","3ER"]}
{"price":123000,"dateOfTransfer":"1996-09-20T00:00:00","postcodeFull":"TN17 3ER","propertyType":"Semi-detached","oldOrNew":"Established","duration":"Freehold","paon":"MARYVILLE","saon":"","street":"CAUSTON ROAD","locality":"CRANBROOK","townOrCity":"CRANBROOK","district":"TUNBRIDGE WELLS","county":"KENT","ppdCategoryType":"Standard","recordStatus":"Addition","latitude":51.097411,"longitude":0.530505,"postcodeStart":"TN17 3","postcode":["TN17","3ER"]}
{"price":70000,"dateOfTransfer":"1996-02-16T00:00:00","postcodeFull":"TN17 3BY","propertyType":"Semi-detached","oldOrNew":"Established","duration":"Freehold","paon":"3","saon":"","street":"NORMAN RISE","locality":"CRANBROOK","townOrCity":"CRANBROOK","district":"TUNBRIDGE WELLS","county":"KENT","ppdCategoryType":"Standard","recordStatus":"Addition","latitude":51.091718,"longitude":0.536721,"postcodeStart":"TN17 3","postcode":["TN17","3BY"]}
{"price":170000,"dateOfTransfer":"1996-01-12T00:00:00","postcodeFull":"TN17 3PF","propertyType":"Detached","oldOrNew":"Established","duration":"Freehold","paon":"TANNERS","saon":"","street":"FREIGHT LANE","locality":"CRANBROOK","townOrCity":"CRANBROOK","district":"TUNBRIDGE WELLS","county":"KENT","ppdCategoryType":"Standard","recordStatus":"Addition","latitude":51.092075,"longitude":0.533086,"postcodeStart":"TN17 3","postcode":["TN17","3PF"]}
{"price":53000,"dateOfTransfer":"1996-04-19T00:00:00","postcodeFull":"TN17 3QY","propertyType":"Terraced","oldOrNew":"Established","duration":"Freehold","paon":"6","saon":"","street":"HARTLEY COURT GARDENS","locality":"CRANBROOK","townOrCity":"CRANBROOK","district":"TUNBRIDGE WELLS","county":"KENT","ppdCategoryType":"Standard","recordStatus":"Addition","latitude":51.087537,"longitude":0.51263,"postcodeStart":"TN17 3","postcode":["TN17","3QY"]}
{"price":39000,"dateOfTransfer":"1996-01-04T00:00:00","postcodeFull":"TN17 3QY","propertyType":"Flat/Maisonette/Townhouse","oldOrNew":"Established","duration":"Leasehold","paon":"28","saon":"","street":"HARTLEY COURT GARDENS","locality":"CRANBROOK","townOrCity":"CRANBROOK","district":"TUNBRIDGE WELLS","county":"KENT","ppdCategoryType":"Standard","recordStatus":"Addition","latitude":51.087537,"longitude":0.51263,"postcodeStart":"TN17 3","postcode":["TN17","3QY"]}
{"price":136000,"dateOfTransfer":"1996-07-26T00:00:00","postcodeFull":"TN17 3QX","propertyType":"Detached","oldOrNew":"Established","duration":"Freehold","paon":"HEDGEWAYS","saon":"","street":"HARTLEY ROAD","locality":"CRANBROOK","townOrCity":"CRANBROOK","district":"TUNBRIDGE WELLS","county":"KENT","ppdCategoryType":"Standard","recordStatus":"Addition","latitude":51.089586,"longitude":0.517154,"postcodeStart":"TN17 3","postcode":["TN17","3QX"]}
{"price":43000,"dateOfTransfer":"1996-12-23T00:00:00","postcodeFull":"TN17 3QA","propertyType":"Semi-detached","oldOrNew":"Established","duration":"Freehold","paon":"KENDORE","saon":"","street":"HAWKHURST ROAD","locality":"CRANBROOK","townOrCity":"CRANBROOK","district":"TUNBRIDGE WELLS","county":"KENT","ppdCategoryType":"Standard","recordStatus":"Addition","latitude":51.08221,"longitude":0.509314,"postcodeStart":"TN17 3","postcode":["TN17","3QA"]}
{"price":68000,"dateOfTransfer":"1996-05-31T00:00:00","postcodeFull":"TN17 3NA","propertyType":"Semi-detached","oldOrNew":"Established","duration":"Freehold","paon":"15","saon":"","street":"WHEATFIELD CLOSE","locality":"CRANBROOK","townOrCity":"CRANBROOK","district":"TUNBRIDGE WELLS","county":"KENT","ppdCategoryType":"Standard","recordStatus":"Addition","latitude":51.097374,"longitude":0.529346,"postcodeStart":"TN17 3","postcode":["TN17","3NA"]}
{"price":72500,"dateOfTransfer":"1996-05-24T00:00:00","postcodeFull":"TN17 3BX","propertyType":"Detached","oldOrNew":"Established","duration":"Freehold","paon":"21","saon":"","street":"TURNER AVENUE","locality":"CRANBROOK","townOrCity":"CRANBROOK","district":"TUNBRIDGE WELLS","county":"KENT","ppdCategoryType":"Standard","recordStatus":"Addition","latitude":51.090919,"longitude":0.536692,"postcodeStart":"TN17 3","postcode":["TN17","3BX"]}
{"price":83500,"dateOfTransfer":"1996-11-05T00:00:00","postcodeFull":"TN17 3HL","propertyType":"Terraced","oldOrNew":"Established","duration":"Freehold","paon":"1","saon":"","street":"ST DAVIDS BRIDGE","locality":"CRANBROOK","townOrCity":"CRANBROOK","district":"TUNBRIDGE WELLS","county":"KENT","ppdCategoryType":"Standard","recordStatus":"Addition","latitude":51.095671,"longitude":0.537766,"postcodeStart":"TN17 3","postcode":["TN17","3HL"]}
{"price":75000,"dateOfTransfer":"1996-07-17T00:00:00","postcodeFull":"TN17 3DR","propertyType":"Terraced","oldOrNew":"Established","duration":"Freehold","paon":"OAKBEAMS","saon":"","street":"LYNDHURST COTTAGES","locality":"CRANBROOK","townOrCity":"CRANBROOK","district":"TUNBRIDGE WELLS","county":"KENT","ppdCategoryType":"Standard","recordStatus":"Addition","latitude":51.095603,"longitude":0.532192,"postcodeStart":"TN17 3","postcode":["TN17","3DR"]}
{"price":139995,"dateOfTransfer":"1997-08-18T00:00:00","postcodeFull":"TN17 3BQ","propertyType":"Terraced","oldOrNew":"Established","duration":"Freehold","paon":"2","saon":"","street":"RAMMELL MEWS","locality":"CRANBROOK","townOrCity":"CRANBROOK","district":"TUNBRIDGE WELLS","county":"KENT","ppdCategoryType":"Standard","recordStatus":"Addition","latitude":51.093871,"longitude":0.538997,"postcodeStart":"TN17 3","postcode":["TN17","3BQ"]}
{"price":105000,"dateOfTransfer":"1997-06-27T00:00:00","postcodeFull":"TN17 3LZ","propertyType":"Semi-detached","oldOrNew":"New build","duration":"Freehold","paon":"51","saon":"","street":"JOYCE CLOSE","locality":"","townOrCity":"CRANBROOK","district":"TUNBRIDGE WELLS","county":"KENT","ppdCategoryType":"Standard","recordStatus":"Addition","latitude":51.096479,"longitude":0.529526,"postcodeStart":"TN17 3","postcode":["TN17","3LZ"]}
{"price":142950,"dateOfTransfer":"1997-08-22T00:00:00","postcodeFull":"TN17 3LZ","propertyType":"Detached","oldOrNew":"New build","duration":"Freehold","paon":"33","saon":"","street":"JOYCE CLOSE","locality":"CRANBROOK","townOrCity":"CRANBROOK","district":"TUNBRIDGE WELLS","county":"KENT","ppdCategoryType":"Standard","recordStatus":"Addition","latitude":51.096479,"longitude":0.529526,"postcodeStart":"TN17 3","postcode":["TN17","3LZ"]}
{"price":70000,"dateOfTransfer":"1997-09-09T00:00:00","postcodeFull":"TN17 3JB","propertyType":"Flat/Maisonette/Townhouse","oldOrNew":"Established","duration":"Leasehold","paon":"24","saon":"","street":"RECTORY FIELDS","locality":"CRANBROOK","townOrCity":"CRANBROOK","district":"TUNBRIDGE WELLS","county":"KENT","ppdCategoryType":"Standard","recordStatus":"Addition","latitude":51.09887,"longitude":0.535827,"postcodeStart":"TN17 3","postcode":["TN17","3JB"]}
{"price":45000,"dateOfTransfer":"1997-03-12T00:00:00","postcodeFull":"TN17 3JG","propertyType":"Terraced","oldOrNew":"Established","duration":"Freehold","paon":"12","saon":"","street":"WATERLOO ROAD","locality":"CRANBROOK","townOrCity":"CRANBROOK","district":"TUNBRIDGE WELLS","county":"KENT","ppdCategoryType":"Standard","recordStatus":"Addition","latitude":51.095928,"longitude":0.537937,"postcodeStart":"TN17 3","postcode":["TN17","3JG"]}
{"price":62000,"dateOfTransfer":"1997-12-15T00:00:00","postcodeFull":"TN17 3HT","propertyType":"Terraced","oldOrNew":"Established","duration":"Freehold","paon":"SPRING BANK","saon":"2","street":"THE TANYARD","locality":"CRANBROOK","townOrCity":"CRANBROOK","district":"TUNBRIDGE WELLS","county":"KENT","ppdCategoryType":"Standard","recordStatus":"Addition","latitude":51.095078,"longitude":0.536891,"postcodeStart":"TN17 3","postcode":["TN17","3HT"]}
{"price":62000,"dateOfTransfer":"1997-11-28T00:00:00","postcodeFull":"TN17 3DF","propertyType":"Flat/Maisonette/Townhouse","oldOrNew":"Established","duration":"Leasehold","paon":"WHITE LION HOUSE","saon":"FLAT 1","street":"HIGH STREET","locality":"CRANBROOK","townOrCity":"CRANBROOK","district":"TUNBRIDGE WELLS","county":"KENT","ppdCategoryType":"Standard","recordStatus":"Addition","latitude":51.09632,"longitude":0.535216,"postcodeStart":"TN17 3","postcode":["TN17","3DF"]}
{"price":66500,"dateOfTransfer":"1997-06-30T00:00:00","postcodeFull":"TN17 3DD","propertyType":"Semi-detached","oldOrNew":"Established","duration":"Freehold","paon":"22","saon":"","street":"TURNER AVENUE","locality":"CRANBROOK","townOrCity":"CRANBROOK","district":"TUNBRIDGE WELLS","county":"KENT","ppdCategoryType":"Standard","recordStatus":"Addition","latitude":51.09216,"longitude":0.537516,"postcodeStart":"TN17 3","postcode":["TN17","3DD"]}
{"price":60000,"dateOfTransfer":"1997-02-28T00:00:00","postcodeFull":"TN17 3LR","propertyType":"Semi-detached","oldOrNew":"Established","duration":"Freehold","paon":"HAZLEWOOD","saon":"","street":"ANGLEY ROAD","locality":"CRANBROOK","townOrCity":"CRANBROOK","district":"TUNBRIDGE WELLS","county":"KENT","ppdCategoryType":"Standard","recordStatus":"Addition","latitude":51.094717,"longitude":0.523659,"postcodeStart":"TN17 3","postcode":["TN17","3LR"]}
{"price":195500,"dateOfTransfer":"1997-03-27T00:00:00","postcodeFull":"TN17 3LZ","propertyType":"Detached","oldOrNew":"New build","duration":"Freehold","paon":"24","saon":"","street":"JOYCE CLOSE","locality":"CRANBROOK","townOrCity":"CRANBROOK","district":"TUNBRIDGE WELLS","county":"KENT","ppdCategoryType":"Standard","recordStatus":"Addition","latitude":51.096479,"longitude":0.529526,"postcodeStart":"TN17 3","postcode":["TN17","3LZ"]}
{"price":112950,"dateOfTransfer":"1997-12-19T00:00:00","postcodeFull":"TN17 3LZ","propertyType":"Detached","oldOrNew":"New build","duration":"Freehold","paon":"4","saon":"","street":"JOYCE CLOSE","locality":"CRANBROOK","townOrCity":"CRANBROOK","district":"TUNBRIDGE WELLS","county":"KENT","ppdCategoryType":"Standard","recordStatus":"Addition","latitude":51.096479,"longitude":0.529526,"postcodeStart":"TN17 3","postcode":["TN17","3LZ"]}
{"price":87000,"dateOfTransfer":"1997-06-10T00:00:00","postcodeFull":"TN17 3JB","propertyType":"Terraced","oldOrNew":"Established","duration":"Freehold","paon":"15","saon":"","street":"RECTORY FIELDS","locality":"CRANBROOK","townOrCity":"CRANBROOK","district":"TUNBRIDGE WELLS","county":"KENT","ppdCategoryType":"Standard","recordStatus":"Addition","latitude":51.09887,"longitude":0.535827,"postcodeStart":"TN17 3","postcode":["TN17","3JB"]}
{"price":70000,"dateOfTransfer":"1997-07-07T00:00:00","postcodeFull":"TN17 3HT","propertyType":"Terraced","oldOrNew":"Established","duration":"Freehold","paon":"SPRING BANK","saon":"1","street":"THE TANYARD","locality":"CRANBROOK","townOrCity":"CRANBROOK","district":"TUNBRIDGE WELLS","county":"KENT","ppdCategoryType":"Standard","recordStatus":"Addition","latitude":51.095078,"longitude":0.536891,"postcodeStart":"TN17 3","postcode":["TN17","3HT"]}
{"price":106950,"dateOfTransfer":"1997-06-23T00:00:00","postcodeFull":"TN17 3LZ","propertyType":"Detached","oldOrNew":"New build","duration":"Freehold","paon":"53","saon":"","street":"JOYCE CLOSE","locality":"CRANBROOK","townOrCity":"CRANBROOK","district":"TUNBRIDGE WELLS","county":"KENT","ppdCategoryType":"Standard","recordStatus":"Addition","latitude":51.096479,"longitude":0.529526,"postcodeStart":"TN17 3","postcode":["TN17","3LZ"]}
{"price":77000,"dateOfTransfer":"1997-06-27T00:00:00","postcodeFull":"TN17 3LX","propertyType":"Semi-detached","oldOrNew":"Established","duration":"Freehold","paon":"33","saon":"","street":"WHEATFIELD WAY","locality":"CRANBROOK","townOrCity":"CRANBROOK","district":"TUNBRIDGE WELLS","county":"KENT","ppdCategoryType":"Standard","recordStatus":"Addition","latitude":51.097676,"longitude":0.52782,"postcodeStart":"TN17 3","postcode":["TN17","3LX"]}
{"price":250000,"dateOfTransfer":"1997-04-14T00:00:00","postcodeFull":"TN17 3PU","propertyType":"Detached","oldOrNew":"Established","duration":"Freehold","paon":"HARTLEY HALL","saon":"","street":"HAWKHURST ROAD","locality":"CRANBROOK","townOrCity":"CRANBROOK","district":"TUNBRIDGE WELLS","county":"KENT","ppdCategoryType":"Standard","recordStatus":"Addition","latitude":51.083402,"longitude":0.508693,"postcodeStart":"TN17 3","postcode":["TN17","3PU"]}
{"price":59950,"dateOfTransfer":"1997-07-07T00:00:00","postcodeFull":"TN17 3HT","propertyType":"Terraced","oldOrNew":"Established","duration":"Freehold","paon":"SPRING BANK","saon":"4","street":"THE TANYARD","locality":"CRANBROOK","townOrCity":"CRANBROOK","district":"TUNBRIDGE WELLS","county":"KENT","ppdCategoryType":"Standard","recordStatus":"Addition","latitude":51.095078,"longitude":0.536891,"postcodeStart":"TN17 3","postcode":["TN17","3HT"]}
{"price":80000,"dateOfTransfer":"1997-11-07T00:00:00","postcodeFull":"TN17 3LX","propertyType":"Semi-detached","oldOrNew":"Established","duration":"Freehold","paon":"31","saon":"","street":"WHEATFIELD WAY","locality":"CRANBROOK","townOrCity":"CRANBROOK","district":"TUNBRIDGE WELLS","county":"KENT","ppdCategoryType":"Standard","recordStatus":"Addition","latitude":51.097676,"longitude":0.52782,"postcodeStart":"TN17 3","postcode":["TN17","3LX"]}
{"price":94500,"dateOfTransfer":"1997-08-15T00:00:00","postcodeFull":"TN17 3LQ","propertyType":"Semi-detached","oldOrNew":"Established","duration":"Freehold","paon":"THE COTTAGE","saon":"","street":"HIGH STREET","locality":"CRANBROOK","townOrCity":"CRANBROOK","district":"TUNBRIDGE WELLS","county":"KENT","ppdCategoryType":"Standard","recordStatus":"Addition","latitude":51.093205,"longitude":0.523264,"postcodeStart":"TN17 3","postcode":["TN17","3LQ"]}
{"price":205950,"dateOfTransfer":"1997-07-25T00:00:00","postcodeFull":"TN17 3LZ","propertyType":"Detached","oldOrNew":"New build","duration":"Freehold","paon":"31","saon":"","street":"JOYCE CLOSE","locality":"CRANBROOK","townOrCity":"CRANBROOK","district":"TUNBRIDGE WELLS","county":"KENT","ppdCategoryType":"Standard","recordStatus":"Addition","latitude":51.096479,"longitude":0.529526,"postcodeStart":"TN17 3","postcode":["TN17","3LZ"]}
{"price":85000,"dateOfTransfer":"1997-05-30T00:00:00","postcodeFull":"TN17 3AN","propertyType":"Semi-detached","oldOrNew":"Established","duration":"Freehold","paon":"6","saon":"","street":"DOROTHY AVENUE","locality":"CRANBROOK","townOrCity":"CRANBROOK","district":"TUNBRIDGE WELLS","county":"KENT","ppdCategoryType":"Standard","recordStatus":"Addition","latitude":51.093222,"longitude":0.540788,"postcodeStart":"TN17 3","postcode":["TN17","3AN"]}
{"price":55000,"dateOfTransfer":"1997-03-27T00:00:00","postcodeFull":"TN17 3JW","propertyType":"Semi-detached","oldOrNew":"Established","duration":"Freehold","paon":"ADEENA","saon":"","street":"BAKERS CROSS","locality":"CRANBROOK","townOrCity":"CRANBROOK","district":"TUNBRIDGE WELLS","county":"KENT","ppdCategoryType":"Standard","recordStatus":"Addition","latitude":51.094518,"longitude":0.541988,"postcodeStart":"TN17 3","postcode":["TN17","3JW"]}
{"price":112000,"dateOfTransfer":"1997-08-26T00:00:00","postcodeFull":"TN17 3EN","propertyType":"Detached","oldOrNew":"Established","duration":"Freehold","paon":"FIG TREE COTTAGE","saon":"","street":"HIGH STREET","locality":"CRANBROOK","townOrCity":"CRANBROOK","district":"TUNBRIDGE WELLS","county":"KENT","ppdCategoryType":"Standard","recordStatus":"Addition","latitude":51.095496,"longitude":0.530531,"postcodeStart":"TN17 3","postcode":["TN17","3EN"]}
{"price":78500,"dateOfTransfer":"1997-07-31T00:00:00","postcodeFull":"TN17 3AJ","propertyType":"Terraced","oldOrNew":"Established","duration":"Freehold","paon":"CREST COTTAGE","saon":"","street":"THE HILL","locality":"CRANBROOK","townOrCity":"CRANBROOK","district":"TUNBRIDGE WELLS","county":"KENT","ppdCategoryType":"Standard","recordStatus":"Addition","latitude":51.094799,"longitude":0.540232,"postcodeStart":"TN17 3","postcode":["TN17","3AJ"]}
{"price":108950,"dateOfTransfer":"1997-09-19T00:00:00","postcodeFull":"TN17 3LZ","propertyType":"Detached","oldOrNew":"New build","duration":"Freehold","paon":"47","saon":"","street":"JOYCE CLOSE","locality":"CRANBROOK","townOrCity":"CRANBROOK","district":"TUNBRIDGE WELLS","county":"KENT","ppdCategoryType":"Standard","recordStatus":"Addition","latitude":51.096479,"longitude":0.529526,"postcodeStart":"TN17 3","postcode":["TN17","3LZ"]}
{"price":80950,"dateOfTransfer":"1997-11-21T00:00:00","postcodeFull":"TN17 3LZ","propertyType":"Terraced","oldOrNew":"New build","duration":"Freehold","paon":"41","saon":"","street":"JOYCE CLOSE","locality":"CRANBROOK","townOrCity":"CRANBROOK","district":"TUNBRIDGE WELLS","county":"KENT","ppdCategoryType":"Standard","recordStatus":"Addition","latitude":51.096479,"longitude":0.529526,"postcodeStart":"TN17 3","postcode":["TN17","3LZ"]}
{"price":149950,"dateOfTransfer":"1997-10-31T00:00:00","postcodeFull":"TN17 3LZ","propertyType":"Detached","oldOrNew":"New build","duration":"Freehold","paon":"6","saon":"","street":"JOYCE CLOSE","locality":"CRANBROOK","townOrCity":"CRANBROOK","district":"TUNBRIDGE WELLS","county":"KENT","ppdCategoryType":"Standard","recordStatus":"Addition","latitude":51.096479,"longitude":0.529526,"postcodeStart":"TN17 3","postcode":["TN17","3LZ"]}
{"price":138000,"dateOfTransfer":"1997-09-30T00:00:00","postcodeFull":"TN17 3JJ","propertyType":"Semi-detached","oldOrNew":"Established","duration":"Freehold","paon":"KIRKLANDS","saon":"","street":"WATERLOO ROAD","locality":"CRANBROOK","townOrCity":"CRANBROOK","district":"TUNBRIDGE WELLS","county":"KENT","ppdCategoryType":"Standard","recordStatus":"Addition","latitude":51.097564,"longitude":0.539156,"postcodeStart":"TN17 3","postcode":["TN17","3JJ"]}
{"price":95000,"dateOfTransfer":"1997-12-08T00:00:00","postcodeFull":"TN17 3BX","propertyType":"Semi-detached","oldOrNew":"Established","duration":"Freehold","paon":"19","saon":"","street":"TURNER AVENUE","locality":"CRANBROOK","townOrCity":"CRANBROOK","district":"TUNBRIDGE WELLS","county":"KENT","ppdCategoryType":"Standard","recordStatus":"Addition","latitude":51.090919,"longitude":0.536692,"postcodeStart":"TN17 3","postcode":["TN17","3BX"]}
{"price":167000,"dateOfTransfer":"1997-06-23T00:00:00","postcodeFull":"TN17 3AY","propertyType":"Detached","oldOrNew":"Established","duration":"Freehold","paon":"BRAMLEY HOUSE","saon":"","street":"DOROTHY AVENUE","locality":"CRANBROOK","townOrCity":"CRANBROOK","district":"TUNBRIDGE WELLS","county":"KENT","ppdCategoryType":"Standard","recordStatus":"Addition","latitude":51.091415,"longitude":0.539532,"postcodeStart":"TN17 3","postcode":["TN17","3AY"]}
{"price":234000,"dateOfTransfer":"1997-12-19T00:00:00","postcodeFull":"TN17 3BD","propertyType":"Detached","oldOrNew":"Established","duration":"Freehold","paon":"THE PEST HOUSE","saon":"","street":"FRYTHE WALK","locality":"CRANBROOK","townOrCity":"CRANBROOK","district":"TUNBRIDGE WELLS","county":"KENT","ppdCategoryType":"Standard","recordStatus":"Addition","latitude":51.092194,"longitude":0.534649,"postcodeStart":"TN17 3","postcode":["TN17","3BD"]}
{"price":108500,"dateOfTransfer":"1997-07-01T00:00:00","postcodeFull":"TN17 3LA","propertyType":"Detached","oldOrNew":"Established","duration":"Freehold","paon":"28","saon":"","street":"OATFIELD DRIVE","locality":"CRANBROOK","townOrCity":"CRANBROOK","district":"TUNBRIDGE WELLS","county":"KENT","ppdCategoryType":"Standard","recordStatus":"Addition","latitude":51.098159,"longitude":0.53336,"postcodeStart":"TN17 3","postcode":["TN17","3LA"]}
{"price":60000,"dateOfTransfer":"1997-01-23T00:00:00","postcodeFull":"TN17 3AL","propertyType":"Semi-detached","oldOrNew":"Established","duration":"Freehold","paon":"NEW LOC","saon":"","street":"DOROTHY AVENUE","locality":"CRANBROOK","townOrCity":"CRANBROOK","district":"TUNBRIDGE WELLS","county":"KENT","ppdCategoryType":"Standard","recordStatus":"Addition","latitude":51.093014,"longitude":0.541207,"postcodeStart":"TN17 3","postcode":["TN17","3AL"]}
{"price":202950,"dateOfTransfer":"1997-08-29T00:00:00","postcodeFull":"TN17 3LZ","propertyType":"Detached","oldOrNew":"New build","duration":"Freehold","paon":"32","saon":"","street":"JOYCE CLOSE","locality":"CRANBROOK","townOrCity":"CRANBROOK","district":"TUNBRIDGE WELLS","county":"KENT","ppdCategoryType":"Standard","recordStatus":"Addition","latitude":51.096479,"longitude":0.529526,"postcodeStart":"TN17 3","postcode":["TN17","3LZ"]}
{"price":68000,"dateOfTransfer":"1997-10-27T00:00:00","postcodeFull":"TN17 3JG","propertyType":"Terraced","oldOrNew":"Established","duration":"Freehold","paon":"14","saon":"","street":"WATERLOO ROAD","locality":"CRANBROOK","townOrCity":"CRANBROOK","district":"TUNBRIDGE WELLS","county":"KENT","ppdCategoryType":"Standard","recordStatus":"Addition","latitude":51.095928,"longitude":0.537937,"postcodeStart":"TN17 3","postcode":["TN17","3JG"]}
{"price":165950,"dateOfTransfer":"1997-08-28T00:00:00","postcodeFull":"TN17 3LZ","propertyType":"Detached","oldOrNew":"New build","duration":"Freehold","paon":"34","saon":"","street":"JOYCE CLOSE","locality":"CRANBROOK","townOrCity":"CRANBROOK","district":"TUNBRIDGE WELLS","county":"KENT","ppdCategoryType":"Standard","recordStatus":"Addition","latitude":51.096479,"longitude":0.529526,"postcodeStart":"TN17 3","postcode":["TN17","3LZ"]}
{"price":80000,"dateOfTransfer":"1997-10-01T00:00:00","postcodeFull":"TN17 3NW","propertyType":"Detached","oldOrNew":"Established","duration":"Freehold","paon":"SPRINGDEN","saon":"","street":"GOLFORD ROAD","locality":"CRANBROOK","townOrCity":"CRANBROOK","district":"TUNBRIDGE WELLS","county":"KENT","ppdCategoryType":"Standard","recordStatus":"Addition","latitude":51.094346,"longitude":0.547391,"postcodeStart":"TN17 3","postcode":["TN17","3NW"]}
{"price":91000,"dateOfTransfer":"1997-10-31T00:00:00","postcodeFull":"TN17 3LX","propertyType":"Semi-detached","oldOrNew":"Established","duration":"Freehold","paon":"29","saon":"","street":"WHEATFIELD WAY","locality":"CRANBROOK","townOrCity":"CRANBROOK","district":"TUNBRIDGE WELLS","county":"KENT","ppdCategoryType":"Standard","recordStatus":"Addition","latitude":51.097676,"longitude":0.52782,"postcodeStart":"TN17 3","postcode":["TN17","3LX"]}
{"price":92000,"dateOfTransfer":"1997-05-07T00:00:00","postcodeFull":"TN17 3AL","propertyType":"Detached","oldOrNew":"Established","duration":"Freehold","paon":"TEMUKA","saon":"","street":"DOROTHY AVENUE","locality":"CRANBROOK","townOrCity":"CRANBROOK","district":"TUNBRIDGE WELLS","county":"KENT","ppdCategoryType":"Standard","recordStatus":"Addition","latitude":51.093014,"longitude":0.541207,"postcodeStart":"TN17 3","postcode":["TN17","3AL"]}
{"price":80950,"dateOfTransfer":"1997-11-14T00:00:00","postcodeFull":"TN17 3LZ","propertyType":"Terraced","oldOrNew":"New build","duration":"Freehold","paon":"42","saon":"","street":"JOYCE CLOSE","locality":"CRANBROOK","townOrCity":"CRANBROOK","district":"TUNBRIDGE WELLS","county":"KENT","ppdCategoryType":"Standard","recordStatus":"Addition","latitude":51.096479,"longitude":0.529526,"postcodeStart":"TN17 3","postcode":["TN17","3LZ"]}
{"price":54000,"dateOfTransfer":"1997-08-29T00:00:00","postcodeFull":"TN17 3QJ","propertyType":"Terraced","oldOrNew":"Established","duration":"Freehold","paon":"32","saon":"","street":"CAMPION CRESCENT","locality":"CRANBROOK","townOrCity":"CRANBROOK","district":"TUNBRIDGE WELLS","county":"KENT","ppdCategoryType":"Standard","recordStatus":"Addition","latitude":51.086778,"longitude":0.512303,"postcodeStart":"TN17 3","postcode":["TN17","3QJ"]}
{"price":275000,"dateOfTransfer":"1997-07-25T00:00:00","postcodeFull":"TN17 3PH","propertyType":"Detached","oldOrNew":"Established","duration":"Freehold","paon":"GROVE COTTAGE","saon":"","street":"TILSDEN LANE","locality":"CRANBROOK","townOrCity":"CRANBROOK","district":"TUNBRIDGE WELLS","county":"KENT","ppdCategoryType":"Standard","recordStatus":"Addition","latitude":51.090476,"longitude":0.545065,"postcodeStart":"TN17 3","postcode":["TN17","3PH"]}
{"price":190000,"dateOfTransfer":"1997-06-09T00:00:00","postcodeFull":"TN17 3LZ","propertyType":"Detached","oldOrNew":"New build","duration":"Freehold","paon":"25","saon":"","street":"JOYCE CLOSE","locality":"CRANBROOK","townOrCity":"CRANBROOK","district":"TUNBRIDGE WELLS","county":"KENT","ppdCategoryType":"Standard","recordStatus":"Addition","latitude":51.096479,"longitude":0.529526,"postcodeStart":"TN17 3","postcode":["TN17","3LZ"]}
{"price":80000,"dateOfTransfer":"1997-10-24T00:00:00","postcodeFull":"TN17 3NG","propertyType":"Semi-detached","oldOrNew":"Established","duration":"Freehold","paon":"16","saon":"","street":"OATFIELD DRIVE","locality":"CRANBROOK","townOrCity":"CRANBROOK","district":"TUNBRIDGE WELLS","county":"KENT","ppdCategoryType":"Standard","recordStatus":"Addition","latitude":51.098904,"longitude":0.531758,"postcodeStart":"TN17 3","postcode":["TN17","3NG"]}
{"price":58000,"dateOfTransfer":"1997-07-31T00:00:00","postcodeFull":"TN17 3HX","propertyType":"Semi-detached","oldOrNew":"Established","duration":"Freehold","paon":"1","saon":"","street":"TANYARD COTTAGES","locality":"CRANBROOK","townOrCity":"CRANBROOK","district":"TUNBRIDGE WELLS","county":"KENT","ppdCategoryType":"Standard","recordStatus":"Addition","latitude":51.095709,"longitude":0.536454,"postcodeStart":"TN17 3","postcode":["TN17","3HX"]}
{"price":110950,"dateOfTransfer":"1997-12-17T00:00:00","postcodeFull":"TN17 3LZ","propertyType":"Detached","oldOrNew":"New build","duration":"Freehold","paon":"39","saon":"","street":"JOYCE CLOSE","locality":"CRANBROOK","townOrCity":"CRANBROOK","district":"TUNBRIDGE WELLS","county":"KENT","ppdCategoryType":"Standard","recordStatus":"Addition","latitude":51.096479,"longitude":0.529526,"postcodeStart":"TN17 3","postcode":["TN17","3LZ"]}
{"price":77000,"dateOfTransfer":"1997-08-11T00:00:00","postcodeFull":"TN17 3JS","propertyType":"Semi-detached","oldOrNew":"Established","duration":"Freehold","paon":"6","saon":"","street":"CARRIERS ROAD","locality":"CRANBROOK","townOrCity":"CRANBROOK","district":"TUNBRIDGE WELLS","county":"KENT","ppdCategoryType":"Standard","recordStatus":"Addition","latitude":51.098578,"longitude":0.534797,"postcodeStart":"TN17 3","postcode":["TN17","3JS"]}
{"price":160000,"dateOfTransfer":"1997-05-30T00:00:00","postcodeFull":"TN17 3LZ","propertyType":"Detached","oldOrNew":"New build","duration":"Freehold","paon":"28","saon":"","street":"JOYCE CLOSE","locality":"CRANBROOK","townOrCity":"CRANBROOK","district":"TUNBRIDGE WELLS","county":"KENT","ppdCategoryType":"Standard","recordStatus":"Addition","latitude":51.096479,"longitude":0.529526,"postcodeStart":"TN17 3","postcode":["TN17","3LZ"]}
{"price":159500,"dateOfTransfer":"1997-06-20T00:00:00","postcodeFull":"TN17 3LZ","propertyType":"Detached","oldOrNew":"Established","duration":"Freehold","paon":"52","saon":"","street":"JOYCE CLOSE","locality":"CRANBROOK","townOrCity":"CRANBROOK","district":"TUNBRIDGE WELLS","county":"KENT","ppdCategoryType":"Standard","recordStatus":"Addition","latitude":51.096479,"longitude":0.529526,"postcodeStart":"TN17 3","postcode":["TN17","3LZ"]}
{"price":63000,"dateOfTransfer":"1997-11-25T00:00:00","postcodeFull":"TN17 3QJ","propertyType":"Terraced","oldOrNew":"Established","duration":"Freehold","paon":"27","saon":"","street":"CAMPION CRESCENT","locality":"CRANBROOK","townOrCity":"CRANBROOK","district":"TUNBRIDGE WELLS","county":"KENT","ppdCategoryType":"Standard","recordStatus":"Addition","latitude":51.086778,"longitude":0.512303,"postcodeStart":"TN17 3","postcode":["TN17","3QJ"]}
{"price":65500,"dateOfTransfer":"1997-11-07T00:00:00","postcodeFull":"TN17 3QS","propertyType":"Semi-detached","oldOrNew":"Established","duration":"Freehold","paon":"4","saon":"","street":"HENNIKER COTTAGES","locality":"CRANBROOK","townOrCity":"CRANBROOK","district":"TUNBRIDGE WELLS","county":"KENT","ppdCategoryType":"Standard","recordStatus":"Addition","latitude":51.087399,"longitude":0.514364,"postcodeStart":"TN17 3","postcode":["TN17","3QS"]}
{"price":82500,"dateOfTransfer":"1997-11-28T00:00:00","postcodeFull":"TN17 3LZ","propertyType":"Terraced","oldOrNew":"New build","duration":"Freehold","paon":"40","saon":"","street":"JOYCE CLOSE","locality":"CRANBROOK","townOrCity":"CRANBROOK","district":"TUNBRIDGE WELLS","county":"KENT","ppdCategoryType":"Standard","recordStatus":"Addition","latitude":51.096479,"longitude":0.529526,"postcodeStart":"TN17 3","postcode":["TN17","3LZ"]}
{"price":70000,"dateOfTransfer":"1997-02-28T00:00:00","postcodeFull":"TN17 3AH","propertyType":"Terraced","oldOrNew":"Established","duration":"Freehold","paon":"SURE HILL COTTAGE","saon":"","street":"THE HILL","locality":"CRANBROOK","townOrCity":"CRANBROOK","district":"TUNBRIDGE WELLS","county":"KENT","ppdCategoryType":"Standard","recordStatus":"Addition","latitude":51.095031,"longitude":0.539088,"postcodeStart":"TN17 3","postcode":["TN17","3AH"]}
{"price":64500,"dateOfTransfer":"1997-03-24T00:00:00","postcodeFull":"TN17 3JB","propertyType":"Flat/Maisonette/Townhouse","oldOrNew":"Established","duration":"Leasehold","paon":"12","saon":"","street":"RECTORY FIELDS","locality":"CRANBROOK","townOrCity":"CRANBROOK","district":"TUNBRIDGE WELLS","county":"KENT","ppdCategoryType":"Standard","recordStatus":"Addition","latitude":51.09887,"longitude":0.535827,"postcodeStart":"TN17 3","postcode":["TN17","3JB"]}
{"price":96000,"dateOfTransfer":"1997-04-21T00:00:00","postcodeFull":"TN17 3NB","propertyType":"Semi-detached","oldOrNew":"Established","duration":"Freehold","paon":"71","saon":"","street":"WHEATFIELD WAY","locality":"CRANBROOK","townOrCity":"CRANBROOK","district":"TUNBRIDGE WELLS","county":"KENT","ppdCategoryType":"Standard","recordStatus":"Addition","latitude":51.098468,"longitude":0.529477,"postcodeStart":"TN17 3","postcode":["TN17","3NB"]}
{"price":288000,"dateOfTransfer":"1997-03-07T00:00:00","postcodeFull":"TN17 3QX","propertyType":"Detached","oldOrNew":"Established","duration":"Freehold","paon":"OAK LODGE","saon":"","street":"HARTLEY ROAD","locality":"CRANBROOK","townOrCity":"CRANBROOK","district":"TUNBRIDGE WELLS","county":"KENT","ppdCategoryType":"Standard","recordStatus":"Addition","latitude":51.089586,"longitude":0.517154,"postcodeStart":"TN17 3","postcode":["TN17","3QX"]}
{"price":108950,"dateOfTransfer":"1997-09-19T00:00:00","postcodeFull":"TN17 3LZ","propertyType":"Detached","oldOrNew":"New build","duration":"Freehold","paon":"48","saon":"","street":"JOYCE CLOSE","locality":"CRANBROOK","townOrCity":"CRANBROOK","district":"TUNBRIDGE WELLS","county":"KENT","ppdCategoryType":"Standard","recordStatus":"Addition","latitude":51.096479,"longitude":0.529526,"postcodeStart":"TN17 3","postcode":["TN17","3LZ"]}
{"price":78500,"dateOfTransfer":"1997-01-17T00:00:00","postcodeFull":"TN17 3NB","propertyType":"Semi-detached","oldOrNew":"Established","duration":"Freehold","paon":"34","saon":"","street":"WHEATFIELD WAY","locality":"CRANBROOK","townOrCity":"CRANBROOK","district":"TUNBRIDGE WELLS","county":"KENT","ppdCategoryType":"Standard","recordStatus":"Addition","latitude":51.098468,"longitude":0.529477,"postcodeStart":"TN17 3","postcode":["TN17","3NB"]}
{"price":94950,"dateOfTransfer":"1997-06-06T00:00:00","postcodeFull":"TN17 3BY","propertyType":"Detached","oldOrNew":"Established","duration":"Freehold","paon":"15","saon":"","street":"NORMAN RISE","locality":"CRANBROOK","townOrCity":"CRANBROOK","district":"TUNBRIDGE WELLS","county":"KENT","ppdCategoryType":"Standard","recordStatus":"Addition","latitude":51.091718,"longitude":0.536721,"postcodeStart":"TN17 3","postcode":["TN17","3BY"]}
{"price":77500,"dateOfTransfer":"1997-04-25T00:00:00","postcodeFull":"TN17 3NB","propertyType":"Semi-detached","oldOrNew":"Established","duration":"Freehold","paon":"45","saon":"","street":"WHEATFIELD WAY","locality":"CRANBROOK","townOrCity":"CRANBROOK","district":"TUNBRIDGE WELLS","county":"KENT","ppdCategoryType":"Standard","recordStatus":"Addition","latitude":51.098468,"longitude":0.529477,"postcodeStart":"TN17 3","postcode":["TN17","3NB"]}
{"price":388500,"dateOfTransfer":"1997-09-12T00:00:00","postcodeFull":"TN17 3PA","propertyType":"Detached","oldOrNew":"Established","duration":"Freehold","paon":"GOLFORD LODGE","saon":"","street":"TENTERDEN ROAD","locality":"GOLFORD","townOrCity":"CRANBROOK","district":"TUNBRIDGE WELLS","county":"KENT","ppdCategoryType":"Standard","recordStatus":"Addition","latitude":51.099977,"longitude":0.570676,"postcodeStart":"TN17 3","postcode":["TN17","3PA"]}
{"price":154500,"dateOfTransfer":"1997-05-02T00:00:00","postcodeFull":"TN17 3LZ","propertyType":"Detached","oldOrNew":"New build","duration":"Freehold","paon":"26","saon":"","street":"JOYCE CLOSE","locality":"CRANBROOK","townOrCity":"CRANBROOK","district":"TUNBRIDGE WELLS","county":"KENT","ppdCategoryType":"Standard","recordStatus":"Addition","latitude":51.096479,"longitude":0.529526,"postcodeStart":"TN17 3","postcode":["TN17","3LZ"]}
{"price":74995,"dateOfTransfer":"1997-09-05T00:00:00","postcodeFull":"TN17 3LA","propertyType":"Semi-detached","oldOrNew":"Established","duration":"Freehold","paon":"36","saon":"","street":"OATFIELD DRIVE","locality":"CRANBROOK","townOrCity":"CRANBROOK","district":"TUNBRIDGE WELLS","county":"KENT","ppdCategoryType":"Standard","recordStatus":"Addition","latitude":51.098159,"longitude":0.53336,"postcodeStart":"TN17 3","postcode":["TN17","3LA"]}
{"price":69950,"dateOfTransfer":"1997-05-30T00:00:00","postcodeFull":"TN17 3LZ","propertyType":"Terraced","oldOrNew":"New build","duration":"Freehold","paon":"16","saon":"","street":"JOYCE CLOSE","locality":"CRANBROOK","townOrCity":"CRANBROOK","district":"TUNBRIDGE WELLS","county":"KENT","ppdCategoryType":"Standard","recordStatus":"Addition","latitude":51.096479,"longitude":0.529526,"postcodeStart":"TN17 3","postcode":["TN17","3LZ"]}
{"price":90000,"dateOfTransfer":"1997-10-24T00:00:00","postcodeFull":"TN17 3LA","propertyType":"Detached","oldOrNew":"Established","duration":"Freehold","paon":"49","saon":"","street":"OATFIELD DRIVE","locality":"CRANBROOK","townOrCity":"CRANBROOK","district":"TUNBRIDGE WELLS","county":"KENT","ppdCategoryType":"Standard","recordStatus":"Addition","latitude":51.098159,"longitude":0.53336,"postcodeStart":"TN17 3","postcode":["TN17","3LA"]}
{"price":47000,"dateOfTransfer":"1997-01-30T00:00:00","postcodeFull":"TN17 3DF","propertyType":"Flat/Maisonette/Townhouse","oldOrNew":"Established","duration":"Leasehold","paon":"WHITE LION HOUSE","saon":"FLAT 4","street":"HIGH STREET","locality":"CRANBROOK","townOrCity":"CRANBROOK","district":"TUNBRIDGE WELLS","county":"KENT","ppdCategoryType":"Standard","recordStatus":"Addition","latitude":51.09632,"longitude":0.535216,"postcodeStart":"TN17 3","postcode":["TN17","3DF"]}
{"price":155000,"dateOfTransfer":"1997-03-17T00:00:00","postcodeFull":"TN17 3QX","propertyType":"Detached","oldOrNew":"Established","duration":"Freehold","paon":"CHERRINGTON","saon":"","street":"HARTLEY ROAD","locality":"CRANBROOK","townOrCity":"CRANBROOK","district":"TUNBRIDGE WELLS","county":"KENT","ppdCategoryType":"Standard","recordStatus":"Addition","latitude":51.089586,"longitude":0.517154,"postcodeStart":"TN17 3","postcode":["TN17","3QX"]}
{"price":195500,"dateOfTransfer":"1997-06-19T00:00:00","postcodeFull":"TN17 3AD","propertyType":"Detached","oldOrNew":"Established","duration":"Freehold","paon":"HUNDRED HOUSE","saon":"","street":"THE HILL","locality":"CRANBROOK","townOrCity":"CRANBROOK","district":"TUNBRIDGE WELLS","county":"KENT","ppdCategoryType":"Standard","recordStatus":"Addition","latitude":51.094752,"longitude":0.538647,"postcodeStart":"TN17 3","postcode":["TN17","3AD"]}
{"price":172000,"dateOfTransfer":"1997-11-27T00:00:00","postcodeFull":"TN17 3LZ","propertyType":"Detached","oldOrNew":"New build","duration":"Freehold","paon":"5","saon":"","street":"JOYCE CLOSE","locality":"CRANBROOK","townOrCity":"CRANBROOK","district":"TUNBRIDGE WELLS","county":"KENT","ppdCategoryType":"Standard","recordStatus":"Addition","latitude":51.096479,"longitude":0.529526,"postcodeStart":"TN17 3","postcode":["TN17","3LZ"]}
{"price":66000,"dateOfTransfer":"1997-06-20T00:00:00","postcodeFull":"TN17 3JB","propertyType":"Flat/Maisonette/Townhouse","oldOrNew":"Established","duration":"Leasehold","paon":"14","saon":"","street":"RECTORY FIELDS","locality":"CRANBROOK","townOrCity":"CRANBROOK","district":"TUNBRIDGE WELLS","county":"KENT","ppdCategoryType":"Standard","recordStatus":"Addition","latitude":51.09887,"longitude":0.535827,"postcodeStart":"TN17 3","postcode":["TN17","3JB"]}
{"price":58500,"dateOfTransfer":"1997-12-02T00:00:00","postcodeFull":"TN17 3JG","propertyType":"Terraced","oldOrNew":"Established","duration":"Freehold","paon":"13","saon":"","street":"WATERLOO ROAD","locality":"CRANBROOK","townOrCity":"CRANBROOK","district":"TUNBRIDGE WELLS","county":"KENT","ppdCategoryType":"Standard","recordStatus":"Addition","latitude":51.095928,"longitude":0.537937,"postcodeStart":"TN17 3","postcode":["TN17","3JG"]}
{"price":70000,"dateOfTransfer":"1997-02-14T00:00:00","postcodeFull":"TN17 3LZ","propertyType":"Terraced","oldOrNew":"New build","duration":"Freehold","paon":"17","saon":"","street":"JOYCE CLOSE","locality":"CRANBROOK","townOrCity":"CRANBROOK","district":"TUNBRIDGE WELLS","county":"KENT","ppdCategoryType":"Standard","recordStatus":"Addition","latitude":51.096479,"longitude":0.529526,"postcodeStart":"TN17 3","postcode":["TN17","3LZ"]}
{"price":230000,"dateOfTransfer":"1997-06-26T00:00:00","postcodeFull":"TN17 3EW","propertyType":"Semi-detached","oldOrNew":"Established","duration":"Freehold","paon":"MARK HAVEN","saon":"","street":"HIGH STREET","locality":"CRANBROOK","townOrCity":"CRANBROOK","district":"TUNBRIDGE WELLS","county":"KENT","ppdCategoryType":"Standard","recordStatus":"Addition","latitude":51.094947,"longitude":0.527614,"postcodeStart":"TN17 3","postcode":["TN17","3EW"]}
{"price":435000,"dateOfTransfer":"1997-11-21T00:00:00","postcodeFull":"TN17 3PH","propertyType":"Detached","oldOrNew":"Established","duration":"Freehold","paon":"HANCOCKS FARM HOUSE","saon":"","street":"TILSDEN LANE","locality":"CRANBROOK","townOrCity":"CRANBROOK","district":"TUNBRIDGE WELLS","county":"KENT","ppdCategoryType":"Standard","recordStatus":"Addition","latitude":51.090476,"longitude":0.545065,"postcodeStart":"TN17 3","postcode":["TN17","3PH"]}
{"price":177950,"dateOfTransfer":"1997-10-31T00:00:00","postcodeFull":"TN17 3LZ","propertyType":"Detached","oldOrNew":"New build","duration":"Freehold","paon":"7","saon":"","street":"JOYCE CLOSE","locality":"CRANBROOK","townOrCity":"CRANBROOK","district":"TUNBRIDGE WELLS","county":"KENT","ppdCategoryType":"Standard","recordStatus":"Addition","latitude":51.096479,"longitude":0.529526,"postcodeStart":"TN17 3","postcode":["TN17","3LZ"]}
{"price":42000,"dateOfTransfer":"1997-07-31T00:00:00","postcodeFull":"TN17 3BE","propertyType":"Terraced","oldOrNew":"Established","duration":"Freehold","paon":"19","saon":"","street":"BRAMLEY DRIVE","locality":"CRANBROOK","townOrCity":"CRANBROOK","district":"TUNBRIDGE WELLS","county":"KENT","ppdCategoryType":"Standard","recordStatus":"Addition","latitude":51.093315,"longitude":0.535666,"postcodeStart":"TN17 3","postcode":["TN17","3BE"]}
{"price":63000,"dateOfTransfer":"1997-04-24T00:00:00","postcodeFull":"TN17 3DE","propertyType":"Terraced","oldOrNew":"Established","duration":"Freehold","paon":"12","saon":"","street":"KIRBY CLOSE","locality":"CRANBROOK","townOrCity":"CRANBROOK","district":"TUNBRIDGE WELLS","county":"KENT","ppdCategoryType":"Standard","recordStatus":"Addition","latitude":51.092225,"longitude":0.538663,"postcodeStart":"TN17 3","postcode":["TN17","3DE"]}
{"price":93000,"dateOfTransfer":"1997-11-10T00:00:00","postcodeFull":"TN17 3LS","propertyType":"Semi-detached","oldOrNew":"Established","duration":"Freehold","paon":"9","saon":"","street":"WHEATFIELD WAY","locality":"CRANBROOK","townOrCity":"CRANBROOK","district":"TUNBRIDGE WELLS","county":"KENT","ppdCategoryType":"Standard","recordStatus":"Addition","latitude":51.097143,"longitude":0.526762,"postcodeStart":"TN17 3","postcode":["TN17","3LS"]}
{"price":80000,"dateOfTransfer":"1997-11-27T00:00:00","postcodeFull":"TN17 3NG","propertyType":"Semi-detached","oldOrNew":"Established","duration":"Freehold","paon":"22","saon":"","street":"OATFIELD DRIVE","locality":"CRANBROOK","townOrCity":"CRANBROOK","district":"TUNBRIDGE WELLS","county":"KENT","ppdCategoryType":"Standard","recordStatus":"Addition","latitude":51.098904,"longitude":0.531758,"postcodeStart":"TN17 3","postcode":["TN17","3NG"]}
{"price":116000,"dateOfTransfer":"1997-04-07T00:00:00","postcodeFull":"TN17 3HE","propertyType":"Terraced","oldOrNew":"Established","duration":"Freehold","paon":"TUDOR HOUSE","saon":"","street":"STONE STREET","locality":"","townOrCity":"CRANBROOK","district":"TUNBRIDGE WELLS","county":"KENT","ppdCategoryType":"Standard","recordStatus":"Addition","latitude":51.096117,"longitude":0.53622,"postcodeStart":"TN17 3","postcode":["TN17","3HE"]}
{"price":160950,"dateOfTransfer":"1997-09-17T00:00:00","postcodeFull":"TN17 3LZ","propertyType":"Detached","oldOrNew":"New build","duration":"Freehold","paon":"35","saon":"","street":"JOYCE CLOSE","locality":"CRANBROOK","townOrCity":"CRANBROOK","district":"TUNBRIDGE WELLS","county":"KENT","ppdCategoryType":"Standard","recordStatus":"Addition","latitude":51.096479,"longitude":0.529526,"postcodeStart":"TN17 3","postcode":["TN17","3LZ"]}
{"price":117500,"dateOfTransfer":"1997-05-23T00:00:00","postcodeFull":"TN17 3ER","propertyType":"Detached","oldOrNew":"New build","duration":"Freehold","paon":"GRODORNA","saon":"","street":"CAUSTON ROAD","locality":"CRANBROOK","townOrCity":"CRANBROOK","district":"TUNBRIDGE WELLS","county":"KENT","ppdCategoryType":"Standard","recordStatus":"Addition","latitude":51.097411,"longitude":0.530505,"postcodeStart":"TN17 3","postcode":["TN17","3ER"]}
{"price":72950,"dateOfTransfer":"1997-02-28T00:00:00","postcodeFull":"TN17 3LZ","propertyType":"Semi-detached","oldOrNew":"New build","duration":"Freehold","paon":"10","saon":"","street":"JOYCE CLOSE","locality":"CRANBROOK","townOrCity":"CRANBROOK","district":"TUNBRIDGE WELLS","county":"KENT","ppdCategoryType":"Standard","recordStatus":"Addition","latitude":51.096479,"longitude":0.529526,"postcodeStart":"TN17 3","postcode":["TN17","3LZ"]}
{"price":27000,"dateOfTransfer":"1997-10-09T00:00:00","postcodeFull":"TN17 3HF","propertyType":"Terraced","oldOrNew":"Established","duration":"Freehold","paon":"37","saon":"","street":"STONE STREET","locality":"","townOrCity":"CRANBROOK","district":"TUNBRIDGE WELLS","county":"KENT","ppdCategoryType":"Standard","recordStatus":"Addition","latitude":51.096317,"longitude":0.536616,"postcodeStart":"TN17 3","postcode":["TN17","3HF"]}
{"price":48500,"dateOfTransfer":"1997-01-14T00:00:00","postcodeFull":"TN17 3AE","propertyType":"Terraced","oldOrNew":"Established","duration":"Freehold","paon":"3","saon":"","street":"TIPPENS CLOSE","locality":"CRANBROOK","townOrCity":"CRANBROOK","district":"TUNBRIDGE WELLS","county":"KENT","ppdCategoryType":"Standard","recordStatus":"Addition","latitude":51.094525,"longitude":0.539189,"postcodeStart":"TN17 3","postcode":["TN17","3AE"]}
{"price":90000,"dateOfTransfer":"1997-11-10T00:00:00","postcodeFull":"TN17 3NG","propertyType":"Semi-detached","oldOrNew":"Established","duration":"Freehold","paon":"19","saon":"","street":"OATFIELD DRIVE","locality":"CRANBROOK","townOrCity":"CRANBROOK","district":"TUNBRIDGE WELLS","county":"KENT","ppdCategoryType":"Standard","recordStatus":"Addition","latitude":51.098904,"longitude":0.531758,"postcodeStart":"TN17 3","postcode":["TN17","3NG"]}
{"price":71000,"dateOfTransfer":"1997-01-31T00:00:00","postcodeFull":"TN17 3LZ","propertyType":"Semi-detached","oldOrNew":"New build","duration":"Freehold","paon":"13","saon":"","street":"JOYCE CLOSE","locality":"CRANBROOK","townOrCity":"CRANBROOK","district":"TUNBRIDGE WELLS","county":"KENT","ppdCategoryType":"Standard","recordStatus":"Addition","latitude":51.096479,"longitude":0.529526,"postcodeStart":"TN17 3","postcode":["TN17","3LZ"]}
{"price":158500,"dateOfTransfer":"1997-06-27T00:00:00","postcodeFull":"TN17 3LZ","propertyType":"Detached","oldOrNew":"New build","duration":"Freehold","paon":"50","saon":"","street":"JOYCE CLOSE","locality":"CRANBROOK","townOrCity":"CRANBROOK","district":"TUNBRIDGE WELLS","county":"KENT","ppdCategoryType":"Standard","recordStatus":"Addition","latitude":51.096479,"longitude":0.529526,"postcodeStart":"TN17 3","postcode":["TN17","3LZ"]}
{"price":90000,"dateOfTransfer":"1997-03-27T00:00:00","postcodeFull":"TN17 3JB","propertyType":"Terraced","oldOrNew":"Established","duration":"Freehold","paon":"32","saon":"","street":"RECTORY FIELDS","locality":"CRANBROOK","townOrCity":"CRANBROOK","district":"TUNBRIDGE WELLS","county":"KENT","ppdCategoryType":"Standard","recordStatus":"Addition","latitude":51.09887,"longitude":0.535827,"postcodeStart":"TN17 3","postcode":["TN17","3JB"]}
{"price":55000,"dateOfTransfer":"1997-03-27T00:00:00","postcodeFull":"TN17 3BZ","propertyType":"Semi-detached","oldOrNew":"Established","duration":"Freehold","paon":"6","saon":"","street":"PENNYFIELDS","locality":"CRANBROOK","townOrCity":"CRANBROOK","district":"TUNBRIDGE WELLS","county":"KENT","ppdCategoryType":"Standard","recordStatus":"Addition","latitude":51.091719,"longitude":0.538335,"postcodeStart":"TN17 3","postcode":["TN17","3BZ"]}
{"price":78478,"dateOfTransfer":"1997-05-27T00:00:00","postcodeFull":"TN17 3LR","propertyType":"Semi-detached","oldOrNew":"Established","duration":"Freehold","paon":"PINEWOOD, 25","saon":"","street":"ANGLEY ROAD","locality":"CRANBROOK","townOrCity":"CRANBROOK","district":"TUNBRIDGE WELLS","county":"KENT","ppdCategoryType":"Standard","recordStatus":"Addition","latitude":51.094717,"longitude":0.523659,"postcodeStart":"TN17 3","postcode":["TN17","3LR"]}
{"price":83500,"dateOfTransfer":"1997-07-24T00:00:00","postcodeFull":"TN17 3ND","propertyType":"Semi-detached","oldOrNew":"Established","duration":"Freehold","paon":"11","saon":"","street":"WHEATFIELD LEA","locality":"CRANBROOK","townOrCity":"CRANBROOK","district":"TUNBRIDGE WELLS","county":"KENT","ppdCategoryType":"Standard","recordStatus":"Addition","latitude":51.098151,"longitude":0.530388,"postcodeStart":"TN17 3","postcode":["TN17","3ND"]}
{"price":154000,"dateOfTransfer":"1997-05-27T00:00:00","postcodeFull":"TN17 3LZ","propertyType":"Detached","oldOrNew":"New build","duration":"Freehold","paon":"27","saon":"","street":"JOYCE CLOSE","locality":"CRANBROOK","townOrCity":"CRANBROOK","district":"TUNBRIDGE WELLS","county":"KENT","ppdCategoryType":"Standard","recordStatus":"Addition","latitude":51.096479,"longitude":0.529526,"postcodeStart":"TN17 3","postcode":["TN17","3LZ"]}
{"price":60000,"dateOfTransfer":"1997-11-10T00:00:00","postcodeFull":"TN17 3HF","propertyType":"Terraced","oldOrNew":"Established","duration":"Freehold","paon":"27","saon":"","street":"STONE STREET","locality":"CRANBROOK","townOrCity":"CRANBROOK","district":"TUNBRIDGE WELLS","county":"KENT","ppdCategoryType":"Standard","recordStatus":"Addition","latitude":51.096317,"longitude":0.536616,"postcodeStart":"TN17 3","postcode":["TN17","3HF"]}
