{"price":28500,"dateOfTransfer":"1995-10-20T00:00:00","postcodeFull":"TS17 7HZ","propertyType":"Terraced","oldOrNew":"Established","duration":"Freehold","paon":"97","saon":"","street":"MANSFIELD AVENUE","locality":"THORNABY","townOrCity":"STOCKTON-ON-TEES","district":"STOCKTON-ON-TEES","county":"STOCKTON-ON-TEES","ppdCategoryType":"Standard","recordStatus":"Addition","latitude":54.55332,"longitude":-1.296937,"postcodeStart":"TS17 7","postcode":["TS17","7HZ"]}
{"price":10600,"dateOfTransfer":"1995-05-05T00:00:00","postcodeFull":"TS17 7ES","propertyType":"Terraced","oldOrNew":"Established","duration":"Freehold","paon":"9","saon":"","street":"TEESDALE TERRACE","locality":"THORNABY","townOrCity":"STOCKTON-ON-TEES","district":"MIDDLESBROUGH","county":"MIDDLESBROUGH","ppdCategoryType":"Standard","recordStatus":"Addition","latitude":54.554257,"longitude":-1.295668,"postcodeStart":"TS17 7","postcode":["TS17","7ES"]}
{"price":29000,"dateOfTransfer":"1995-03-01T00:00:00","postcodeFull":"TS17 7HS","propertyType":"Terraced","oldOrNew":"Established","duration":"Freehold","paon":"54","saon":"","street":"ROSEBERRY VIEW","locality":"THORNABY","townOrCity":"STOCKTON-ON-TEES","district":"STOCKTON-ON-TEES","county":"STOCKTON-ON-TEES","ppdCategoryType":"Standard","recordStatus":"Addition","latitude":54.552198,"longitude":-1.298642,"postcodeStart":"TS17 7","postcode":["TS17","7HS"]}
{"price":25000,"dateOfTransfer":"1995-10-24T00:00:00","postcodeFull":"TS17 7HA","propertyType":"Terraced","oldOrNew":"Established","duration":"Freehold","paon":"30","saon":"","street":"HESLOP STREET","locality":"THORNABY","townOrCity":"STOCKTON-ON-TEES","district":"STOCKTON-ON-TEES","county":"STOCKTON-ON-TEES","ppdCategoryType":"Standard","recordStatus":"Addition","latitude":54.554305,"longitude":-1.294616,"postcodeStart":"TS17 7","postcode":["TS17","7HA"]}
{"price":28500,"dateOfTransfer":"1995-12-18T00:00:00","postcodeFull":"TS17 7ED","propertyType":"Terraced","oldOrNew":"Established","duration":"Freehold","paon":"2","saon":"","street":"CRANWORTH GREEN","locality":"THORNABY","townOrCity":"STOCKTON-ON-TEES","district":"STOCKTON-ON-TEES","county":"STOCKTON-ON-TEES","ppdCategoryType":"Standard","recordStatus":"Addition","latitude":54.555552,"longitude":-1.29744,"postcodeStart":"TS17 7","postcode":["TS17","7ED"]}
{"price":50000,"dateOfTransfer":"1995-07-14T00:00:00","postcodeFull":"TS17 7HD","propertyType":"Semi-detached","oldOrNew":"Established","duration":"Freehold","paon":"88","saon":"","street":"ACKLAM ROAD","locality":"THORNABY","townOrCity":"STOCKTON-ON-TEES","district":"STOCKTON-ON-TEES","county":"STOCKTON-ON-TEES","ppdCategoryType":"Standard","recordStatus":"Addition","latitude":54.554228,"longitude":-1.293208,"postcodeStart":"TS17 7","postcode":["TS17","7HD"]}
{"price":13000,"dateOfTransfer":"1995-03-31T00:00:00","postcodeFull":"TS17 7HX","propertyType":"Terraced","oldOrNew":"Established","duration":"Freehold","paon":"2","saon":"","street":"CHELTENHAM AVENUE","locality":"THORNABY","townOrCity":"STOCKTON-ON-TEES","district":"STOCKTON-ON-TEES","county":"STOCKTON-ON-TEES","ppdCategoryType":"Standard","recordStatus":"Addition","latitude":54.552616,"longitude":-1.29783,"postcodeStart":"TS17 7","postcode":["TS17","7HX"]}
{"price":24450,"dateOfTransfer":"1995-03-23T00:00:00","postcodeFull":"TS17 7HU","propertyType":"Terraced","oldOrNew":"Established","duration":"Freehold","paon":"1","saon":"","street":"CAMELON STREET","locality":"THORNABY","townOrCity":"STOCKTON-ON-TEES","district":"STOCKTON-ON-TEES","county":"STOCKTON-ON-TEES","ppdCategoryType":"Standard","recordStatus":"Addition","latitude":54.552228,"longitude":-1.297682,"postcodeStart":"TS17 7","postcode":["TS17","7HU"]}
{"price":30000,"dateOfTransfer":"1995-10-17T00:00:00","postcodeFull":"TS17 7JN","propertyType":"Terraced","oldOrNew":"Established","duration":"Freehold","paon":"11","saon":"","street":"PARK AVENUE","locality":"THORNABY","townOrCity":"STOCKTON-ON-TEES","district":"STOCKTON-ON-TEES","county":"STOCKTON-ON-TEES","ppdCategoryType":"Standard","recordStatus":"Addition","latitude":54.55291,"longitude":-1.294362,"postcodeStart":"TS17 7","postcode":["TS17","7JN"]}
{"price":9000,"dateOfTransfer":"1995-09-08T00:00:00","postcodeFull":"TS17 7HQ","propertyType":"Terraced","oldOrNew":"Established","duration":"Freehold","paon":"71","saon":"","street":"MANSFIELD AVENUE","locality":"THORNABY","townOrCity":"STOCKTON-ON-TEES","district":"STOCKTON-ON-TEES","county":"STOCKTON-ON-TEES","ppdCategoryType":"Standard","recordStatus":"Addition","latitude":54.554289,"longitude":-1.296565,"postcodeStart":"TS17 7","postcode":["TS17","7HQ"]}
{"price":35500,"dateOfTransfer":"1995-04-20T00:00:00","postcodeFull":"TS17 7JP","propertyType":"Terraced","oldOrNew":"Established","duration":"Freehold","paon":"50","saon":"","street":"BALMORAL AVENUE","locality":"THORNABY","townOrCity":"STOCKTON-ON-TEES","district":"STOCKTON-ON-TEES","county":"STOCKTON-ON-TEES","ppdCategoryType":"Standard","recordStatus":"Addition","latitude":54.55238,"longitude":-1.292918,"postcodeStart":"TS17 7","postcode":["TS17","7JP"]}
{"price":33000,"dateOfTransfer":"1995-02-24T00:00:00","postcodeFull":"TS17 7HU","propertyType":"Terraced","oldOrNew":"Established","duration":"Freehold","paon":"32","saon":"","street":"CAMELON STREET","locality":"THORNABY","townOrCity":"STOCKTON-ON-TEES","district":"STOCKTON-ON-TEES","county":"STOCKTON-ON-TEES","ppdCategoryType":"Standard","recordStatus":"Addition","latitude":54.552228,"longitude":-1.297682,"postcodeStart":"TS17 7","postcode":["TS17","7HU"]}
{"price":44000,"dateOfTransfer":"1995-04-21T00:00:00","postcodeFull":"TS17 7JD","propertyType":"Semi-detached","oldOrNew":"Established","duration":"Freehold","paon":"31","saon":"","street":"BARKER ROAD","locality":"THORNABY","townOrCity":"STOCKTON-ON-TEES","district":"STOCKTON-ON-TEES","county":"STOCKTON-ON-TEES","ppdCategoryType":"Standard","recordStatus":"Addition","latitude":54.551588,"longitude":-1.297338,"postcodeStart":"TS17 7","postcode":["TS17","7JD"]}
{"price":22500,"dateOfTransfer":"1995-11-24T00:00:00","postcodeFull":"TS17 7HA","propertyType":"Terraced","oldOrNew":"Established","duration":"Freehold","paon":"11","saon":"","street":"HESLOP STREET","locality":"THORNABY","townOrCity":"STOCKTON-ON-TEES","district":"STOCKTON-ON-TEES","county":"STOCKTON-ON-TEES","ppdCategoryType":"Standard","recordStatus":"Addition","latitude":54.554305,"longitude":-1.294616,"postcodeStart":"TS17 7","postcode":["TS17","7HA"]}
{"price":25000,"dateOfTransfer":"1995-12-08T00:00:00","postcodeFull":"TS17 7HY","propertyType":"Terraced","oldOrNew":"Established","duration":"Freehold","paon":"1","saon":"","street":"SALISBURY STREET","locality":"THORNABY","townOrCity":"STOCKTON-ON-TEES","district":"STOCKTON-ON-TEES","county":"STOCKTON-ON-TEES","ppdCategoryType":"Standard","recordStatus":"Addition","latitude":54.553252,"longitude":-1.297557,"postcodeStart":"TS17 7","postcode":["TS17","7HY"]}
{"price":20770,"dateOfTransfer":"1995-05-01T00:00:00","postcodeFull":"TS17 7ED","propertyType":"Terraced","oldOrNew":"New build","duration":"Freehold","paon":"7","saon":"","street":"CRANWORTH GREEN","locality":"THORNABY","townOrCity":"STOCKTON-ON-TEES","district":"STOCKTON-ON-TEES","county":"STOCKTON-ON-TEES","ppdCategoryType":"Standard","recordStatus":"Addition","latitude":54.555552,"longitude":-1.29744,"postcodeStart":"TS17 7","postcode":["TS17","7ED"]}
{"price":34950,"dateOfTransfer":"1995-07-07T00:00:00","postcodeFull":"TS17 7JB","propertyType":"Terraced","oldOrNew":"Established","duration":"Freehold","paon":"128","saon":"","street":"MANSFIELD AVENUE","locality":"THORNABY","townOrCity":"STOCKTON-ON-TEES","district":"STOCKTON-ON-TEES","county":"STOCKTON-ON-TEES","ppdCategoryType":"Standard","recordStatus":"Addition","latitude":54.552068,"longitude":-1.296356,"postcodeStart":"TS17 7","postcode":["TS17","7JB"]}
{"price":36000,"dateOfTransfer":"1995-12-08T00:00:00","postcodeFull":"TS17 7JD","propertyType":"Semi-detached","oldOrNew":"Established","duration":"Freehold","paon":"39","saon":"","street":"BARKER ROAD","locality":"THORNABY","townOrCity":"STOCKTON-ON-TEES","district":"STOCKTON-ON-TEES","county":"STOCKTON-ON-TEES","ppdCategoryType":"Standard","recordStatus":"Addition","latitude":54.551588,"longitude":-1.297338,"postcodeStart":"TS17 7","postcode":["TS17","7JD"]}
{"price":32000,"dateOfTransfer":"1995-08-04T00:00:00","postcodeFull":"TS17 7HG","propertyType":"Terraced","oldOrNew":"Established","duration":"Freehold","paon":"76","saon":"","street":"LANGLEY AVENUE","locality":"THORNABY","townOrCity":"STOCKTON-ON-TEES","district":"STOCKTON-ON-TEES","county":"STOCKTON-ON-TEES","ppdCategoryType":"Standard","recordStatus":"Addition","latitude":54.553816,"longitude":-1.295676,"postcodeStart":"TS17 7","postcode":["TS17","7HG"]}
{"price":17000,"dateOfTransfer":"1995-09-29T00:00:00","postcodeFull":"TS17 7HY","propertyType":"Terraced","oldOrNew":"Established","duration":"Freehold","paon":"REAR OF 1","saon":"","street":"SALISBURY STREET","locality":"THORNABY","townOrCity":"STOCKTON-ON-TEES","district":"STOCKTON-ON-TEES","county":"STOCKTON-ON-TEES","ppdCategoryType":"Standard","recordStatus":"Addition","latitude":54.553252,"longitude":-1.297557,"postcodeStart":"TS17 7","postcode":["TS17","7HY"]}
{"price":13750,"dateOfTransfer":"1995-02-10T00:00:00","postcodeFull":"TS17 7HX","propertyType":"Terraced","oldOrNew":"Established","duration":"Freehold","paon":"19","saon":"","street":"CHELTENHAM AVENUE","locality":"THORNABY","townOrCity":"STOCKTON-ON-TEES","district":"STOCKTON-ON-TEES","county":"STOCKTON-ON-TEES","ppdCategoryType":"Standard","recordStatus":"Addition","latitude":54.552616,"longitude":-1.29783,"postcodeStart":"TS17 7","postcode":["TS17","7HX"]}
{"price":13000,"dateOfTransfer":"1995-06-01T00:00:00","postcodeFull":"TS17 7DQ","propertyType":"Terraced","oldOrNew":"Established","duration":"Freehold","paon":"30","saon":"","street":"EASTON STREET","locality":"THORNABY","townOrCity":"STOCKTON-ON-TEES","district":"STOCKTON-ON-TEES","county":"STOCKTON-ON-TEES","ppdCategoryType":"Standard","recordStatus":"Addition","latitude":54.554257,"longitude":-1.297184,"postcodeStart":"TS17 7","postcode":["TS17","7DQ"]}
{"price":27000,"dateOfTransfer":"1995-07-18T00:00:00","postcodeFull":"TS17 7JB","propertyType":"Semi-detached","oldOrNew":"Established","duration":"Freehold","paon":"135","saon":"","street":"MANSFIELD AVENUE","locality":"THORNABY","townOrCity":"STOCKTON-ON-TEES","district":"STOCKTON-ON-TEES","county":"STOCKTON-ON-TEES","ppdCategoryType":"Standard","recordStatus":"Addition","latitude":54.552068,"longitude":-1.296356,"postcodeStart":"TS17 7","postcode":["TS17","7JB"]}
{"price":20500,"dateOfTransfer":"1995-03-01T00:00:00","postcodeFull":"TS17 7HG","propertyType":"Terraced","oldOrNew":"Established","duration":"Freehold","paon":"51","saon":"","street":"LANGLEY AVENUE","locality":"THORNABY","townOrCity":"STOCKTON-ON-TEES","district":"STOCKTON-ON-TEES","county":"STOCKTON-ON-TEES","ppdCategoryType":"Standard","recordStatus":"Addition","latitude":54.553816,"longitude":-1.295676,"postcodeStart":"TS17 7","postcode":["TS17","7HG"]}
{"price":36000,"dateOfTransfer":"1995-01-31T00:00:00","postcodeFull":"TS17 7JE","propertyType":"Semi-detached","oldOrNew":"Established","duration":"Freehold","paon":"8","saon":"","street":"BARKER ROAD","locality":"THORNABY","townOrCity":"STOCKTON-ON-TEES","district":"STOCKTON-ON-TEES","county":"STOCKTON-ON-TEES","ppdCategoryType":"Standard","recordStatus":"Addition","latitude":54.551345,"longitude":-1.295734,"postcodeStart":"TS17 7","postcode":["TS17","7JE"]}
{"price":36000,"dateOfTransfer":"1995-06-07T00:00:00","postcodeFull":"TS17 7EG","propertyType":"Terraced","oldOrNew":"Established","duration":"Freehold","paon":"21","saon":"","street":"MANSFIELD AVENUE","locality":"THORNABY","townOrCity":"STOCKTON-ON-TEES","district":"STOCKTON-ON-TEES","county":"STOCKTON-ON-TEES","ppdCategoryType":"Standard","recordStatus":"Addition","latitude":54.555386,"longitude":-1.296608,"postcodeStart":"TS17 7","postcode":["TS17","7EG"]}
{"price":16430,"dateOfTransfer":"1995-08-07T00:00:00","postcodeFull":"TS17 7ED","propertyType":"Terraced","oldOrNew":"New build","duration":"Freehold","paon":"5","saon":"","street":"CRANWORTH GREEN","locality":"THORNABY","townOrCity":"STOCKTON-ON-TEES","district":"STOCKTON-ON-TEES","county":"STOCKTON-ON-TEES","ppdCategoryType":"Standard","recordStatus":"Addition","latitude":54.555552,"longitude":-1.29744,"postcodeStart":"TS17 7","postcode":["TS17","7ED"]}
{"price":32950,"dateOfTransfer":"1995-09-18T00:00:00","postcodeFull":"TS17 7EW","propertyType":"Terraced","oldOrNew":"Established","duration":"Freehold","paon":"15","saon":"","street":"ANDERSON ROAD","locality":"THORNABY","townOrCity":"STOCKTON-ON-TEES","district":"STOCKTON-ON-TEES","county":"STOCKTON-ON-TEES","ppdCategoryType":"Standard","recordStatus":"Addition","latitude":54.555234,"longitude":-1.295265,"postcodeStart":"TS17 7","postcode":["TS17","7EW"]}
{"price":29000,"dateOfTransfer":"1995-09-04T00:00:00","postcodeFull":"TS17 7HH","propertyType":"Terraced","oldOrNew":"Established","duration":"Freehold","paon":"56","saon":"","street":"MANSFIELD AVENUE","locality":"THORNABY","townOrCity":"STOCKTON-ON-TEES","district":"STOCKTON-ON-TEES","county":"STOCKTON-ON-TEES","ppdCategoryType":"Standard","recordStatus":"Addition","latitude":54.554345,"longitude":-1.296919,"postcodeStart":"TS17 7","postcode":["TS17","7HH"]}
{"price":33000,"dateOfTransfer":"1995-09-18T00:00:00","postcodeFull":"TS17 7JD","propertyType":"Semi-detached","oldOrNew":"Established","duration":"Freehold","paon":"24","saon":"","street":"BARKER ROAD","locality":"THORNABY","townOrCity":"STOCKTON-ON-TEES","district":"STOCKTON-ON-TEES","county":"STOCKTON-ON-TEES","ppdCategoryType":"Standard","recordStatus":"Addition","latitude":54.551588,"longitude":-1.297338,"postcodeStart":"TS17 7","postcode":["TS17","7JD"]}
{"price":10000,"dateOfTransfer":"1995-04-10T00:00:00","postcodeFull":"TS17 7EP","propertyType":"Terraced","oldOrNew":"Established","duration":"Freehold","paon":"60","saon":"","street":"COBDEN STREET","locality":"THORNABY","townOrCity":"STOCKTON-ON-TEES","district":"STOCKTON-ON-TEES","county":"STOCKTON-ON-TEES","ppdCategoryType":"Standard","recordStatus":"Addition","latitude":54.554923,"longitude":-1.295858,"postcodeStart":"TS17 7","postcode":["TS17","7EP"]}
{"price":52250,"dateOfTransfer":"1995-05-12T00:00:00","postcodeFull":"TS17 7JP","propertyType":"Semi-detached","oldOrNew":"Established","duration":"Freehold","paon":"12","saon":"","street":"BALMORAL AVENUE","locality":"THORNABY","townOrCity":"STOCKTON-ON-TEES","district":"STOCKTON-ON-TEES","county":"STOCKTON-ON-TEES","ppdCategoryType":"Standard","recordStatus":"Addition","latitude":54.55238,"longitude":-1.292918,"postcodeStart":"TS17 7","postcode":["TS17","7JP"]}
{"price":18600,"dateOfTransfer":"1996-02-12T00:00:00","postcodeFull":"TS17 7ED","propertyType":"Terraced","oldOrNew":"New build","duration":"Freehold","paon":"9","saon":"","street":"CRANWORTH GREEN","locality":"THORNABY","townOrCity":"STOCKTON-ON-TEES","district":"STOCKTON-ON-TEES","county":"STOCKTON-ON-TEES","ppdCategoryType":"Standard","recordStatus":"Addition","latitude":54.555552,"longitude":-1.29744,"postcodeStart":"TS17 7","postcode":["TS17","7ED"]}
{"price":28500,"dateOfTransfer":"1996-05-29T00:00:00","postcodeFull":"TS17 7HZ","propertyType":"Terraced","oldOrNew":"Established","duration":"Freehold","paon":"101","saon":"","street":"MANSFIELD AVENUE","locality":"THORNABY","townOrCity":"STOCKTON-ON-TEES","district":"STOCKTON-ON-TEES","county":"STOCKTON-ON-TEES","ppdCategoryType":"Standard","recordStatus":"Addition","latitude":54.55332,"longitude":-1.296937,"postcodeStart":"TS17 7","postcode":["TS17","7HZ"]}
{"price":31950,"dateOfTransfer":"1996-03-22T00:00:00","postcodeFull":"TS17 7JG","propertyType":"Semi-detached","oldOrNew":"Established","duration":"Freehold","paon":"5","saon":"","street":"IMPERIAL AVENUE","locality":"THORNABY","townOrCity":"STOCKTON-ON-TEES","district":"STOCKTON-ON-TEES","county":"STOCKTON-ON-TEES","ppdCategoryType":"Standard","recordStatus":"Addition","latitude":54.551925,"longitude":-1.294982,"postcodeStart":"TS17 7","postcode":["TS17","7JG"]}
{"price":18950,"dateOfTransfer":"1996-11-01T00:00:00","postcodeFull":"TS17 7ES","propertyType":"Terraced","oldOrNew":"Established","duration":"Freehold","paon":"6","saon":"","street":"TEESDALE TERRACE","locality":"THORNABY","townOrCity":"STOCKTON-ON-TEES","district":"STOCKTON-ON-TEES","county":"STOCKTON-ON-TEES","ppdCategoryType":"Standard","recordStatus":"Addition","latitude":54.554257,"longitude":-1.295668,"postcodeStart":"TS17 7","postcode":["TS17","7ES"]}
{"price":27000,"dateOfTransfer":"1996-05-17T00:00:00","postcodeFull":"TS17 7HY","propertyType":"Terraced","oldOrNew":"Established","duration":"Freehold","paon":"9","saon":"","street":"SALISBURY STREET","locality":"THORNABY","townOrCity":"STOCKTON-ON-TEES","district":"STOCKTON-ON-TEES","county":"STOCKTON-ON-TEES","ppdCategoryType":"Standard","recordStatus":"Addition","latitude":54.553252,"longitude":-1.297557,"postcodeStart":"TS17 7","postcode":["TS17","7HY"]}
{"price":12500,"dateOfTransfer":"1996-04-12T00:00:00","postcodeFull":"TS17 7ES","propertyType":"Terraced","oldOrNew":"Established","duration":"Freehold","paon":"19","saon":"","street":"TEESDALE TERRACE","locality":"THORNABY","townOrCity":"STOCKTON-ON-TEES","district":"STOCKTON-ON-TEES","county":"STOCKTON-ON-TEES","ppdCategoryType":"Standard","recordStatus":"Addition","latitude":54.554257,"longitude":-1.295668,"postcodeStart":"TS17 7","postcode":["TS17","7ES"]}
{"price":21000,"dateOfTransfer":"1996-01-16T00:00:00","postcodeFull":"TS17 7HX","propertyType":"Terraced","oldOrNew":"Established","duration":"Freehold","paon":"7","saon":"","street":"CHELTENHAM AVENUE","locality":"THORNABY","townOrCity":"STOCKTON-ON-TEES","district":"STOCKTON-ON-TEES","county":"STOCKTON-ON-TEES","ppdCategoryType":"Standard","recordStatus":"Addition","latitude":54.552616,"longitude":-1.29783,"postcodeStart":"TS17 7","postcode":["TS17","7HX"]}
{"price":14000,"dateOfTransfer":"1996-04-04T00:00:00","postcodeFull":"TS17 7EG","propertyType":"Terraced","oldOrNew":"Established","duration":"Freehold","paon":"45","saon":"","street":"MANSFIELD AVENUE","locality":"THORNABY","townOrCity":"STOCKTON-ON-TEES","district":"STOCKTON-ON-TEES","county":"STOCKTON-ON-TEES","ppdCategoryType":"Standard","recordStatus":"Addition","latitude":54.555386,"longitude":-1.296608,"postcodeStart":"TS17 7","postcode":["TS17","7EG"]}
{"price":18000,"dateOfTransfer":"1996-02-15T00:00:00","postcodeFull":"TS17 7HQ","propertyType":"Terraced","oldOrNew":"Established","duration":"Freehold","paon":"75","saon":"","street":"MANSFIELD AVENUE","locality":"THORNABY","townOrCity":"STOCKTON-ON-TEES","district":"STOCKTON-ON-TEES","county":"STOCKTON-ON-TEES","ppdCategoryType":"Standard","recordStatus":"Addition","latitude":54.554289,"longitude":-1.296565,"postcodeStart":"TS17 7","postcode":["TS17","7HQ"]}
{"price":23500,"dateOfTransfer":"1996-11-22T00:00:00","postcodeFull":"TS17 7HQ","propertyType":"Terraced","oldOrNew":"Established","duration":"Freehold","paon":"71","saon":"","street":"MANSFIELD AVENUE","locality":"THORNABY","townOrCity":"STOCKTON-ON-TEES","district":"STOCKTON-ON-TEES","county":"STOCKTON-ON-TEES","ppdCategoryType":"Standard","recordStatus":"Addition","latitude":54.554289,"longitude":-1.296565,"postcodeStart":"TS17 7","postcode":["TS17","7HQ"]}
{"price":28000,"dateOfTransfer":"1996-08-16T00:00:00","postcodeFull":"TS17 7JL","propertyType":"Terraced","oldOrNew":"Established","duration":"Freehold","paon":"5","saon":"","street":"ELLERBURNE STREET","locality":"THORNABY","townOrCity":"STOCKTON-ON-TEES","district":"STOCKTON-ON-TEES","county":"STOCKTON-ON-TEES","ppdCategoryType":"Standard","recordStatus":"Addition","latitude":54.553432,"longitude":-1.295495,"postcodeStart":"TS17 7","postcode":["TS17","7JL"]}
{"price":49500,"dateOfTransfer":"1996-08-01T00:00:00","postcodeFull":"TS17 7HZ","propertyType":"Semi-detached","oldOrNew":"Established","duration":"Freehold","paon":"100","saon":"","street":"MANSFIELD AVENUE","locality":"THORNABY","townOrCity":"STOCKTON-ON-TEES","district":"STOCKTON-ON-TEES","county":"STOCKTON-ON-TEES","ppdCategoryType":"Standard","recordStatus":"Addition","latitude":54.55332,"longitude":-1.296937,"postcodeStart":"TS17 7","postcode":["TS17","7HZ"]}
{"price":11650,"dateOfTransfer":"1996-06-25T00:00:00","postcodeFull":"TS17 7DQ","propertyType":"Terraced","oldOrNew":"Established","duration":"Freehold","paon":"1","saon":"","street":"EASTON STREET","locality":"THORNABY","townOrCity":"STOCKTON-ON-TEES","district":"STOCKTON-ON-TEES","county":"STOCKTON-ON-TEES","ppdCategoryType":"Standard","recordStatus":"Addition","latitude":54.554257,"longitude":-1.297184,"postcodeStart":"TS17 7","postcode":["TS17","7DQ"]}
{"price":30000,"dateOfTransfer":"1996-02-16T00:00:00","postcodeFull":"TS17 7JN","propertyType":"Terraced","oldOrNew":"Established","duration":"Freehold","paon":"43","saon":"","street":"PARK AVENUE","locality":"THORNABY","townOrCity":"STOCKTON-ON-TEES","district":"STOCKTON-ON-TEES","county":"STOCKTON-ON-TEES","ppdCategoryType":"Standard","recordStatus":"Addition","latitude":54.55291,"longitude":-1.294362,"postcodeStart":"TS17 7","postcode":["TS17","7JN"]}
{"price":28695,"dateOfTransfer":"1996-04-26T00:00:00","postcodeFull":"TS17 7HY","propertyType":"Terraced","oldOrNew":"Established","duration":"Freehold","paon":"26","saon":"","street":"SALISBURY STREET","locality":"THORNABY","townOrCity":"STOCKTON-ON-TEES","district":"STOCKTON-ON-TEES","county":"STOCKTON-ON-TEES","ppdCategoryType":"Standard","recordStatus":"Addition","latitude":54.553252,"longitude":-1.297557,"postcodeStart":"TS17 7","postcode":["TS17","7HY"]}
{"price":11000,"dateOfTransfer":"1996-06-07T00:00:00","postcodeFull":"TS17 7ES","propertyType":"Terraced","oldOrNew":"Established","duration":"Freehold","paon":"26","saon":"","street":"TEESDALE TERRACE","locality":"THORNABY","townOrCity":"STOCKTON-ON-TEES","district":"STOCKTON-ON-TEES","county":"STOCKTON-ON-TEES","ppdCategoryType":"Standard","recordStatus":"Addition","latitude":54.554257,"longitude":-1.295668,"postcodeStart":"TS17 7","postcode":["TS17","7ES"]}
{"price":40950,"dateOfTransfer":"1996-10-25T00:00:00","postcodeFull":"TS17 7JD","propertyType":"Semi-detached","oldOrNew":"Established","duration":"Freehold","paon":"34","saon":"","street":"BARKER ROAD","locality":"THORNABY","townOrCity":"STOCKTON-ON-TEES","district":"STOCKTON-ON-TEES","county":"STOCKTON-ON-TEES","ppdCategoryType":"Standard","recordStatus":"Addition","latitude":54.551588,"longitude":-1.297338,"postcodeStart":"TS17 7","postcode":["TS17","7JD"]}
{"price":21000,"dateOfTransfer":"1996-09-13T00:00:00","postcodeFull":"TS17 7HA","propertyType":"Terraced","oldOrNew":"Established","duration":"Freehold","paon":"18","saon":"","street":"HESLOP STREET","locality":"THORNABY","townOrCity":"STOCKTON-ON-TEES","district":"STOCKTON-ON-TEES","county":"STOCKTON-ON-TEES","ppdCategoryType":"Standard","recordStatus":"Addition","latitude":54.554305,"longitude":-1.294616,"postcodeStart":"TS17 7","postcode":["TS17","7HA"]}
{"price":30000,"dateOfTransfer":"1996-05-31T00:00:00","postcodeFull":"TS17 7HU","propertyType":"Terraced","oldOrNew":"Established","duration":"Freehold","paon":"3","saon":"","street":"CAMELON STREET","locality":"THORNABY","townOrCity":"STOCKTON-ON-TEES","district":"STOCKTON-ON-TEES","county":"STOCKTON-ON-TEES","ppdCategoryType":"Standard","recordStatus":"Addition","latitude":54.552228,"longitude":-1.297682,"postcodeStart":"TS17 7","postcode":["TS17","7HU"]}
{"price":42950,"dateOfTransfer":"1996-01-26T00:00:00","postcodeFull":"TS17 7JD","propertyType":"Semi-detached","oldOrNew":"Established","duration":"Freehold","paon":"37","saon":"","street":"BARKER ROAD","locality":"THORNABY","townOrCity":"STOCKTON-ON-TEES","district":"STOCKTON-ON-TEES","county":"STOCKTON-ON-TEES","ppdCategoryType":"Standard","recordStatus":"Addition","latitude":54.551588,"longitude":-1.297338,"postcodeStart":"TS17 7","postcode":["TS17","7JD"]}
{"price":48500,"dateOfTransfer":"1996-05-17T00:00:00","postcodeFull":"TS17 7JD","propertyType":"Semi-detached","oldOrNew":"Established","duration":"Freehold","paon":"29","saon":"","street":"BARKER ROAD","locality":"THORNABY","townOrCity":"STOCKTON-ON-TEES","district":"STOCKTON-ON-TEES","county":"STOCKTON-ON-TEES","ppdCategoryType":"Standard","recordStatus":"Addition","latitude":54.551588,"longitude":-1.297338,"postcodeStart":"TS17 7","postcode":["TS17","7JD"]}
{"price":25000,"dateOfTransfer":"1996-08-05T00:00:00","postcodeFull":"TS17 7HT","propertyType":"Terraced","oldOrNew":"Established","duration":"Freehold","paon":"25","saon":"","street":"FALKIRK STREET","locality":"THORNABY","townOrCity":"STOCKTON-ON-TEES","district":"STOCKTON-ON-TEES","county":"STOCKTON-ON-TEES","ppdCategoryType":"Standard","recordStatus":"Addition","latitude":54.552058,"longitude":-1.297763,"postcodeStart":"TS17 7","postcode":["TS17","7HT"]}
{"price":29000,"dateOfTransfer":"1996-02-29T00:00:00","postcodeFull":"TS17 7HF","propertyType":"Terraced","oldOrNew":"Established","duration":"Freehold","paon":"80","saon":"","street":"LANGLEY AVENUE","locality":"THORNABY","townOrCity":"STOCKTON-ON-TEES","district":"STOCKTON-ON-TEES","county":"STOCKTON-ON-TEES","ppdCategoryType":"Standard","recordStatus":"Addition","latitude":54.553869,"longitude":-1.293943,"postcodeStart":"TS17 7","postcode":["TS17","7HF"]}
{"price":40500,"dateOfTransfer":"1996-07-12T00:00:00","postcodeFull":"TS17 7JP","propertyType":"Semi-detached","oldOrNew":"Established","duration":"Freehold","paon":"20","saon":"","street":"BALMORAL AVENUE","locality":"THORNABY","townOrCity":"STOCKTON-ON-TEES","district":"STOCKTON-ON-TEES","county":"STOCKTON-ON-TEES","ppdCategoryType":"Standard","recordStatus":"Addition","latitude":54.55238,"longitude":-1.292918,"postcodeStart":"TS17 7","postcode":["TS17","7JP"]}
{"price":12500,"dateOfTransfer":"1996-04-12T00:00:00","postcodeFull":"TS17 7ES","propertyType":"Terraced","oldOrNew":"Established","duration":"Freehold","paon":"17","saon":"","street":"TEESDALE TERRACE","locality":"THORNABY","townOrCity":"STOCKTON-ON-TEES","district":"STOCKTON-ON-TEES","county":"STOCKTON-ON-TEES","ppdCategoryType":"Standard","recordStatus":"Addition","latitude":54.554257,"longitude":-1.295668,"postcodeStart":"TS17 7","postcode":["TS17","7ES"]}
{"price":41000,"dateOfTransfer":"1996-12-13T00:00:00","postcodeFull":"TS17 7JD","propertyType":"Semi-detached","oldOrNew":"Established","duration":"Freehold","paon":"28","saon":"","street":"BARKER ROAD","locality":"THORNABY","townOrCity":"STOCKTON-ON-TEES","district":"STOCKTON-ON-TEES","county":"STOCKTON-ON-TEES","ppdCategoryType":"Standard","recordStatus":"Addition","latitude":54.551588,"longitude":-1.297338,"postcodeStart":"TS17 7","postcode":["TS17","7JD"]}
{"price":45500,"dateOfTransfer":"1996-07-19T00:00:00","postcodeFull":"TS17 7JN","propertyType":"Semi-detached","oldOrNew":"Established","duration":"Freehold","paon":"20","saon":"","street":"PARK AVENUE","locality":"THORNABY","townOrCity":"STOCKTON-ON-TEES","district":"STOCKTON-ON-TEES","county":"STOCKTON-ON-TEES","ppdCategoryType":"Standard","recordStatus":"Addition","latitude":54.55291,"longitude":-1.294362,"postcodeStart":"TS17 7","postcode":["TS17","7JN"]}
{"price":29000,"dateOfTransfer":"1996-07-05T00:00:00","postcodeFull":"TS17 7HT","propertyType":"Terraced","oldOrNew":"Established","duration":"Freehold","paon":"16","saon":"","street":"FALKIRK STREET","locality":"THORNABY","townOrCity":"STOCKTON-ON-TEES","district":"STOCKTON-ON-TEES","county":"STOCKTON-ON-TEES","ppdCategoryType":"Standard","recordStatus":"Addition","latitude":54.552058,"longitude":-1.297763,"postcodeStart":"TS17 7","postcode":["TS17","7HT"]}
{"price":30000,"dateOfTransfer":"1996-11-22T00:00:00","postcodeFull":"TS17 7BD","propertyType":"Semi-detached","oldOrNew":"Established","duration":"Freehold","paon":"69","saon":"","street":"ACKLAM ROAD","locality":"THORNABY","townOrCity":"STOCKTON-ON-TEES","district":"STOCKTON-ON-TEES","county":"STOCKTON-ON-TEES","ppdCategoryType":"Standard","recordStatus":"Addition","latitude":54.555304,"longitude":-1.293316,"postcodeStart":"TS17 7","postcode":["TS17","7BD"]}
{"price":28000,"dateOfTransfer":"1996-05-10T00:00:00","postcodeFull":"TS17 7JA","propertyType":"Terraced","oldOrNew":"Established","duration":"Freehold","paon":"116","saon":"","street":"MANSFIELD AVENUE","locality":"THORNABY","townOrCity":"STOCKTON-ON-TEES","district":"STOCKTON-ON-TEES","county":"STOCKTON-ON-TEES","ppdCategoryType":"Standard","recordStatus":"Addition","latitude":54.552538,"longitude":-1.296904,"postcodeStart":"TS17 7","postcode":["TS17","7JA"]}
{"price":29500,"dateOfTransfer":"1996-06-07T00:00:00","postcodeFull":"TS17 7JB","propertyType":"Semi-detached","oldOrNew":"Established","duration":"Freehold","paon":"127","saon":"","street":"MANSFIELD AVENUE","locality":"THORNABY","townOrCity":"STOCKTON-ON-TEES","district":"STOCKTON-ON-TEES","county":"STOCKTON-ON-TEES","ppdCategoryType":"Standard","recordStatus":"Addition","latitude":54.552068,"longitude":-1.296356,"postcodeStart":"TS17 7","postcode":["TS17","7JB"]}
{"price":33000,"dateOfTransfer":"1996-11-28T00:00:00","postcodeFull":"TS17 7JF","propertyType":"Semi-detached","oldOrNew":"Established","duration":"Freehold","paon":"15","saon":"","street":"THE AVENUE","locality":"THORNABY","townOrCity":"STOCKTON-ON-TEES","district":"STOCKTON-ON-TEES","county":"STOCKTON-ON-TEES","ppdCategoryType":"Standard","recordStatus":"Addition","latitude":54.552074,"longitude":-1.295923,"postcodeStart":"TS17 7","postcode":["TS17","7JF"]}
{"price":38000,"dateOfTransfer":"1997-05-09T00:00:00","postcodeFull":"TS17 7JW","propertyType":"Semi-detached","oldOrNew":"Established","duration":"Freehold","paon":"1","saon":"","street":"SANDRINGHAM ROAD","locality":"THORNABY","townOrCity":"STOCKTON-ON-TEES","district":"STOCKTON-ON-TEES","county":"STOCKTON-ON-TEES","ppdCategoryType":"Standard","recordStatus":"Addition","latitude":54.551844,"longitude":-1.293468,"postcodeStart":"TS17 7","postcode":["TS17","7JW"]}
{"price":17300,"dateOfTransfer":"1997-07-31T00:00:00","postcodeFull":"TS17 7HY","propertyType":"Terraced","oldOrNew":"Established","duration":"Freehold","paon":"26","saon":"","street":"SALISBURY STREET","locality":"THORNABY","townOrCity":"STOCKTON-ON-TEES","district":"STOCKTON-ON-TEES","county":"STOCKTON-ON-TEES","ppdCategoryType":"Standard","recordStatus":"Addition","latitude":54.553252,"longitude":-1.297557,"postcodeStart":"TS17 7","postcode":["TS17","7HY"]}
{"price":40000,"dateOfTransfer":"1997-09-30T00:00:00","postcodeFull":"TS17 7JT","propertyType":"Semi-detached","oldOrNew":"Established","duration":"Freehold","paon":"115","saon":"","street":"ACKLAM ROAD","locality":"THORNABY","townOrCity":"STOCKTON-ON-TEES","district":"STOCKTON-ON-TEES","county":"STOCKTON-ON-TEES","ppdCategoryType":"Standard","recordStatus":"Addition","latitude":54.551451,"longitude":-1.287739,"postcodeStart":"TS17 7","postcode":["TS17","7JT"]}
{"price":33000,"dateOfTransfer":"1997-08-29T00:00:00","postcodeFull":"TS17 7JE","propertyType":"Semi-detached","oldOrNew":"Established","duration":"Freehold","paon":"5","saon":"","street":"BARKER ROAD","locality":"THORNABY","townOrCity":"STOCKTON-ON-TEES","district":"STOCKTON-ON-TEES","county":"STOCKTON-ON-TEES","ppdCategoryType":"Standard","recordStatus":"Addition","latitude":54.551345,"longitude":-1.295734,"postcodeStart":"TS17 7","postcode":["TS17","7JE"]}
{"price":21500,"dateOfTransfer":"1997-12-16T00:00:00","postcodeFull":"TS17 7BZ","propertyType":"Terraced","oldOrNew":"Established","duration":"Freehold","paon":"23","saon":"","street":"LANGLEY AVENUE","locality":"THORNABY","townOrCity":"STOCKTON-ON-TEES","district":"STOCKTON-ON-TEES","county":"STOCKTON-ON-TEES","ppdCategoryType":"Standard","recordStatus":"Addition","latitude":54.553611,"longitude":-1.297396,"postcodeStart":"TS17 7","postcode":["TS17","7BZ"]}
{"price":48500,"dateOfTransfer":"1997-02-21T00:00:00","postcodeFull":"TS17 7JP","propertyType":"Semi-detached","oldOrNew":"Established","duration":"Freehold","paon":"10","saon":"","street":"BALMORAL AVENUE","locality":"THORNABY","townOrCity":"STOCKTON-ON-TEES","district":"STOCKTON-ON-TEES","county":"STOCKTON-ON-TEES","ppdCategoryType":"Standard","recordStatus":"Addition","latitude":54.55238,"longitude":-1.292918,"postcodeStart":"TS17 7","postcode":["TS17","7JP"]}
{"price":25500,"dateOfTransfer":"1997-09-26T00:00:00","postcodeFull":"TS17 7JA","propertyType":"Terraced","oldOrNew":"Established","duration":"Freehold","paon":"114","saon":"","street":"MANSFIELD AVENUE","locality":"THORNABY","townOrCity":"STOCKTON-ON-TEES","district":"STOCKTON-ON-TEES","county":"STOCKTON-ON-TEES","ppdCategoryType":"Standard","recordStatus":"Addition","latitude":54.552538,"longitude":-1.296904,"postcodeStart":"TS17 7","postcode":["TS17","7JA"]}
{"price":16000,"dateOfTransfer":"1997-12-23T00:00:00","postcodeFull":"TS17 7HX","propertyType":"Terraced","oldOrNew":"Established","duration":"Freehold","paon":"25","saon":"","street":"CHELTENHAM AVENUE","locality":"THORNABY","townOrCity":"STOCKTON-ON-TEES","district":"STOCKTON-ON-TEES","county":"STOCKTON-ON-TEES","ppdCategoryType":"Standard","recordStatus":"Addition","latitude":54.552616,"longitude":-1.29783,"postcodeStart":"TS17 7","postcode":["TS17","7HX"]}
{"price":12000,"dateOfTransfer":"1997-08-21T00:00:00","postcodeFull":"TS17 7HG","propertyType":"Terraced","oldOrNew":"Established","duration":"Freehold","paon":"64","saon":"","street":"LANGLEY AVENUE","locality":"THORNABY","townOrCity":"STOCKTON-ON-TEES","district":"STOCKTON-ON-TEES","county":"STOCKTON-ON-TEES","ppdCategoryType":"Standard","recordStatus":"Addition","latitude":54.553816,"longitude":-1.295676,"postcodeStart":"TS17 7","postcode":["TS17","7HG"]}
{"price":27000,"dateOfTransfer":"1997-07-22T00:00:00","postcodeFull":"TS17 7HU","propertyType":"Terraced","oldOrNew":"Established","duration":"Freehold","paon":"24","saon":"","street":"CAMELON STREET","locality":"THORNABY","townOrCity":"STOCKTON-ON-TEES","district":"STOCKTON-ON-TEES","county":"STOCKTON-ON-TEES","ppdCategoryType":"Standard","recordStatus":"Addition","latitude":54.552228,"longitude":-1.297682,"postcodeStart":"TS17 7","postcode":["TS17","7HU"]}
{"price":23000,"dateOfTransfer":"1997-11-20T00:00:00","postcodeFull":"TS17 7JH","propertyType":"Semi-detached","oldOrNew":"Established","duration":"Freehold","paon":"15","saon":"","street":"BELVEDERE ROAD","locality":"THORNABY","townOrCity":"STOCKTON-ON-TEES","district":"STOCKTON-ON-TEES","county":"STOCKTON-ON-TEES","ppdCategoryType":"Standard","recordStatus":"Addition","latitude":54.551612,"longitude":-1.29374,"postcodeStart":"TS17 7","postcode":["TS17","7JH"]}
{"price":58000,"dateOfTransfer":"1997-07-18T00:00:00","postcodeFull":"TS17 7JT","propertyType":"Semi-detached","oldOrNew":"Established","duration":"Freehold","paon":"105","saon":"","street":"ACKLAM ROAD","locality":"THORNABY","townOrCity":"STOCKTON-ON-TEES","district":"STOCKTON-ON-TEES","county":"STOCKTON-ON-TEES","ppdCategoryType":"Standard","recordStatus":"Addition","latitude":54.551451,"longitude":-1.287739,"postcodeStart":"TS17 7","postcode":["TS17","7JT"]}
{"price":18500,"dateOfTransfer":"1997-05-30T00:00:00","postcodeFull":"TS17 7HS","propertyType":"Terraced","oldOrNew":"Established","duration":"Freehold","paon":"68","saon":"","street":"ROSEBERRY VIEW","locality":"THORNABY","townOrCity":"STOCKTON-ON-TEES","district":"STOCKTON-ON-TEES","county":"STOCKTON-ON-TEES","ppdCategoryType":"Standard","recordStatus":"Addition","latitude":54.552198,"longitude":-1.298642,"postcodeStart":"TS17 7","postcode":["TS17","7HS"]}
{"price":42000,"dateOfTransfer":"1997-06-30T00:00:00","postcodeFull":"TS17 7JP","propertyType":"Semi-detached","oldOrNew":"Established","duration":"Freehold","paon":"30","saon":"","street":"BALMORAL AVENUE","locality":"THORNABY","townOrCity":"STOCKTON-ON-TEES","district":"STOCKTON-ON-TEES","county":"STOCKTON-ON-TEES","ppdCategoryType":"Standard","recordStatus":"Addition","latitude":54.55238,"longitude":-1.292918,"postcodeStart":"TS17 7","postcode":["TS17","7JP"]}
{"price":21995,"dateOfTransfer":"1997-07-07T00:00:00","postcodeFull":"TS17 7HY","propertyType":"Semi-detached","oldOrNew":"Established","duration":"Freehold","paon":"23","saon":"","street":"SALISBURY STREET","locality":"THORNABY","townOrCity":"STOCKTON-ON-TEES","district":"STOCKTON-ON-TEES","county":"STOCKTON-ON-TEES","ppdCategoryType":"Standard","recordStatus":"Addition","latitude":54.553252,"longitude":-1.297557,"postcodeStart":"TS17 7","postcode":["TS17","7HY"]}
{"price":43500,"dateOfTransfer":"1997-10-24T00:00:00","postcodeFull":"TS17 7JN","propertyType":"Semi-detached","oldOrNew":"Established","duration":"Freehold","paon":"8","saon":"","street":"PARK AVENUE","locality":"THORNABY","townOrCity":"STOCKTON-ON-TEES","district":"STOCKTON-ON-TEES","county":"STOCKTON-ON-TEES","ppdCategoryType":"Standard","recordStatus":"Addition","latitude":54.55291,"longitude":-1.294362,"postcodeStart":"TS17 7","postcode":["TS17","7JN"]}
{"price":10000,"dateOfTransfer":"1997-03-17T00:00:00","postcodeFull":"TS17 7HS","propertyType":"Terraced","oldOrNew":"Established","duration":"Freehold","paon":"42","saon":"","street":"ROSEBERRY VIEW","locality":"THORNABY","townOrCity":"STOCKTON-ON-TEES","district":"STOCKTON-ON-TEES","county":"STOCKTON-ON-TEES","ppdCategoryType":"Standard","recordStatus":"Addition","latitude":54.552198,"longitude":-1.298642,"postcodeStart":"TS17 7","postcode":["TS17","7HS"]}
{"price":39950,"dateOfTransfer":"1997-03-14T00:00:00","postcodeFull":"TS17 7JN","propertyType":"Semi-detached","oldOrNew":"Established","duration":"Freehold","paon":"14","saon":"","street":"PARK AVENUE","locality":"THORNABY","townOrCity":"STOCKTON-ON-TEES","district":"STOCKTON-ON-TEES","county":"STOCKTON-ON-TEES","ppdCategoryType":"Standard","recordStatus":"Addition","latitude":54.55291,"longitude":-1.294362,"postcodeStart":"TS17 7","postcode":["TS17","7JN"]}
{"price":38000,"dateOfTransfer":"1997-07-03T00:00:00","postcodeFull":"TS17 7JD","propertyType":"Semi-detached","oldOrNew":"Established","duration":"Freehold","paon":"24","saon":"","street":"BARKER ROAD","locality":"THORNABY","townOrCity":"STOCKTON-ON-TEES","district":"STOCKTON-ON-TEES","county":"STOCKTON-ON-TEES","ppdCategoryType":"Standard","recordStatus":"Addition","latitude":54.551588,"longitude":-1.297338,"postcodeStart":"TS17 7","postcode":["TS17","7JD"]}
{"price":21000,"dateOfTransfer":"1997-07-01T00:00:00","postcodeFull":"TS17 7HS","propertyType":"Terraced","oldOrNew":"Established","duration":"Freehold","paon":"62","saon":"","street":"ROSEBERRY VIEW","locality":"THORNABY","townOrCity":"STOCKTON-ON-TEES","district":"STOCKTON-ON-TEES","county":"STOCKTON-ON-TEES","ppdCategoryType":"Standard","recordStatus":"Addition","latitude":54.552198,"longitude":-1.298642,"postcodeStart":"TS17 7","postcode":["TS17","7HS"]}
{"price":27000,"dateOfTransfer":"1997-06-30T00:00:00","postcodeFull":"TS17 7HA","propertyType":"Terraced","oldOrNew":"Established","duration":"Freehold","paon":"21","saon":"","street":"HESLOP STREET","locality":"THORNABY","townOrCity":"STOCKTON-ON-TEES","district":"STOCKTON-ON-TEES","county":"STOCKTON-ON-TEES","ppdCategoryType":"Standard","recordStatus":"Addition","latitude":54.554305,"longitude":-1.294616,"postcodeStart":"TS17 7","postcode":["TS17","7HA"]}
{"price":28000,"dateOfTransfer":"1997-11-28T00:00:00","postcodeFull":"TS17 7JL","propertyType":"Terraced","oldOrNew":"Established","duration":"Freehold","paon":"15","saon":"","street":"ELLERBURNE STREET","locality":"THORNABY","townOrCity":"STOCKTON-ON-TEES","district":"STOCKTON-ON-TEES","county":"STOCKTON-ON-TEES","ppdCategoryType":"Standard","recordStatus":"Addition","latitude":54.553432,"longitude":-1.295495,"postcodeStart":"TS17 7","postcode":["TS17","7JL"]}
{"price":13500,"dateOfTransfer":"1997-04-04T00:00:00","postcodeFull":"TS17 7HG","propertyType":"Terraced","oldOrNew":"Established","duration":"Freehold","paon":"72","saon":"","street":"LANGLEY AVENUE","locality":"THORNABY","townOrCity":"STOCKTON-ON-TEES","district":"STOCKTON-ON-TEES","county":"STOCKTON-ON-TEES","ppdCategoryType":"Standard","recordStatus":"Addition","latitude":54.553816,"longitude":-1.295676,"postcodeStart":"TS17 7","postcode":["TS17","7HG"]}
{"price":18500,"dateOfTransfer":"1997-01-10T00:00:00","postcodeFull":"TS17 7HA","propertyType":"Terraced","oldOrNew":"Established","duration":"Freehold","paon":"15","saon":"","street":"HESLOP STREET","locality":"THORNABY","townOrCity":"STOCKTON-ON-TEES","district":"STOCKTON-ON-TEES","county":"STOCKTON-ON-TEES","ppdCategoryType":"Standard","recordStatus":"Addition","latitude":54.554305,"longitude":-1.294616,"postcodeStart":"TS17 7","postcode":["TS17","7HA"]}
{"price":41000,"dateOfTransfer":"1997-07-04T00:00:00","postcodeFull":"TS17 7JN","propertyType":"Terraced","oldOrNew":"Established","duration":"Freehold","paon":"33","saon":"","street":"PARK AVENUE","locality":"THORNABY","townOrCity":"STOCKTON-ON-TEES","district":"STOCKTON-ON-TEES","county":"STOCKTON-ON-TEES","ppdCategoryType":"Standard","recordStatus":"Addition","latitude":54.55291,"longitude":-1.294362,"postcodeStart":"TS17 7","postcode":["TS17","7JN"]}
{"price":7500,"dateOfTransfer":"1997-09-12T00:00:00","postcodeFull":"TS17 7ES","propertyType":"Terraced","oldOrNew":"Established","duration":"Freehold","paon":"27","saon":"","street":"TEESDALE TERRACE","locality":"THORNABY","townOrCity":"STOCKTON-ON-TEES","district":"STOCKTON-ON-TEES","county":"STOCKTON-ON-TEES","ppdCategoryType":"Standard","recordStatus":"Addition","latitude":54.554257,"longitude":-1.295668,"postcodeStart":"TS17 7","postcode":["TS17","7ES"]}
{"price":42000,"dateOfTransfer":"1997-06-27T00:00:00","postcodeFull":"TS17 7BD","propertyType":"Terraced","oldOrNew":"Established","duration":"Freehold","paon":"47","saon":"","street":"ACKLAM ROAD","locality":"THORNABY","townOrCity":"STOCKTON-ON-TEES","district":"STOCKTON-ON-TEES","county":"STOCKTON-ON-TEES","ppdCategoryType":"Standard","recordStatus":"Addition","latitude":54.555304,"longitude":-1.293316,"postcodeStart":"TS17 7","postcode":["TS17","7BD"]}
{"price":31000,"dateOfTransfer":"1997-05-23T00:00:00","postcodeFull":"TS17 7HG","propertyType":"Semi-detached","oldOrNew":"Established","duration":"Freehold","paon":"57","saon":"","street":"LANGLEY AVENUE","locality":"THORNABY","townOrCity":"STOCKTON-ON-TEES","district":"STOCKTON-ON-TEES","county":"STOCKTON-ON-TEES","ppdCategoryType":"Standard","recordStatus":"Addition","latitude":54.553816,"longitude":-1.295676,"postcodeStart":"TS17 7","postcode":["TS17","7HG"]}
{"price":52500,"dateOfTransfer":"1998-03-27T00:00:00","postcodeFull":"TS17 7HZ","propertyType":"Semi-detached","oldOrNew":"Established","duration":"Freehold","paon":"100","saon":"","street":"MANSFIELD AVENUE","locality":"THORNABY","townOrCity":"STOCKTON-ON-TEES","district":"STOCKTON-ON-TEES","county":"STOCKTON-ON-TEES","ppdCategoryType":"Standard","recordStatus":"Addition","latitude":54.55332,"longitude":-1.296937,"postcodeStart":"TS17 7","postcode":["TS17","7HZ"]}
{"price":11000,"dateOfTransfer":"1998-04-27T00:00:00","postcodeFull":"TS17 7ES","propertyType":"Terraced","oldOrNew":"Established","duration":"Freehold","paon":"19","saon":"","street":"TEESDALE TERRACE","locality":"THORNABY","townOrCity":"STOCKTON-ON-TEES","district":"STOCKTON-ON-TEES","county":"STOCKTON-ON-TEES","ppdCategoryType":"Standard","recordStatus":"Addition","latitude":54.554257,"longitude":-1.295668,"postcodeStart":"TS17 7","postcode":["TS17","7ES"]}
{"price":14500,"dateOfTransfer":"1998-06-24T00:00:00","postcodeFull":"TS17 7EG","propertyType":"Terraced","oldOrNew":"Established","duration":"Freehold","paon":"51","saon":"","street":"MANSFIELD AVENUE","locality":"THORNABY","townOrCity":"STOCKTON-ON-TEES","district":"STOCKTON-ON-TEES","county":"STOCKTON-ON-TEES","ppdCategoryType":"Standard","recordStatus":"Addition","latitude":54.555386,"longitude":-1.296608,"postcodeStart":"TS17 7","postcode":["TS17","7EG"]}
{"price":19500,"dateOfTransfer":"1998-03-30T00:00:00","postcodeFull":"TS17 7HS","propertyType":"Terraced","oldOrNew":"Established","duration":"Freehold","paon":"66","saon":"","street":"ROSEBERRY VIEW","locality":"THORNABY","townOrCity":"STOCKTON-ON-TEES","district":"STOCKTON-ON-TEES","county":"STOCKTON-ON-TEES","ppdCategoryType":"Standard","recordStatus":"Addition","latitude":54.552198,"longitude":-1.298642,"postcodeStart":"TS17 7","postcode":["TS17","7HS"]}
{"price":27500,"dateOfTransfer":"1998-05-06T00:00:00","postcodeFull":"TS17 7HS","propertyType":"Terraced","oldOrNew":"Established","duration":"Freehold","paon":"64","saon":"","street":"ROSEBERRY VIEW","locality":"THORNABY","townOrCity":"STOCKTON-ON-TEES","district":"STOCKTON-ON-TEES","county":"STOCKTON-ON-TEES","ppdCategoryType":"Standard","recordStatus":"Addition","latitude":54.552198,"longitude":-1.298642,"postcodeStart":"TS17 7","postcode":["TS17","7HS"]}
{"price":28500,"dateOfTransfer":"1998-10-23T00:00:00","postcodeFull":"TS17 7JH","propertyType":"Terraced","oldOrNew":"Established","duration":"Freehold","paon":"8","saon":"","street":"BELVEDERE ROAD","locality":"THORNABY","townOrCity":"STOCKTON-ON-TEES","district":"STOCKTON-ON-TEES","county":"STOCKTON-ON-TEES","ppdCategoryType":"Standard","recordStatus":"Addition","latitude":54.551612,"longitude":-1.29374,"postcodeStart":"TS17 7","postcode":["TS17","7JH"]}
{"price":22500,"dateOfTransfer":"1998-04-30T00:00:00","postcodeFull":"TS17 7ET","propertyType":"Terraced","oldOrNew":"Established","duration":"Freehold","paon":"70","saon":"","street":"COBDEN STREET","locality":"THORNABY","townOrCity":"STOCKTON-ON-TEES","district":"STOCKTON-ON-TEES","county":"STOCKTON-ON-TEES","ppdCategoryType":"Standard","recordStatus":"Addition","latitude":54.55473,"longitude":-1.295196,"postcodeStart":"TS17 7","postcode":["TS17","7ET"]}
{"price":17500,"dateOfTransfer":"1998-11-06T00:00:00","postcodeFull":"TS17 7HP","propertyType":"Terraced","oldOrNew":"Established","duration":"Freehold","paon":"12","saon":"","street":"ROSEBERRY VIEW","locality":"THORNABY","townOrCity":"STOCKTON-ON-TEES","district":"STOCKTON-ON-TEES","county":"STOCKTON-ON-TEES","ppdCategoryType":"Standard","recordStatus":"Addition","latitude":54.553231,"longitude":-1.298516,"postcodeStart":"TS17 7","postcode":["TS17","7HP"]}
{"price":68500,"dateOfTransfer":"1998-09-18T00:00:00","postcodeFull":"TS17 7JT","propertyType":"Semi-detached","oldOrNew":"Established","duration":"Freehold","paon":"135","saon":"","street":"ACKLAM ROAD","locality":"THORNABY","townOrCity":"STOCKTON-ON-TEES","district":"STOCKTON-ON-TEES","county":"STOCKTON-ON-TEES","ppdCategoryType":"Standard","recordStatus":"Addition","latitude":54.551451,"longitude":-1.287739,"postcodeStart":"TS17 7","postcode":["TS17","7JT"]}
{"price":55000,"dateOfTransfer":"1998-03-06T00:00:00","postcodeFull":"TS17 7JH","propertyType":"Semi-detached","oldOrNew":"Established","duration":"Freehold","paon":"10","saon":"","street":"BELVEDERE ROAD","locality":"THORNABY","townOrCity":"STOCKTON-ON-TEES","district":"STOCKTON-ON-TEES","county":"STOCKTON-ON-TEES","ppdCategoryType":"Standard","recordStatus":"Addition","latitude":54.551612,"longitude":-1.29374,"postcodeStart":"TS17 7","postcode":["TS17","7JH"]}
{"price":31000,"dateOfTransfer":"1998-09-25T00:00:00","postcodeFull":"TS17 7JG","propertyType":"Semi-detached","oldOrNew":"Established","duration":"Freehold","paon":"23","saon":"","street":"IMPERIAL AVENUE","locality":"THORNABY","townOrCity":"STOCKTON-ON-TEES","district":"STOCKTON-ON-TEES","county":"STOCKTON-ON-TEES","ppdCategoryType":"Standard","recordStatus":"Addition","latitude":54.551925,"longitude":-1.294982,"postcodeStart":"TS17 7","postcode":["TS17","7JG"]}
{"price":40000,"dateOfTransfer":"1998-04-09T00:00:00","postcodeFull":"TS17 7JF","propertyType":"Semi-detached","oldOrNew":"Established","duration":"Freehold","paon":"4","saon":"","street":"THE AVENUE","locality":"THORNABY","townOrCity":"STOCKTON-ON-TEES","district":"STOCKTON-ON-TEES","county":"STOCKTON-ON-TEES","ppdCategoryType":"Standard","recordStatus":"Addition","latitude":54.552074,"longitude":-1.295923,"postcodeStart":"TS17 7","postcode":["TS17","7JF"]}
{"price":13760,"dateOfTransfer":"1998-02-09T00:00:00","postcodeFull":"TS17 7JP","propertyType":"Terraced","oldOrNew":"Established","duration":"Freehold","paon":"51","saon":"","street":"BALMORAL AVENUE","locality":"THORNABY","townOrCity":"STOCKTON-ON-TEES","district":"STOCKTON-ON-TEES","county":"STOCKTON-ON-TEES","ppdCategoryType":"Standard","recordStatus":"Addition","latitude":54.55238,"longitude":-1.292918,"postcodeStart":"TS17 7","postcode":["TS17","7JP"]}
{"price":11000,"dateOfTransfer":"1998-04-27T00:00:00","postcodeFull":"TS17 7ES","propertyType":"Terraced","oldOrNew":"Established","duration":"Freehold","paon":"17","saon":"","street":"TEESDALE TERRACE","locality":"THORNABY","townOrCity":"STOCKTON-ON-TEES","district":"STOCKTON-ON-TEES","county":"STOCKTON-ON-TEES","ppdCategoryType":"Standard","recordStatus":"Addition","latitude":54.554257,"longitude":-1.295668,"postcodeStart":"TS17 7","postcode":["TS17","7ES"]}
{"price":34995,"dateOfTransfer":"1998-09-25T00:00:00","postcodeFull":"TS17 7HZ","propertyType":"Semi-detached","oldOrNew":"Established","duration":"Freehold","paon":"103","saon":"","street":"MANSFIELD AVENUE","locality":"THORNABY","townOrCity":"STOCKTON-ON-TEES","district":"STOCKTON-ON-TEES","county":"STOCKTON-ON-TEES","ppdCategoryType":"Standard","recordStatus":"Addition","latitude":54.55332,"longitude":-1.296937,"postcodeStart":"TS17 7","postcode":["TS17","7HZ"]}
{"price":36000,"dateOfTransfer":"1998-02-13T00:00:00","postcodeFull":"TS17 7JG","propertyType":"Semi-detached","oldOrNew":"Established","duration":"Freehold","paon":"5","saon":"","street":"IMPERIAL AVENUE","locality":"THORNABY","townOrCity":"STOCKTON-ON-TEES","district":"STOCKTON-ON-TEES","county":"STOCKTON-ON-TEES","ppdCategoryType":"Standard","recordStatus":"Addition","latitude":54.551925,"longitude":-1.294982,"postcodeStart":"TS17 7","postcode":["TS17","7JG"]}
{"price":82000,"dateOfTransfer":"1998-01-30T00:00:00","postcodeFull":"TS17 7JT","propertyType":"Semi-detached","oldOrNew":"Established","duration":"Freehold","paon":"137","saon":"","street":"ACKLAM ROAD","locality":"THORNABY","townOrCity":"STOCKTON-ON-TEES","district":"STOCKTON-ON-TEES","county":"STOCKTON-ON-TEES","ppdCategoryType":"Standard","recordStatus":"Addition","latitude":54.551451,"longitude":-1.287739,"postcodeStart":"TS17 7","postcode":["TS17","7JT"]}
{"price":22500,"dateOfTransfer":"1998-07-21T00:00:00","postcodeFull":"TS17 7HG","propertyType":"Terraced","oldOrNew":"Established","duration":"Freehold","paon":"64","saon":"","street":"LANGLEY AVENUE","locality":"THORNABY","townOrCity":"STOCKTON-ON-TEES","district":"STOCKTON-ON-TEES","county":"STOCKTON-ON-TEES","ppdCategoryType":"Standard","recordStatus":"Addition","latitude":54.553816,"longitude":-1.295676,"postcodeStart":"TS17 7","postcode":["TS17","7HG"]}
{"price":14000,"dateOfTransfer":"1998-03-06T00:00:00","postcodeFull":"TS17 7HH","propertyType":"Terraced","oldOrNew":"Established","duration":"Freehold","paon":"80","saon":"","street":"MANSFIELD AVENUE","locality":"THORNABY","townOrCity":"STOCKTON-ON-TEES","district":"STOCKTON-ON-TEES","county":"STOCKTON-ON-TEES","ppdCategoryType":"Standard","recordStatus":"Addition","latitude":54.554345,"longitude":-1.296919,"postcodeStart":"TS17 7","postcode":["TS17","7HH"]}
{"price":15000,"dateOfTransfer":"1998-03-13T00:00:00","postcodeFull":"TS17 7HY","propertyType":"Terraced","oldOrNew":"Established","duration":"Freehold","paon":"11","saon":"","street":"SALISBURY STREET","locality":"THORNABY","townOrCity":"STOCKTON-ON-TEES","district":"STOCKTON-ON-TEES","county":"STOCKTON-ON-TEES","ppdCategoryType":"Standard","recordStatus":"Addition","latitude":54.553252,"longitude":-1.297557,"postcodeStart":"TS17 7","postcode":["TS17","7HY"]}
{"price":14000,"dateOfTransfer":"1998-10-05T00:00:00","postcodeFull":"TS17 7EG","propertyType":"Terraced","oldOrNew":"Established","duration":"Freehold","paon":"55","saon":"","street":"MANSFIELD AVENUE","locality":"THORNABY","townOrCity":"STOCKTON-ON-TEES","district":"STOCKTON-ON-TEES","county":"STOCKTON-ON-TEES","ppdCategoryType":"Standard","recordStatus":"Addition","latitude":54.555386,"longitude":-1.296608,"postcodeStart":"TS17 7","postcode":["TS17","7EG"]}
{"price":19470,"dateOfTransfer":"1998-10-12T00:00:00","postcodeFull":"TS17 7EW","propertyType":"Terraced","oldOrNew":"Established","duration":"Freehold","paon":"1","saon":"","street":"ANDERSON ROAD","locality":"THORNABY","townOrCity":"STOCKTON-ON-TEES","district":"STOCKTON-ON-TEES","county":"STOCKTON-ON-TEES","ppdCategoryType":"Standard","recordStatus":"Addition","latitude":54.555234,"longitude":-1.295265,"postcodeStart":"TS17 7","postcode":["TS17","7EW"]}
{"price":30000,"dateOfTransfer":"1998-04-17T00:00:00","postcodeFull":"TS17 7EP","propertyType":"Terraced","oldOrNew":"Established","duration":"Freehold","paon":"59","saon":"","street":"COBDEN STREET","locality":"THORNABY","townOrCity":"STOCKTON-ON-TEES","district":"STOCKTON-ON-TEES","county":"STOCKTON-ON-TEES","ppdCategoryType":"Standard","recordStatus":"Addition","latitude":54.554923,"longitude":-1.295858,"postcodeStart":"TS17 7","postcode":["TS17","7EP"]}
{"price":14000,"dateOfTransfer":"1998-03-17T00:00:00","postcodeFull":"TS17 7EG","propertyType":"Terraced","oldOrNew":"Established","duration":"Freehold","paon":"53","saon":"","street":"MANSFIELD AVENUE","locality":"THORNABY","townOrCity":"STOCKTON-ON-TEES","district":"STOCKTON-ON-TEES","county":"STOCKTON-ON-TEES","ppdCategoryType":"Standard","recordStatus":"Addition","latitude":54.555386,"longitude":-1.296608,"postcodeStart":"TS17 7","postcode":["TS17","7EG"]}
{"price":33950,"dateOfTransfer":"1998-07-03T00:00:00","postcodeFull":"TS17 7JB","propertyType":"Terraced","oldOrNew":"Established","duration":"Freehold","paon":"136","saon":"","street":"MANSFIELD AVENUE","locality":"THORNABY","townOrCity":"STOCKTON-ON-TEES","district":"STOCKTON-ON-TEES","county":"STOCKTON-ON-TEES","ppdCategoryType":"Standard","recordStatus":"Addition","latitude":54.552068,"longitude":-1.296356,"postcodeStart":"TS17 7","postcode":["TS17","7JB"]}
{"price":16500,"dateOfTransfer":"1998-04-29T00:00:00","postcodeFull":"TS17 7HX","propertyType":"Terraced","oldOrNew":"Established","duration":"Freehold","paon":"29","saon":"","street":"CHELTENHAM AVENUE","locality":"THORNABY","townOrCity":"STOCKTON-ON-TEES","district":"STOCKTON-ON-TEES","county":"STOCKTON-ON-TEES","ppdCategoryType":"Standard","recordStatus":"Addition","latitude":54.552616,"longitude":-1.29783,"postcodeStart":"TS17 7","postcode":["TS17","7HX"]}
{"price":32000,"dateOfTransfer":"1998-10-02T00:00:00","postcodeFull":"TS17 7BD","propertyType":"Semi-detached","oldOrNew":"Established","duration":"Freehold","paon":"67","saon":"","street":"ACKLAM ROAD","locality":"THORNABY","townOrCity":"STOCKTON-ON-TEES","district":"STOCKTON-ON-TEES","county":"STOCKTON-ON-TEES","ppdCategoryType":"Standard","recordStatus":"Addition","latitude":54.555304,"longitude":-1.293316,"postcodeStart":"TS17 7","postcode":["TS17","7BD"]}
{"price":41000,"dateOfTransfer":"1998-09-21T00:00:00","postcodeFull":"TS17 7JD","propertyType":"Semi-detached","oldOrNew":"Established","duration":"Freehold","paon":"26","saon":"","street":"BARKER ROAD","locality":"THORNABY","townOrCity":"STOCKTON-ON-TEES","district":"STOCKTON-ON-TEES","county":"STOCKTON-ON-TEES","ppdCategoryType":"Standard","recordStatus":"Addition","latitude":54.551588,"longitude":-1.297338,"postcodeStart":"TS17 7","postcode":["TS17","7JD"]}
{"price":28500,"dateOfTransfer":"1998-08-26T00:00:00","postcodeFull":"TS17 7ED","propertyType":"Terraced","oldOrNew":"Established","duration":"Freehold","paon":"7","saon":"","street":"CRANWORTH GREEN","locality":"THORNABY","townOrCity":"STOCKTON-ON-TEES","district":"STOCKTON-ON-TEES","county":"STOCKTON-ON-TEES","ppdCategoryType":"Standard","recordStatus":"Addition","latitude":54.555552,"longitude":-1.29744,"postcodeStart":"TS17 7","postcode":["TS17","7ED"]}
{"price":30000,"dateOfTransfer":"1998-06-26T00:00:00","postcodeFull":"TS17 7JB","propertyType":"Semi-detached","oldOrNew":"Established","duration":"Freehold","paon":"137","saon":"","street":"MANSFIELD AVENUE","locality":"THORNABY","townOrCity":"STOCKTON-ON-TEES","district":"STOCKTON-ON-TEES","county":"STOCKTON-ON-TEES","ppdCategoryType":"Standard","recordStatus":"Addition","latitude":54.552068,"longitude":-1.296356,"postcodeStart":"TS17 7","postcode":["TS17","7JB"]}
{"price":16995,"dateOfTransfer":"1998-04-03T00:00:00","postcodeFull":"TS17 7DQ","propertyType":"Terraced","oldOrNew":"Established","duration":"Freehold","paon":"26","saon":"","street":"EASTON STREET","locality":"THORNABY","townOrCity":"STOCKTON-ON-TEES","district":"STOCKTON-ON-TEES","county":"STOCKTON-ON-TEES","ppdCategoryType":"Standard","recordStatus":"Addition","latitude":54.554257,"longitude":-1.297184,"postcodeStart":"TS17 7","postcode":["TS17","7DQ"]}
{"price":26500,"dateOfTransfer":"1998-10-30T00:00:00","postcodeFull":"TS17 7HB","propertyType":"Terraced","oldOrNew":"Established","duration":"Freehold","paon":"9","saon":"","street":"ST LUKES AVENUE","locality":"THORNABY","townOrCity":"STOCKTON-ON-TEES","district":"STOCKTON-ON-TEES","county":"STOCKTON-ON-TEES","ppdCategoryType":"Standard","recordStatus":"Addition","latitude":54.554373,"longitude":-1.294058,"postcodeStart":"TS17 7","postcode":["TS17","7HB"]}
{"price":39000,"dateOfTransfer":"1998-10-23T00:00:00","postcodeFull":"TS17 7JB","propertyType":"Semi-detached","oldOrNew":"Established","duration":"Freehold","paon":"132","saon":"","street":"MANSFIELD AVENUE","locality":"THORNABY","townOrCity":"STOCKTON-ON-TEES","district":"STOCKTON-ON-TEES","county":"STOCKTON-ON-TEES","ppdCategoryType":"Standard","recordStatus":"Addition","latitude":54.552068,"longitude":-1.296356,"postcodeStart":"TS17 7","postcode":["TS17","7JB"]}
{"price":14000,"dateOfTransfer":"1998-12-10T00:00:00","postcodeFull":"TS17 7DQ","propertyType":"Terraced","oldOrNew":"Established","duration":"Freehold","paon":"25","saon":"","street":"EASTON STREET","locality":"THORNABY","townOrCity":"STOCKTON-ON-TEES","district":"STOCKTON-ON-TEES","county":"STOCKTON-ON-TEES","ppdCategoryType":"Standard","recordStatus":"Addition","latitude":54.554257,"longitude":-1.297184,"postcodeStart":"TS17 7","postcode":["TS17","7DQ"]}
{"price":35000,"dateOfTransfer":"1999-11-17T00:00:00","postcodeFull":"TS17 7JE","propertyType":"Semi-detached","oldOrNew":"Established","duration":"Freehold","paon":"11","saon":"","street":"BARKER ROAD","locality":"THORNABY","townOrCity":"STOCKTON-ON-TEES","district":"STOCKTON-ON-TEES","county":"STOCKTON-ON-TEES","ppdCategoryType":"Standard","recordStatus":"Addition","latitude":54.551345,"longitude":-1.295734,"postcodeStart":"TS17 7","postcode":["TS17","7JE"]}
{"price":23000,"dateOfTransfer":"1999-07-30T00:00:00","postcodeFull":"TS17 7HG","propertyType":"Terraced","oldOrNew":"Established","duration":"Freehold","paon":"64","saon":"","street":"LANGLEY AVENUE","locality":"THORNABY","townOrCity":"STOCKTON-ON-TEES","district":"STOCKTON-ON-TEES","county":"STOCKTON-ON-TEES","ppdCategoryType":"Standard","recordStatus":"Addition","latitude":54.553816,"longitude":-1.295676,"postcodeStart":"TS17 7","postcode":["TS17","7HG"]}
{"price":75000,"dateOfTransfer":"1999-10-08T00:00:00","postcodeFull":"TS17 7JR","propertyType":"Detached","oldOrNew":"Established","duration":"Freehold","paon":"122","saon":"","street":"ACKLAM ROAD","locality":"THORNABY","townOrCity":"STOCKTON-ON-TEES","district":"STOCKTON-ON-TEES","county":"STOCKTON-ON-TEES","ppdCategoryType":"Standard","recordStatus":"Addition","latitude":54.552922,"longitude":-1.291873,"postcodeStart":"TS17 7","postcode":["TS17","7JR"]}
{"price":15000,"dateOfTransfer":"1999-04-01T00:00:00","postcodeFull":"TS17 7HU","propertyType":"Terraced","oldOrNew":"Established","duration":"Freehold","paon":"8","saon":"","street":"CAMELON STREET","locality":"THORNABY","townOrCity":"STOCKTON-ON-TEES","district":"STOCKTON-ON-TEES","county":"STOCKTON-ON-TEES","ppdCategoryType":"Standard","recordStatus":"Addition","latitude":54.552228,"longitude":-1.297682,"postcodeStart":"TS17 7","postcode":["TS17","7HU"]}
{"price":27500,"dateOfTransfer":"1999-01-22T00:00:00","postcodeFull":"TS17 7HA","propertyType":"Terraced","oldOrNew":"Established","duration":"Freehold","paon":"22","saon":"","street":"HESLOP STREET","locality":"THORNABY","townOrCity":"STOCKTON-ON-TEES","district":"STOCKTON-ON-TEES","county":"STOCKTON-ON-TEES","ppdCategoryType":"Standard","recordStatus":"Addition","latitude":54.554305,"longitude":-1.294616,"postcodeStart":"TS17 7","postcode":["TS17","7HA"]}
{"price":25500,"dateOfTransfer":"1999-09-24T00:00:00","postcodeFull":"TS17 7HU","propertyType":"Terraced","oldOrNew":"Established","duration":"Freehold","paon":"12","saon":"","street":"CAMELON STREET","locality":"THORNABY","townOrCity":"STOCKTON-ON-TEES","district":"STOCKTON-ON-TEES","county":"STOCKTON-ON-TEES","ppdCategoryType":"Standard","recordStatus":"Addition","latitude":54.552228,"longitude":-1.297682,"postcodeStart":"TS17 7","postcode":["TS17","7HU"]}
{"price":17995,"dateOfTransfer":"1999-11-05T00:00:00","postcodeFull":"TS17 7DQ","propertyType":"Terraced","oldOrNew":"Established","duration":"Freehold","paon":"30","saon":"","street":"EASTON STREET","locality":"THORNABY","townOrCity":"STOCKTON-ON-TEES","district":"STOCKTON-ON-TEES","county":"STOCKTON-ON-TEES","ppdCategoryType":"Standard","recordStatus":"Addition","latitude":54.554257,"longitude":-1.297184,"postcodeStart":"TS17 7","postcode":["TS17","7DQ"]}
{"price":23000,"dateOfTransfer":"1999-07-23T00:00:00","postcodeFull":"TS17 7EW","propertyType":"Terraced","oldOrNew":"Established","duration":"Freehold","paon":"2","saon":"","street":"ANDERSON ROAD","locality":"THORNABY","townOrCity":"STOCKTON-ON-TEES","district":"STOCKTON-ON-TEES","county":"STOCKTON-ON-TEES","ppdCategoryType":"Standard","recordStatus":"Addition","latitude":54.555234,"longitude":-1.295265,"postcodeStart":"TS17 7","postcode":["TS17","7EW"]}
{"price":51250,"dateOfTransfer":"1999-08-20T00:00:00","postcodeFull":"TS17 7JP","propertyType":"Semi-detached","oldOrNew":"Established","duration":"Freehold","paon":"7","saon":"","street":"BALMORAL AVENUE","locality":"THORNABY","townOrCity":"STOCKTON-ON-TEES","district":"STOCKTON-ON-TEES","county":"STOCKTON-ON-TEES","ppdCategoryType":"Standard","recordStatus":"Addition","latitude":54.55238,"longitude":-1.292918,"postcodeStart":"TS17 7","postcode":["TS17","7JP"]}
{"price":19950,"dateOfTransfer":"1999-10-07T00:00:00","postcodeFull":"TS17 7HT","propertyType":"Semi-detached","oldOrNew":"Established","duration":"Freehold","paon":"14","saon":"","street":"FALKIRK STREET","locality":"THORNABY","townOrCity":"STOCKTON-ON-TEES","district":"STOCKTON-ON-TEES","county":"STOCKTON-ON-TEES","ppdCategoryType":"Standard","recordStatus":"Addition","latitude":54.552058,"longitude":-1.297763,"postcodeStart":"TS17 7","postcode":["TS17","7HT"]}
{"price":15000,"dateOfTransfer":"1999-11-12T00:00:00","postcodeFull":"TS17 7HA","propertyType":"Terraced","oldOrNew":"Established","duration":"Freehold","paon":"6","saon":"","street":"HESLOP STREET","locality":"THORNABY","townOrCity":"STOCKTON-ON-TEES","district":"STOCKTON-ON-TEES","county":"STOCKTON-ON-TEES","ppdCategoryType":"Standard","recordStatus":"Addition","latitude":54.554305,"longitude":-1.294616,"postcodeStart":"TS17 7","postcode":["TS17","7HA"]}
{"price":46000,"dateOfTransfer":"1999-04-08T00:00:00","postcodeFull":"TS17 7JN","propertyType":"Terraced","oldOrNew":"Established","duration":"Freehold","paon":"1","saon":"","street":"PARK AVENUE","locality":"THORNABY","townOrCity":"STOCKTON-ON-TEES","district":"STOCKTON-ON-TEES","county":"STOCKTON-ON-TEES","ppdCategoryType":"Standard","recordStatus":"Addition","latitude":54.55291,"longitude":-1.294362,"postcodeStart":"TS17 7","postcode":["TS17","7JN"]}
{"price":23000,"dateOfTransfer":"1999-08-20T00:00:00","postcodeFull":"TS17 7HS","propertyType":"Terraced","oldOrNew":"Established","duration":"Freehold","paon":"52","saon":"","street":"ROSEBERRY VIEW","locality":"THORNABY","townOrCity":"STOCKTON-ON-TEES","district":"STOCKTON-ON-TEES","county":"STOCKTON-ON-TEES","ppdCategoryType":"Standard","recordStatus":"Addition","latitude":54.552198,"longitude":-1.298642,"postcodeStart":"TS17 7","postcode":["TS17","7HS"]}
{"price":40000,"dateOfTransfer":"1999-07-09T00:00:00","postcodeFull":"TS17 7JF","propertyType":"Semi-detached","oldOrNew":"Established","duration":"Freehold","paon":"13","saon":"","street":"THE AVENUE","locality":"THORNABY","townOrCity":"STOCKTON-ON-TEES","district":"STOCKTON-ON-TEES","county":"STOCKTON-ON-TEES","ppdCategoryType":"Standard","recordStatus":"Addition","latitude":54.552074,"longitude":-1.295923,"postcodeStart":"TS17 7","postcode":["TS17","7JF"]}
{"price":19000,"dateOfTransfer":"1999-07-16T00:00:00","postcodeFull":"TS17 7HU","propertyType":"Terraced","oldOrNew":"Established","duration":"Freehold","paon":"2","saon":"","street":"CAMELON STREET","locality":"THORNABY","townOrCity":"STOCKTON-ON-TEES","district":"STOCKTON-ON-TEES","county":"STOCKTON-ON-TEES","ppdCategoryType":"Standard","recordStatus":"Addition","latitude":54.552228,"longitude":-1.297682,"postcodeStart":"TS17 7","postcode":["TS17","7HU"]}
{"price":26000,"dateOfTransfer":"1999-03-26T00:00:00","postcodeFull":"TS17 7HT","propertyType":"Terraced","oldOrNew":"Established","duration":"Freehold","paon":"9","saon":"","street":"FALKIRK STREET","locality":"THORNABY","townOrCity":"STOCKTON-ON-TEES","district":"STOCKTON-ON-TEES","county":"STOCKTON-ON-TEES","ppdCategoryType":"Standard","recordStatus":"Addition","latitude":54.552058,"longitude":-1.297763,"postcodeStart":"TS17 7","postcode":["TS17","7HT"]}
{"price":14000,"dateOfTransfer":"1999-06-04T00:00:00","postcodeFull":"TS17 7HY","propertyType":"Terraced","oldOrNew":"Established","duration":"Freehold","paon":"16","saon":"","street":"SALISBURY STREET","locality":"THORNABY","townOrCity":"STOCKTON-ON-TEES","district":"STOCKTON-ON-TEES","county":"STOCKTON-ON-TEES","ppdCategoryType":"Standard","recordStatus":"Addition","latitude":54.553252,"longitude":-1.297557,"postcodeStart":"TS17 7","postcode":["TS17","7HY"]}
{"price":15000,"dateOfTransfer":"1999-11-01T00:00:00","postcodeFull":"TS17 7HG","propertyType":"Terraced","oldOrNew":"Established","duration":"Freehold","paon":"68","saon":"","street":"LANGLEY AVENUE","locality":"THORNABY","townOrCity":"STOCKTON-ON-TEES","district":"STOCKTON-ON-TEES","county":"STOCKTON-ON-TEES","ppdCategoryType":"Standard","recordStatus":"Addition","latitude":54.553816,"longitude":-1.295676,"postcodeStart":"TS17 7","postcode":["TS17","7HG"]}
{"price":24000,"dateOfTransfer":"1999-07-07T00:00:00","postcodeFull":"TS17 7HT","propertyType":"Terraced","oldOrNew":"Established","duration":"Freehold","paon":"28","saon":"","street":"FALKIRK STREET","locality":"THORNABY","townOrCity":"STOCKTON-ON-TEES","district":"STOCKTON-ON-TEES","county":"STOCKTON-ON-TEES","ppdCategoryType":"Standard","recordStatus":"Addition","latitude":54.552058,"longitude":-1.297763,"postcodeStart":"TS17 7","postcode":["TS17","7HT"]}
{"price":15000,"dateOfTransfer":"1999-11-12T00:00:00","postcodeFull":"TS17 7DA","propertyType":"Terraced","oldOrNew":"Established","duration":"Freehold","paon":"2","saon":"","street":"LANGLEY AVENUE","locality":"THORNABY","townOrCity":"STOCKTON-ON-TEES","district":"STOCKTON-ON-TEES","county":"STOCKTON-ON-TEES","ppdCategoryType":"Standard","recordStatus":"Addition","latitude":54.553836,"longitude":-1.297454,"postcodeStart":"TS17 7","postcode":["TS17","7DA"]}
{"price":27375,"dateOfTransfer":"1999-08-09T00:00:00","postcodeFull":"TS17 7JP","propertyType":"Terraced","oldOrNew":"Established","duration":"Freehold","paon":"43","saon":"","street":"BALMORAL AVENUE","locality":"THORNABY","townOrCity":"STOCKTON-ON-TEES","district":"STOCKTON-ON-TEES","county":"STOCKTON-ON-TEES","ppdCategoryType":"Standard","recordStatus":"Addition","latitude":54.55238,"longitude":-1.292918,"postcodeStart":"TS17 7","postcode":["TS17","7JP"]}
{"price":40000,"dateOfTransfer":"1999-11-05T00:00:00","postcodeFull":"TS17 7JP","propertyType":"Semi-detached","oldOrNew":"Established","duration":"Freehold","paon":"3","saon":"","street":"BALMORAL AVENUE","locality":"THORNABY","townOrCity":"STOCKTON-ON-TEES","district":"STOCKTON-ON-TEES","county":"STOCKTON-ON-TEES","ppdCategoryType":"Standard","recordStatus":"Addition","latitude":54.55238,"longitude":-1.292918,"postcodeStart":"TS17 7","postcode":["TS17","7JP"]}
{"price":22000,"dateOfTransfer":"1999-11-12T00:00:00","postcodeFull":"TS17 7HX","propertyType":"Terraced","oldOrNew":"Established","duration":"Freehold","paon":"19","saon":"","street":"CHELTENHAM AVENUE","locality":"THORNABY","townOrCity":"STOCKTON-ON-TEES","district":"STOCKTON-ON-TEES","county":"STOCKTON-ON-TEES","ppdCategoryType":"Standard","recordStatus":"Addition","latitude":54.552616,"longitude":-1.29783,"postcodeStart":"TS17 7","postcode":["TS17","7HX"]}
{"price":20000,"dateOfTransfer":"1999-10-11T00:00:00","postcodeFull":"TS17 7HG","propertyType":"Terraced","oldOrNew":"Established","duration":"Freehold","paon":"47","saon":"","street":"LANGLEY AVENUE","locality":"THORNABY","townOrCity":"STOCKTON-ON-TEES","district":"STOCKTON-ON-TEES","county":"STOCKTON-ON-TEES","ppdCategoryType":"Standard","recordStatus":"Addition","latitude":54.553816,"longitude":-1.295676,"postcodeStart":"TS17 7","postcode":["TS17","7HG"]}
{"price":35000,"dateOfTransfer":"1999-07-02T00:00:00","postcodeFull":"TS17 7JN","propertyType":"Semi-detached","oldOrNew":"Established","duration":"Freehold","paon":"6","saon":"","street":"PARK AVENUE","locality":"THORNABY","townOrCity":"STOCKTON-ON-TEES","district":"STOCKTON-ON-TEES","county":"STOCKTON-ON-TEES","ppdCategoryType":"Standard","recordStatus":"Addition","latitude":54.55291,"longitude":-1.294362,"postcodeStart":"TS17 7","postcode":["TS17","7JN"]}
{"price":35000,"dateOfTransfer":"1999-10-25T00:00:00","postcodeFull":"TS17 7JF","propertyType":"Semi-detached","oldOrNew":"Established","duration":"Freehold","paon":"2","saon":"","street":"THE AVENUE","locality":"THORNABY","townOrCity":"STOCKTON-ON-TEES","district":"STOCKTON-ON-TEES","county":"STOCKTON-ON-TEES","ppdCategoryType":"Standard","recordStatus":"Addition","latitude":54.552074,"longitude":-1.295923,"postcodeStart":"TS17 7","postcode":["TS17","7JF"]}
{"price":40000,"dateOfTransfer":"1999-07-09T00:00:00","postcodeFull":"TS17 7HX","propertyType":"Terraced","oldOrNew":"Established","duration":"Freehold","paon":"7","saon":"","street":"CHELTENHAM AVENUE","locality":"THORNABY","townOrCity":"STOCKTON-ON-TEES","district":"STOCKTON-ON-TEES","county":"STOCKTON-ON-TEES","ppdCategoryType":"Standard","recordStatus":"Addition","latitude":54.552616,"longitude":-1.29783,"postcodeStart":"TS17 7","postcode":["TS17","7HX"]}
{"price":21000,"dateOfTransfer":"1999-07-30T00:00:00","postcodeFull":"TS17 7EP","propertyType":"Terraced","oldOrNew":"Established","duration":"Freehold","paon":"66","saon":"","street":"COBDEN STREET","locality":"THORNABY","townOrCity":"STOCKTON-ON-TEES","district":"STOCKTON-ON-TEES","county":"STOCKTON-ON-TEES","ppdCategoryType":"Standard","recordStatus":"Addition","latitude":54.554923,"longitude":-1.295858,"postcodeStart":"TS17 7","postcode":["TS17","7EP"]}
{"price":26000,"dateOfTransfer":"1999-09-03T00:00:00","postcodeFull":"TS17 7HA","propertyType":"Terraced","oldOrNew":"Established","duration":"Freehold","paon":"32","saon":"","street":"HESLOP STREET","locality":"THORNABY","townOrCity":"STOCKTON-ON-TEES","district":"STOCKTON-ON-TEES","county":"STOCKTON-ON-TEES","ppdCategoryType":"Standard","recordStatus":"Addition","latitude":54.554305,"longitude":-1.294616,"postcodeStart":"TS17 7","postcode":["TS17","7HA"]}
{"price":15000,"dateOfTransfer":"1999-12-20T00:00:00","postcodeFull":"TS17 7HA","propertyType":"Terraced","oldOrNew":"Established","duration":"Freehold","paon":"20","saon":"","street":"HESLOP STREET","locality":"THORNABY","townOrCity":"STOCKTON-ON-TEES","district":"STOCKTON-ON-TEES","county":"STOCKTON-ON-TEES","ppdCategoryType":"Standard","recordStatus":"Addition","latitude":54.554305,"longitude":-1.294616,"postcodeStart":"TS17 7","postcode":["TS17","7HA"]}
{"price":27000,"dateOfTransfer":"1999-05-14T00:00:00","postcodeFull":"TS17 7JJ","propertyType":"Terraced","oldOrNew":"Established","duration":"Freehold","paon":"24","saon":"","street":"ERIC AVENUE","locality":"THORNABY","townOrCity":"STOCKTON-ON-TEES","district":"STOCKTON-ON-TEES","county":"STOCKTON-ON-TEES","ppdCategoryType":"Standard","recordStatus":"Addition","latitude":54.553025,"longitude":-1.295628,"postcodeStart":"TS17 7","postcode":["TS17","7JJ"]}
{"price":35000,"dateOfTransfer":"1999-03-19T00:00:00","postcodeFull":"TS17 7JH","propertyType":"Semi-detached","oldOrNew":"Established","duration":"Freehold","paon":"6","saon":"","street":"BELVEDERE ROAD","locality":"THORNABY","townOrCity":"STOCKTON-ON-TEES","district":"STOCKTON-ON-TEES","county":"STOCKTON-ON-TEES","ppdCategoryType":"Standard","recordStatus":"Addition","latitude":54.551612,"longitude":-1.29374,"postcodeStart":"TS17 7","postcode":["TS17","7JH"]}
{"price":24985,"dateOfTransfer":"1999-06-11T00:00:00","postcodeFull":"TS17 7HT","propertyType":"Terraced","oldOrNew":"Established","duration":"Freehold","paon":"22","saon":"","street":"FALKIRK STREET","locality":"THORNABY","townOrCity":"STOCKTON-ON-TEES","district":"STOCKTON-ON-TEES","county":"STOCKTON-ON-TEES","ppdCategoryType":"Standard","recordStatus":"Addition","latitude":54.552058,"longitude":-1.297763,"postcodeStart":"TS17 7","postcode":["TS17","7HT"]}
{"price":33750,"dateOfTransfer":"1999-08-09T00:00:00","postcodeFull":"TS17 7HB","propertyType":"Terraced","oldOrNew":"Established","duration":"Freehold","paon":"13","saon":"","street":"ST LUKES AVENUE","locality":"THORNABY","townOrCity":"STOCKTON-ON-TEES","district":"STOCKTON-ON-TEES","county":"STOCKTON-ON-TEES","ppdCategoryType":"Standard","recordStatus":"Addition","latitude":54.554373,"longitude":-1.294058,"postcodeStart":"TS17 7","postcode":["TS17","7HB"]}
{"price":6000,"dateOfTransfer":"1999-08-27T00:00:00","postcodeFull":"TS17 7EJ","propertyType":"Terraced","oldOrNew":"Established","duration":"Freehold","paon":"50","saon":"","street":"MANSFIELD AVENUE","locality":"THORNABY","townOrCity":"STOCKTON-ON-TEES","district":"STOCKTON-ON-TEES","county":"STOCKTON-ON-TEES","ppdCategoryType":"Standard","recordStatus":"Addition","latitude":54.555091,"longitude":-1.296968,"postcodeStart":"TS17 7","postcode":["TS17","7EJ"]}
{"price":27000,"dateOfTransfer":"1999-03-24T00:00:00","postcodeFull":"TS17 7HT","propertyType":"Terraced","oldOrNew":"Established","duration":"Freehold","paon":"11","saon":"","street":"FALKIRK STREET","locality":"THORNABY","townOrCity":"STOCKTON-ON-TEES","district":"STOCKTON-ON-TEES","county":"STOCKTON-ON-TEES","ppdCategoryType":"Standard","recordStatus":"Addition","latitude":54.552058,"longitude":-1.297763,"postcodeStart":"TS17 7","postcode":["TS17","7HT"]}
{"price":25000,"dateOfTransfer":"1999-04-30T00:00:00","postcodeFull":"TS17 7BZ","propertyType":"Terraced","oldOrNew":"Established","duration":"Freehold","paon":"17","saon":"","street":"LANGLEY AVENUE","locality":"THORNABY","townOrCity":"STOCKTON-ON-TEES","district":"STOCKTON-ON-TEES","county":"STOCKTON-ON-TEES","ppdCategoryType":"Standard","recordStatus":"Addition","latitude":54.553611,"longitude":-1.297396,"postcodeStart":"TS17 7","postcode":["TS17","7BZ"]}
{"price":25000,"dateOfTransfer":"1999-03-31T00:00:00","postcodeFull":"TS17 7HG","propertyType":"Terraced","oldOrNew":"Established","duration":"Freehold","paon":"45","saon":"","street":"LANGLEY AVENUE","locality":"THORNABY","townOrCity":"STOCKTON-ON-TEES","district":"STOCKTON-ON-TEES","county":"STOCKTON-ON-TEES","ppdCategoryType":"Standard","recordStatus":"Addition","latitude":54.553816,"longitude":-1.295676,"postcodeStart":"TS17 7","postcode":["TS17","7HG"]}
{"price":16950,"dateOfTransfer":"2000-06-05T00:00:00","postcodeFull":"TS17 7ET","propertyType":"Terraced","oldOrNew":"Established","duration":"Freehold","paon":"74","saon":"","street":"COBDEN STREET","locality":"THORNABY","townOrCity":"STOCKTON-ON-TEES","district":"STOCKTON-ON-TEES","county":"STOCKTON-ON-TEES","ppdCategoryType":"Standard","recordStatus":"Addition","latitude":54.55473,"longitude":-1.295196,"postcodeStart":"TS17 7","postcode":["TS17","7ET"]}
{"price":30000,"dateOfTransfer":"2000-08-25T00:00:00","postcodeFull":"TS17 7JF","propertyType":"Semi-detached","oldOrNew":"Established","duration":"Freehold","paon":"11","saon":"","street":"THE AVENUE","locality":"THORNABY","townOrCity":"STOCKTON-ON-TEES","district":"STOCKTON-ON-TEES","county":"STOCKTON-ON-TEES","ppdCategoryType":"Standard","recordStatus":"Addition","latitude":54.552074,"longitude":-1.295923,"postcodeStart":"TS17 7","postcode":["TS17","7JF"]}
{"price":18000,"dateOfTransfer":"2000-03-17T00:00:00","postcodeFull":"TS17 7EG","propertyType":"Terraced","oldOrNew":"Established","duration":"Freehold","paon":"51","saon":"","street":"MANSFIELD AVENUE","locality":"THORNABY","townOrCity":"STOCKTON-ON-TEES","district":"STOCKTON-ON-TEES","county":"STOCKTON-ON-TEES","ppdCategoryType":"Standard","recordStatus":"Addition","latitude":54.555386,"longitude":-1.296608,"postcodeStart":"TS17 7","postcode":["TS17","7EG"]}
{"price":21000,"dateOfTransfer":"2000-01-07T00:00:00","postcodeFull":"TS17 7HP","propertyType":"Terraced","oldOrNew":"Established","duration":"Freehold","paon":"32","saon":"","street":"ROSEBERRY VIEW","locality":"THORNABY","townOrCity":"STOCKTON-ON-TEES","district":"STOCKTON-ON-TEES","county":"STOCKTON-ON-TEES","ppdCategoryType":"Standard","recordStatus":"Addition","latitude":54.553231,"longitude":-1.298516,"postcodeStart":"TS17 7","postcode":["TS17","7HP"]}
{"price":34250,"dateOfTransfer":"2000-04-20T00:00:00","postcodeFull":"TS17 7JH","propertyType":"Semi-detached","oldOrNew":"Established","duration":"Freehold","paon":"1","saon":"","street":"BELVEDERE ROAD","locality":"THORNABY","townOrCity":"STOCKTON-ON-TEES","district":"STOCKTON-ON-TEES","county":"STOCKTON-ON-TEES","ppdCategoryType":"Standard","recordStatus":"Addition","latitude":54.551612,"longitude":-1.29374,"postcodeStart":"TS17 7","postcode":["TS17","7JH"]}
{"price":25000,"dateOfTransfer":"2000-02-16T00:00:00","postcodeFull":"TS17 7JA","propertyType":"Terraced","oldOrNew":"Established","duration":"Freehold","paon":"118","saon":"","street":"MANSFIELD AVENUE","locality":"THORNABY","townOrCity":"STOCKTON-ON-TEES","district":"STOCKTON-ON-TEES","county":"STOCKTON-ON-TEES","ppdCategoryType":"Standard","recordStatus":"Addition","latitude":54.552538,"longitude":-1.296904,"postcodeStart":"TS17 7","postcode":["TS17","7JA"]}
{"price":30000,"dateOfTransfer":"2000-03-09T00:00:00","postcodeFull":"TS17 7JH","propertyType":"Semi-detached","oldOrNew":"Established","duration":"Freehold","paon":"15","saon":"","street":"BELVEDERE ROAD","locality":"THORNABY","townOrCity":"STOCKTON-ON-TEES","district":"STOCKTON-ON-TEES","county":"STOCKTON-ON-TEES","ppdCategoryType":"Standard","recordStatus":"Addition","latitude":54.551612,"longitude":-1.29374,"postcodeStart":"TS17 7","postcode":["TS17","7JH"]}
{"price":9200,"dateOfTransfer":"2000-11-21T00:00:00","postcodeFull":"TS17 7EP","propertyType":"Terraced","oldOrNew":"Established","duration":"Freehold","paon":"58","saon":"","street":"COBDEN STREET","locality":"THORNABY","townOrCity":"STOCKTON-ON-TEES","district":"STOCKTON-ON-TEES","county":"STOCKTON-ON-TEES","ppdCategoryType":"Standard","recordStatus":"Addition","latitude":54.554923,"longitude":-1.295858,"postcodeStart":"TS17 7","postcode":["TS17","7EP"]}
{"price":18500,"dateOfTransfer":"2000-04-13T00:00:00","postcodeFull":"TS17 7HH","propertyType":"Terraced","oldOrNew":"Established","duration":"Freehold","paon":"60","saon":"","street":"MANSFIELD AVENUE","locality":"THORNABY","townOrCity":"STOCKTON-ON-TEES","district":"STOCKTON-ON-TEES","county":"STOCKTON-ON-TEES","ppdCategoryType":"Standard","recordStatus":"Addition","latitude":54.554345,"longitude":-1.296919,"postcodeStart":"TS17 7","postcode":["TS17","7HH"]}
{"price":19500,"dateOfTransfer":"2000-03-03T00:00:00","postcodeFull":"TS17 7HS","propertyType":"Terraced","oldOrNew":"Established","duration":"Freehold","paon":"68","saon":"","street":"ROSEBERRY VIEW","locality":"THORNABY","townOrCity":"STOCKTON-ON-TEES","district":"STOCKTON-ON-TEES","county":"STOCKTON-ON-TEES","ppdCategoryType":"Standard","recordStatus":"Addition","latitude":54.552198,"longitude":-1.298642,"postcodeStart":"TS17 7","postcode":["TS17","7HS"]}
{"price":51000,"dateOfTransfer":"2000-12-08T00:00:00","postcodeFull":"TS17 7BD","propertyType":"Terraced","oldOrNew":"Established","duration":"Freehold","paon":"53","saon":"","street":"ACKLAM ROAD","locality":"THORNABY","townOrCity":"STOCKTON-ON-TEES","district":"STOCKTON-ON-TEES","county":"STOCKTON-ON-TEES","ppdCategoryType":"Standard","recordStatus":"Addition","latitude":54.555304,"longitude":-1.293316,"postcodeStart":"TS17 7","postcode":["TS17","7BD"]}
{"price":19000,"dateOfTransfer":"2000-03-10T00:00:00","postcodeFull":"TS17 7HS","propertyType":"Terraced","oldOrNew":"Established","duration":"Freehold","paon":"60","saon":"","street":"ROSEBERRY VIEW","locality":"THORNABY","townOrCity":"STOCKTON-ON-TEES","district":"STOCKTON-ON-TEES","county":"STOCKTON-ON-TEES","ppdCategoryType":"Standard","recordStatus":"Addition","latitude":54.552198,"longitude":-1.298642,"postcodeStart":"TS17 7","postcode":["TS17","7HS"]}
{"price":47000,"dateOfTransfer":"2000-05-31T00:00:00","postcodeFull":"TS17 7JP","propertyType":"Semi-detached","oldOrNew":"Established","duration":"Freehold","paon":"15","saon":"","street":"BALMORAL AVENUE","locality":"THORNABY","townOrCity":"STOCKTON-ON-TEES","district":"STOCKTON-ON-TEES","county":"STOCKTON-ON-TEES","ppdCategoryType":"Standard","recordStatus":"Addition","latitude":54.55238,"longitude":-1.292918,"postcodeStart":"TS17 7","postcode":["TS17","7JP"]}
{"price":12000,"dateOfTransfer":"2000-12-18T00:00:00","postcodeFull":"TS17 7ES","propertyType":"Terraced","oldOrNew":"Established","duration":"Freehold","paon":"9","saon":"","street":"TEESDALE TERRACE","locality":"THORNABY","townOrCity":"STOCKTON-ON-TEES","district":"STOCKTON-ON-TEES","county":"STOCKTON-ON-TEES","ppdCategoryType":"Standard","recordStatus":"Addition","latitude":54.554257,"longitude":-1.295668,"postcodeStart":"TS17 7","postcode":["TS17","7ES"]}
{"price":75000,"dateOfTransfer":"2000-07-21T00:00:00","postcodeFull":"TS17 7JR","propertyType":"Detached","oldOrNew":"Established","duration":"Freehold","paon":"122","saon":"","street":"ACKLAM ROAD","locality":"THORNABY","townOrCity":"STOCKTON-ON-TEES","district":"STOCKTON-ON-TEES","county":"STOCKTON-ON-TEES","ppdCategoryType":"Standard","recordStatus":"Addition","latitude":54.552922,"longitude":-1.291873,"postcodeStart":"TS17 7","postcode":["TS17","7JR"]}
{"price":55500,"dateOfTransfer":"2000-04-28T00:00:00","postcodeFull":"TS17 7JR","propertyType":"Semi-detached","oldOrNew":"Established","duration":"Freehold","paon":"116","saon":"","street":"ACKLAM ROAD","locality":"THORNABY","townOrCity":"STOCKTON-ON-TEES","district":"STOCKTON-ON-TEES","county":"STOCKTON-ON-TEES","ppdCategoryType":"Standard","recordStatus":"Addition","latitude":54.552922,"longitude":-1.291873,"postcodeStart":"TS17 7","postcode":["TS17","7JR"]}
{"price":45950,"dateOfTransfer":"2000-01-28T00:00:00","postcodeFull":"TS17 7JF","propertyType":"Semi-detached","oldOrNew":"Established","duration":"Freehold","paon":"5","saon":"","street":"THE AVENUE","locality":"THORNABY","townOrCity":"STOCKTON-ON-TEES","district":"STOCKTON-ON-TEES","county":"STOCKTON-ON-TEES","ppdCategoryType":"Standard","recordStatus":"Addition","latitude":54.552074,"longitude":-1.295923,"postcodeStart":"TS17 7","postcode":["TS17","7JF"]}
{"price":29950,"dateOfTransfer":"2000-08-25T00:00:00","postcodeFull":"TS17 7ED","propertyType":"Terraced","oldOrNew":"Established","duration":"Freehold","paon":"5","saon":"","street":"CRANWORTH GREEN","locality":"THORNABY","townOrCity":"STOCKTON-ON-TEES","district":"STOCKTON-ON-TEES","county":"STOCKTON-ON-TEES","ppdCategoryType":"Standard","recordStatus":"Addition","latitude":54.555552,"longitude":-1.29744,"postcodeStart":"TS17 7","postcode":["TS17","7ED"]}
{"price":23500,"dateOfTransfer":"2000-01-28T00:00:00","postcodeFull":"TS17 7HU","propertyType":"Semi-detached","oldOrNew":"Established","duration":"Freehold","paon":"5","saon":"","street":"CAMELON STREET","locality":"THORNABY","townOrCity":"STOCKTON-ON-TEES","district":"STOCKTON-ON-TEES","county":"STOCKTON-ON-TEES","ppdCategoryType":"Standard","recordStatus":"Addition","latitude":54.552228,"longitude":-1.297682,"postcodeStart":"TS17 7","postcode":["TS17","7HU"]}
{"price":44500,"dateOfTransfer":"2000-10-25T00:00:00","postcodeFull":"TS17 7JD","propertyType":"Semi-detached","oldOrNew":"Established","duration":"Freehold","paon":"30","saon":"","street":"BARKER ROAD","locality":"THORNABY","townOrCity":"STOCKTON-ON-TEES","district":"STOCKTON-ON-TEES","county":"STOCKTON-ON-TEES","ppdCategoryType":"Standard","recordStatus":"Addition","latitude":54.551588,"longitude":-1.297338,"postcodeStart":"TS17 7","postcode":["TS17","7JD"]}
{"price":27500,"dateOfTransfer":"2000-10-06T00:00:00","postcodeFull":"TS17 7HU","propertyType":"Terraced","oldOrNew":"Established","duration":"Freehold","paon":"9","saon":"","street":"CAMELON STREET","locality":"THORNABY","townOrCity":"STOCKTON-ON-TEES","district":"STOCKTON-ON-TEES","county":"STOCKTON-ON-TEES","ppdCategoryType":"Standard","recordStatus":"Addition","latitude":54.552228,"longitude":-1.297682,"postcodeStart":"TS17 7","postcode":["TS17","7HU"]}
{"price":45500,"dateOfTransfer":"2000-03-31T00:00:00","postcodeFull":"TS17 7JG","propertyType":"Semi-detached","oldOrNew":"Established","duration":"Freehold","paon":"5","saon":"","street":"IMPERIAL AVENUE","locality":"THORNABY","townOrCity":"STOCKTON-ON-TEES","district":"STOCKTON-ON-TEES","county":"STOCKTON-ON-TEES","ppdCategoryType":"Standard","recordStatus":"Addition","latitude":54.551925,"longitude":-1.294982,"postcodeStart":"TS17 7","postcode":["TS17","7JG"]}
{"price":36500,"dateOfTransfer":"2000-12-20T00:00:00","postcodeFull":"TS17 7JP","propertyType":"Terraced","oldOrNew":"Established","duration":"Freehold","paon":"52","saon":"","street":"BALMORAL AVENUE","locality":"THORNABY","townOrCity":"STOCKTON-ON-TEES","district":"STOCKTON-ON-TEES","county":"STOCKTON-ON-TEES","ppdCategoryType":"Standard","recordStatus":"Addition","latitude":54.55238,"longitude":-1.292918,"postcodeStart":"TS17 7","postcode":["TS17","7JP"]}
{"price":12000,"dateOfTransfer":"2000-12-18T00:00:00","postcodeFull":"TS17 7ES","propertyType":"Terraced","oldOrNew":"Established","duration":"Freehold","paon":"11","saon":"","street":"TEESDALE TERRACE","locality":"THORNABY","townOrCity":"STOCKTON-ON-TEES","district":"STOCKTON-ON-TEES","county":"STOCKTON-ON-TEES","ppdCategoryType":"Standard","recordStatus":"Addition","latitude":54.554257,"longitude":-1.295668,"postcodeStart":"TS17 7","postcode":["TS17","7ES"]}
{"price":30000,"dateOfTransfer":"2000-04-28T00:00:00","postcodeFull":"TS17 7HZ","propertyType":"Terraced","oldOrNew":"Established","duration":"Freehold","paon":"105","saon":"","street":"MANSFIELD AVENUE","locality":"THORNABY","townOrCity":"STOCKTON-ON-TEES","district":"STOCKTON-ON-TEES","county":"STOCKTON-ON-TEES","ppdCategoryType":"Standard","recordStatus":"Addition","latitude":54.55332,"longitude":-1.296937,"postcodeStart":"TS17 7","postcode":["TS17","7HZ"]}
{"price":43750,"dateOfTransfer":"2000-04-14T00:00:00","postcodeFull":"TS17 7JW","propertyType":"Semi-detached","oldOrNew":"Established","duration":"Freehold","paon":"1","saon":"","street":"SANDRINGHAM ROAD","locality":"THORNABY","townOrCity":"STOCKTON-ON-TEES","district":"STOCKTON-ON-TEES","county":"STOCKTON-ON-TEES","ppdCategoryType":"Standard","recordStatus":"Addition","latitude":54.551844,"longitude":-1.293468,"postcodeStart":"TS17 7","postcode":["TS17","7JW"]}
{"price":28500,"dateOfTransfer":"2000-09-13T00:00:00","postcodeFull":"TS17 7HT","propertyType":"Terraced","oldOrNew":"Established","duration":"Freehold","paon":"11A","saon":"","street":"FALKIRK STREET","locality":"THORNABY","townOrCity":"STOCKTON-ON-TEES","district":"STOCKTON-ON-TEES","county":"STOCKTON-ON-TEES","ppdCategoryType":"Standard","recordStatus":"Addition","latitude":54.552058,"longitude":-1.297763,"postcodeStart":"TS17 7","postcode":["TS17","7HT"]}
{"price":38000,"dateOfTransfer":"2000-05-26T00:00:00","postcodeFull":"TS17 7JD","propertyType":"Semi-detached","oldOrNew":"Established","duration":"Freehold","paon":"39","saon":"","street":"BARKER ROAD","locality":"THORNABY","townOrCity":"STOCKTON-ON-TEES","district":"STOCKTON-ON-TEES","county":"STOCKTON-ON-TEES","ppdCategoryType":"Standard","recordStatus":"Addition","latitude":54.551588,"longitude":-1.297338,"postcodeStart":"TS17 7","postcode":["TS17","7JD"]}
{"price":18500,"dateOfTransfer":"2000-06-29T00:00:00","postcodeFull":"TS17 7HA","propertyType":"Terraced","oldOrNew":"Established","duration":"Freehold","paon":"28","saon":"","street":"HESLOP STREET","locality":"THORNABY","townOrCity":"STOCKTON-ON-TEES","district":"STOCKTON-ON-TEES","county":"STOCKTON-ON-TEES","ppdCategoryType":"Standard","recordStatus":"Addition","latitude":54.554305,"longitude":-1.294616,"postcodeStart":"TS17 7","postcode":["TS17","7HA"]}
{"price":24000,"dateOfTransfer":"2000-01-27T00:00:00","postcodeFull":"TS17 7HG","propertyType":"Terraced","oldOrNew":"Established","duration":"Freehold","paon":"53","saon":"","street":"LANGLEY AVENUE","locality":"THORNABY","townOrCity":"STOCKTON-ON-TEES","district":"STOCKTON-ON-TEES","county":"STOCKTON-ON-TEES","ppdCategoryType":"Standard","recordStatus":"Addition","latitude":54.553816,"longitude":-1.295676,"postcodeStart":"TS17 7","postcode":["TS17","7HG"]}
{"price":12500,"dateOfTransfer":"2000-06-22T00:00:00","postcodeFull":"TS17 7HA","propertyType":"Terraced","oldOrNew":"Established","duration":"Freehold","paon":"27","saon":"","street":"HESLOP STREET","locality":"THORNABY","townOrCity":"STOCKTON-ON-TEES","district":"STOCKTON-ON-TEES","county":"STOCKTON-ON-TEES","ppdCategoryType":"Standard","recordStatus":"Addition","latitude":54.554305,"longitude":-1.294616,"postcodeStart":"TS17 7","postcode":["TS17","7HA"]}
{"price":34000,"dateOfTransfer":"2000-06-16T00:00:00","postcodeFull":"TS17 7JB","propertyType":"Terraced","oldOrNew":"Established","duration":"Freehold","paon":"134","saon":"","street":"MANSFIELD AVENUE","locality":"THORNABY","townOrCity":"STOCKTON-ON-TEES","district":"STOCKTON-ON-TEES","county":"STOCKTON-ON-TEES","ppdCategoryType":"Standard","recordStatus":"Addition","latitude":54.552068,"longitude":-1.296356,"postcodeStart":"TS17 7","postcode":["TS17","7JB"]}
{"price":54000,"dateOfTransfer":"2000-12-21T00:00:00","postcodeFull":"TS17 7AR","propertyType":"Detached","oldOrNew":"Established","duration":"Freehold","paon":"SECURITY HOUSE","saon":"","street":"WILSON STREET","locality":"THORNABY","townOrCity":"STOCKTON-ON-TEES","district":"STOCKTON-ON-TEES","county":"STOCKTON-ON-TEES","ppdCategoryType":"Standard","recordStatus":"Addition","latitude":54.558817,"longitude":-1.297289,"postcodeStart":"TS17 7","postcode":["TS17","7AR"]}
{"price":22000,"dateOfTransfer":"2000-03-17T00:00:00","postcodeFull":"TS17 7HY","propertyType":"Terraced","oldOrNew":"Established","duration":"Freehold","paon":"19","saon":"","street":"SALISBURY STREET","locality":"THORNABY","townOrCity":"STOCKTON-ON-TEES","district":"STOCKTON-ON-TEES","county":"STOCKTON-ON-TEES","ppdCategoryType":"Standard","recordStatus":"Addition","latitude":54.553252,"longitude":-1.297557,"postcodeStart":"TS17 7","postcode":["TS17","7HY"]}
{"price":15000,"dateOfTransfer":"2000-04-28T00:00:00","postcodeFull":"TS17 7DQ","propertyType":"Terraced","oldOrNew":"Established","duration":"Freehold","paon":"28","saon":"","street":"EASTON STREET","locality":"THORNABY","townOrCity":"STOCKTON-ON-TEES","district":"STOCKTON-ON-TEES","county":"STOCKTON-ON-TEES","ppdCategoryType":"Standard","recordStatus":"Addition","latitude":54.554257,"longitude":-1.297184,"postcodeStart":"TS17 7","postcode":["TS17","7DQ"]}
{"price":19500,"dateOfTransfer":"2000-01-19T00:00:00","postcodeFull":"TS17 7HA","propertyType":"Terraced","oldOrNew":"Established","duration":"Freehold","paon":"11","saon":"","street":"HESLOP STREET","locality":"THORNABY","townOrCity":"STOCKTON-ON-TEES","district":"STOCKTON-ON-TEES","county":"STOCKTON-ON-TEES","ppdCategoryType":"Standard","recordStatus":"Addition","latitude":54.554305,"longitude":-1.294616,"postcodeStart":"TS17 7","postcode":["TS17","7HA"]}
{"price":43500,"dateOfTransfer":"2000-05-26T00:00:00","postcodeFull":"TS17 7JN","propertyType":"Semi-detached","oldOrNew":"Established","duration":"Freehold","paon":"16","saon":"","street":"PARK AVENUE","locality":"THORNABY","townOrCity":"STOCKTON-ON-TEES","district":"STOCKTON-ON-TEES","county":"STOCKTON-ON-TEES","ppdCategoryType":"Standard","recordStatus":"Addition","latitude":54.55291,"longitude":-1.294362,"postcodeStart":"TS17 7","postcode":["TS17","7JN"]}
{"price":14950,"dateOfTransfer":"2000-06-29T00:00:00","postcodeFull":"TS17 7HP","propertyType":"Terraced","oldOrNew":"Established","duration":"Freehold","paon":"16","saon":"","street":"ROSEBERRY VIEW","locality":"THORNABY","townOrCity":"STOCKTON-ON-TEES","district":"STOCKTON-ON-TEES","county":"STOCKTON-ON-TEES","ppdCategoryType":"Standard","recordStatus":"Addition","latitude":54.553231,"longitude":-1.298516,"postcodeStart":"TS17 7","postcode":["TS17","7HP"]}
{"price":28000,"dateOfTransfer":"2000-03-15T00:00:00","postcodeFull":"TS17 7JN","propertyType":"Terraced","oldOrNew":"Established","duration":"Freehold","paon":"37","saon":"","street":"PARK AVENUE","locality":"THORNABY","townOrCity":"STOCKTON-ON-TEES","district":"STOCKTON-ON-TEES","county":"STOCKTON-ON-TEES","ppdCategoryType":"Standard","recordStatus":"Addition","latitude":54.55291,"longitude":-1.294362,"postcodeStart":"TS17 7","postcode":["TS17","7JN"]}
{"price":80000,"dateOfTransfer":"2000-12-08T00:00:00","postcodeFull":"TS17 7JT","propertyType":"Semi-detached","oldOrNew":"Established","duration":"Freehold","paon":"135","saon":"","street":"ACKLAM ROAD","locality":"THORNABY","townOrCity":"STOCKTON-ON-TEES","district":"STOCKTON-ON-TEES","county":"STOCKTON-ON-TEES","ppdCategoryType":"Standard","recordStatus":"Addition","latitude":54.551451,"longitude":-1.287739,"postcodeStart":"TS17 7","postcode":["TS17","7JT"]}
{"price":34000,"dateOfTransfer":"2001-03-30T00:00:00","postcodeFull":"TS17 7HZ","propertyType":"Semi-detached","oldOrNew":"Established","duration":"Freehold","paon":"103","saon":"","street":"MANSFIELD AVENUE","locality":"THORNABY","townOrCity":"STOCKTON-ON-TEES","district":"STOCKTON-ON-TEES","county":"STOCKTON-ON-TEES","ppdCategoryType":"Standard","recordStatus":"Addition","latitude":54.55332,"longitude":-1.296937,"postcodeStart":"TS17 7","postcode":["TS17","7HZ"]}
{"price":33500,"dateOfTransfer":"2001-08-03T00:00:00","postcodeFull":"TS17 7JB","propertyType":"Semi-detached","oldOrNew":"Established","duration":"Freehold","paon":"133","saon":"","street":"MANSFIELD AVENUE","locality":"THORNABY","townOrCity":"STOCKTON-ON-TEES","district":"STOCKTON-ON-TEES","county":"STOCKTON-ON-TEES","ppdCategoryType":"Standard","recordStatus":"Addition","latitude":54.552068,"longitude":-1.296356,"postcodeStart":"TS17 7","postcode":["TS17","7JB"]}
{"price":18000,"dateOfTransfer":"2001-01-15T00:00:00","postcodeFull":"TS17 7HX","propertyType":"Terraced","oldOrNew":"Established","duration":"Freehold","paon":"8","saon":"","street":"CHELTENHAM AVENUE","locality":"THORNABY","townOrCity":"STOCKTON-ON-TEES","district":"STOCKTON-ON-TEES","county":"STOCKTON-ON-TEES","ppdCategoryType":"Standard","recordStatus":"Addition","latitude":54.552616,"longitude":-1.29783,"postcodeStart":"TS17 7","postcode":["TS17","7HX"]}
{"price":44000,"dateOfTransfer":"2001-09-21T00:00:00","postcodeFull":"TS17 7JE","propertyType":"Semi-detached","oldOrNew":"Established","duration":"Freehold","paon":"7","saon":"","street":"BARKER ROAD","locality":"THORNABY","townOrCity":"STOCKTON-ON-TEES","district":"STOCKTON-ON-TEES","county":"STOCKTON-ON-TEES","ppdCategoryType":"Standard","recordStatus":"Addition","latitude":54.551345,"longitude":-1.295734,"postcodeStart":"TS17 7","postcode":["TS17","7JE"]}
{"price":39950,"dateOfTransfer":"2001-08-03T00:00:00","postcodeFull":"TS17 7JF","propertyType":"Semi-detached","oldOrNew":"Established","duration":"Freehold","paon":"9","saon":"","street":"THE AVENUE","locality":"THORNABY","townOrCity":"STOCKTON-ON-TEES","district":"STOCKTON-ON-TEES","county":"STOCKTON-ON-TEES","ppdCategoryType":"Standard","recordStatus":"Addition","latitude":54.552074,"longitude":-1.295923,"postcodeStart":"TS17 7","postcode":["TS17","7JF"]}
{"price":50000,"dateOfTransfer":"2001-08-31T00:00:00","postcodeFull":"TS17 7JP","propertyType":"Semi-detached","oldOrNew":"Established","duration":"Freehold","paon":"8","saon":"","street":"BALMORAL AVENUE","locality":"THORNABY","townOrCity":"STOCKTON-ON-TEES","district":"STOCKTON-ON-TEES","county":"STOCKTON-ON-TEES","ppdCategoryType":"Standard","recordStatus":"Addition","latitude":54.55238,"longitude":-1.292918,"postcodeStart":"TS17 7","postcode":["TS17","7JP"]}
{"price":41500,"dateOfTransfer":"2001-06-22T00:00:00","postcodeFull":"TS17 7JP","propertyType":"Terraced","oldOrNew":"Established","duration":"Freehold","paon":"50","saon":"","street":"BALMORAL AVENUE","locality":"THORNABY","townOrCity":"STOCKTON-ON-TEES","district":"STOCKTON-ON-TEES","county":"STOCKTON-ON-TEES","ppdCategoryType":"Standard","recordStatus":"Addition","latitude":54.55238,"longitude":-1.292918,"postcodeStart":"TS17 7","postcode":["TS17","7JP"]}
{"price":45000,"dateOfTransfer":"2001-08-23T00:00:00","postcodeFull":"TS17 7BD","propertyType":"Terraced","oldOrNew":"Established","duration":"Freehold","paon":"51","saon":"","street":"ACKLAM ROAD","locality":"THORNABY","townOrCity":"STOCKTON-ON-TEES","district":"STOCKTON-ON-TEES","county":"STOCKTON-ON-TEES","ppdCategoryType":"Standard","recordStatus":"Addition","latitude":54.555304,"longitude":-1.293316,"postcodeStart":"TS17 7","postcode":["TS17","7BD"]}
{"price":15000,"dateOfTransfer":"2001-10-15T00:00:00","postcodeFull":"TS17 7HQ","propertyType":"Terraced","oldOrNew":"Established","duration":"Freehold","paon":"91","saon":"","street":"MANSFIELD AVENUE","locality":"THORNABY","townOrCity":"STOCKTON-ON-TEES","district":"STOCKTON-ON-TEES","county":"STOCKTON-ON-TEES","ppdCategoryType":"Standard","recordStatus":"Addition","latitude":54.554289,"longitude":-1.296565,"postcodeStart":"TS17 7","postcode":["TS17","7HQ"]}
{"price":43500,"dateOfTransfer":"2001-06-29T00:00:00","postcodeFull":"TS17 7JE","propertyType":"Semi-detached","oldOrNew":"Established","duration":"Freehold","paon":"21","saon":"","street":"BARKER ROAD","locality":"THORNABY","townOrCity":"STOCKTON-ON-TEES","district":"STOCKTON-ON-TEES","county":"STOCKTON-ON-TEES","ppdCategoryType":"Standard","recordStatus":"Addition","latitude":54.551345,"longitude":-1.295734,"postcodeStart":"TS17 7","postcode":["TS17","7JE"]}
{"price":15333,"dateOfTransfer":"2001-11-28T00:00:00","postcodeFull":"TS17 7HH","propertyType":"Terraced","oldOrNew":"Established","duration":"Freehold","paon":"80","saon":"","street":"MANSFIELD AVENUE","locality":"THORNABY","townOrCity":"STOCKTON-ON-TEES","district":"STOCKTON-ON-TEES","county":"STOCKTON-ON-TEES","ppdCategoryType":"Standard","recordStatus":"Addition","latitude":54.554345,"longitude":-1.296919,"postcodeStart":"TS17 7","postcode":["TS17","7HH"]}
