{"price":13000,"dateOfTransfer":"1995-09-29T00:00:00","postcodeFull":"TS24 8EX","propertyType":"Flat/Maisonette/Townhouse","oldOrNew":"New build","duration":"Leasehold","paon":"2A","saon":"","street":"BROUGHAM TERRACE","locality":"HARTLEPOOL","townOrCity":"HARTLEPOOL","district":"HARTLEPOOL","county":"HARTLEPOOL","ppdCategoryType":"Standard","recordStatus":"Addition","latitude":54.693312,"longitude":-1.218095,"postcodeStart":"TS24 8","postcode":["TS24","8EX"]}
{"price":25000,"dateOfTransfer":"1995-04-18T00:00:00","postcodeFull":"TS24 8DL","propertyType":"Terraced","oldOrNew":"Established","duration":"Freehold","paon":"25","saon":"","street":"CAMERON ROAD","locality":"HARTLEPOOL","townOrCity":"HARTLEPOOL","district":"HARTLEPOOL","county":"HARTLEPOOL","ppdCategoryType":"Standard","recordStatus":"Addition","latitude":54.690126,"longitude":-1.215953,"postcodeStart":"TS24 8","postcode":["TS24","8DL"]}
{"price":28500,"dateOfTransfer":"1995-10-20T00:00:00","postcodeFull":"TS24 8JD","propertyType":"Terraced","oldOrNew":"Established","duration":"Freehold","paon":"109","saon":"","street":"CHALLONER ROAD","locality":"HARTLEPOOL","townOrCity":"HARTLEPOOL","district":"HARTLEPOOL","county":"HARTLEPOOL","ppdCategoryType":"Standard","recordStatus":"Addition","latitude":54.696135,"longitude":-1.226652,"postcodeStart":"TS24 8","postcode":["TS24","8JD"]}
{"price":15800,"dateOfTransfer":"1995-11-17T00:00:00","postcodeFull":"TS24 8QF","propertyType":"Terraced","oldOrNew":"Established","duration":"Freehold","paon":"17","saon":"","street":"","locality":"FINCHLEY ROAD","townOrCity":"HARTLEPOOL","district":"HARTLEPOOL","county":"HARTLEPOOL","ppdCategoryType":"Standard","recordStatus":"Addition","latitude":54.694369,"longitude":-1.222823,"postcodeStart":"TS24 8","postcode":["TS24","8QF"]}
{"price":35950,"dateOfTransfer":"1995-06-16T00:00:00","postcodeFull":"TS24 8RA","propertyType":"Semi-detached","oldOrNew":"New build","duration":"Freehold","paon":"7","saon":"","street":"STONETHWAITE CLOSE","locality":"HARTLEPOOL","townOrCity":"HARTLEPOOL","district":"HARTLEPOOL","county":"HARTLEPOOL","ppdCategoryType":"Standard","recordStatus":"Addition","latitude":54.698839,"longitude":-1.213799,"postcodeStart":"TS24 8","postcode":["TS24","8RA"]}
{"price":34800,"dateOfTransfer":"1995-01-12T00:00:00","postcodeFull":"TS24 8RD","propertyType":"Semi-detached","oldOrNew":"New build","duration":"Freehold","paon":"65","saon":"","street":"ROSTHWAITE CLOSE","locality":"HARTLEPOOL","townOrCity":"HARTLEPOOL","district":"HARTLEPOOL","county":"HARTLEPOOL","ppdCategoryType":"Standard","recordStatus":"Addition","latitude":54.700061,"longitude":-1.213822,"postcodeStart":"TS24 8","postcode":["TS24","8RD"]}
{"price":26950,"dateOfTransfer":"1995-04-03T00:00:00","postcodeFull":"TS24 8RE","propertyType":"Flat/Maisonette/Townhouse","oldOrNew":"New build","duration":"Leasehold","paon":"22","saon":"","street":"ROSTHWAITE CLOSE","locality":"HARTLEPOOL","townOrCity":"HARTLEPOOL","district":"HARTLEPOOL","county":"HARTLEPOOL","ppdCategoryType":"Standard","recordStatus":"Addition","latitude":54.699866,"longitude":-1.212911,"postcodeStart":"TS24 8","postcode":["TS24","8RE"]}
{"price":26950,"dateOfTransfer":"1995-07-07T00:00:00","postcodeFull":"TS24 8RA","propertyType":"Flat/Maisonette/Townhouse","oldOrNew":"New build","duration":"Leasehold","paon":"37","saon":"","street":"STONETHWAITE CLOSE","locality":"HARTLEPOOL","townOrCity":"HARTLEPOOL","district":"HARTLEPOOL","county":"HARTLEPOOL","ppdCategoryType":"Standard","recordStatus":"Addition","latitude":54.698839,"longitude":-1.213799,"postcodeStart":"TS24 8","postcode":["TS24","8RA"]}
{"price":36950,"dateOfTransfer":"1995-01-20T00:00:00","postcodeFull":"TS24 8RE","propertyType":"Semi-detached","oldOrNew":"New build","duration":"Freehold","paon":"6","saon":"","street":"ROSTHWAITE CLOSE","locality":"HARTLEPOOL","townOrCity":"HARTLEPOOL","district":"HARTLEPOOL","county":"HARTLEPOOL","ppdCategoryType":"Standard","recordStatus":"Addition","latitude":54.699866,"longitude":-1.212911,"postcodeStart":"TS24 8","postcode":["TS24","8RE"]}
{"price":25000,"dateOfTransfer":"1995-06-30T00:00:00","postcodeFull":"TS24 8LT","propertyType":"Semi-detached","oldOrNew":"Established","duration":"Freehold","paon":"24","saon":"","street":"AMBERTON ROAD","locality":"HARTLEPOOL","townOrCity":"HARTLEPOOL","district":"HARTLEPOOL","county":"HARTLEPOOL","ppdCategoryType":"Standard","recordStatus":"Addition","latitude":54.697088,"longitude":-1.214019,"postcodeStart":"TS24 8","postcode":["TS24","8LT"]}
{"price":19500,"dateOfTransfer":"1995-02-17T00:00:00","postcodeFull":"TS24 8NH","propertyType":"Semi-detached","oldOrNew":"Established","duration":"Freehold","paon":"12","saon":"","street":"AVONDALE GARDENS","locality":"HARTLEPOOL","townOrCity":"HARTLEPOOL","district":"HARTLEPOOL","county":"HARTLEPOOL","ppdCategoryType":"Standard","recordStatus":"Addition","latitude":54.695141,"longitude":-1.218727,"postcodeStart":"TS24 8","postcode":["TS24","8NH"]}
{"price":36500,"dateOfTransfer":"1995-06-16T00:00:00","postcodeFull":"TS24 8RF","propertyType":"Terraced","oldOrNew":"Established","duration":"Freehold","paon":"23","saon":"","street":"WASDALE CLOSE","locality":"HARTLEPOOL","townOrCity":"HARTLEPOOL","district":"HARTLEPOOL","county":"HARTLEPOOL","ppdCategoryType":"Standard","recordStatus":"Addition","latitude":54.701005,"longitude":-1.213928,"postcodeStart":"TS24 8","postcode":["TS24","8RF"]}
{"price":26950,"dateOfTransfer":"1995-04-13T00:00:00","postcodeFull":"TS24 8RE","propertyType":"Flat/Maisonette/Townhouse","oldOrNew":"New build","duration":"Leasehold","paon":"34","saon":"","street":"ROSTHWAITE CLOSE","locality":"HARTLEPOOL","townOrCity":"HARTLEPOOL","district":"HARTLEPOOL","county":"HARTLEPOOL","ppdCategoryType":"Standard","recordStatus":"Addition","latitude":54.699866,"longitude":-1.212911,"postcodeStart":"TS24 8","postcode":["TS24","8RE"]}
{"price":13500,"dateOfTransfer":"1995-09-22T00:00:00","postcodeFull":"TS24 8NP","propertyType":"Terraced","oldOrNew":"Established","duration":"Freehold","paon":"9","saon":"","street":"MAPLETON ROAD","locality":"HARTLEPOOL","townOrCity":"HARTLEPOOL","district":"HARTLEPOOL","county":"HARTLEPOOL","ppdCategoryType":"Standard","recordStatus":"Addition","latitude":54.693909,"longitude":-1.217339,"postcodeStart":"TS24 8","postcode":["TS24","8NP"]}
{"price":34500,"dateOfTransfer":"1995-12-19T00:00:00","postcodeFull":"TS24 8RE","propertyType":"Terraced","oldOrNew":"Established","duration":"Freehold","paon":"48","saon":"","street":"ROSTHWAITE CLOSE","locality":"HARTLEPOOL","townOrCity":"HARTLEPOOL","district":"HARTLEPOOL","county":"HARTLEPOOL","ppdCategoryType":"Standard","recordStatus":"Addition","latitude":54.699866,"longitude":-1.212911,"postcodeStart":"TS24 8","postcode":["TS24","8RE"]}
{"price":31500,"dateOfTransfer":"1995-01-27T00:00:00","postcodeFull":"TS24 8RE","propertyType":"Terraced","oldOrNew":"New build","duration":"Freehold","paon":"70","saon":"","street":"ROSTHWAITE CLOSE","locality":"HARTLEPOOL","townOrCity":"HARTLEPOOL","district":"HARTLEPOOL","county":"HARTLEPOOL","ppdCategoryType":"Standard","recordStatus":"Addition","latitude":54.699866,"longitude":-1.212911,"postcodeStart":"TS24 8","postcode":["TS24","8RE"]}
{"price":30000,"dateOfTransfer":"1995-12-08T00:00:00","postcodeFull":"TS24 8NG","propertyType":"Semi-detached","oldOrNew":"Established","duration":"Freehold","paon":"55","saon":"","street":"AVONDALE GARDENS","locality":"HARTLEPOOL","townOrCity":"HARTLEPOOL","district":"HARTLEPOOL","county":"HARTLEPOOL","ppdCategoryType":"Standard","recordStatus":"Addition","latitude":54.69502,"longitude":-1.216816,"postcodeStart":"TS24 8","postcode":["TS24","8NG"]}
{"price":18250,"dateOfTransfer":"1995-10-12T00:00:00","postcodeFull":"TS24 8NR","propertyType":"Terraced","oldOrNew":"Established","duration":"Freehold","paon":"16","saon":"","street":"ST OSWALDS STREET","locality":"HARTLEPOOL","townOrCity":"HARTLEPOOL","district":"HARTLEPOOL","county":"HARTLEPOOL","ppdCategoryType":"Standard","recordStatus":"Addition","latitude":54.693917,"longitude":-1.218412,"postcodeStart":"TS24 8","postcode":["TS24","8NR"]}
{"price":24250,"dateOfTransfer":"1995-01-13T00:00:00","postcodeFull":"TS24 8QN","propertyType":"Terraced","oldOrNew":"Established","duration":"Freehold","paon":"11","saon":"","street":"HELMSLEY STREET","locality":"HARTLEPOOL","townOrCity":"HARTLEPOOL","district":"HARTLEPOOL","county":"HARTLEPOOL","ppdCategoryType":"Standard","recordStatus":"Addition","latitude":54.693803,"longitude":-1.22454,"postcodeStart":"TS24 8","postcode":["TS24","8QN"]}
{"price":13000,"dateOfTransfer":"1995-07-14T00:00:00","postcodeFull":"TS24 8HS","propertyType":"Terraced","oldOrNew":"Established","duration":"Freehold","paon":"66","saon":"","street":"RABY GARDENS","locality":"HARTLEPOOL","townOrCity":"HARTLEPOOL","district":"HARTLEPOOL","county":"HARTLEPOOL","ppdCategoryType":"Standard","recordStatus":"Addition","latitude":54.695853,"longitude":-1.226006,"postcodeStart":"TS24 8","postcode":["TS24","8HS"]}
{"price":26950,"dateOfTransfer":"1995-03-31T00:00:00","postcodeFull":"TS24 8RE","propertyType":"Flat/Maisonette/Townhouse","oldOrNew":"New build","duration":"Leasehold","paon":"16","saon":"","street":"ROSTHWAITE CLOSE","locality":"HARTLEPOOL","townOrCity":"HARTLEPOOL","district":"HARTLEPOOL","county":"HARTLEPOOL","ppdCategoryType":"Standard","recordStatus":"Addition","latitude":54.699866,"longitude":-1.212911,"postcodeStart":"TS24 8","postcode":["TS24","8RE"]}
{"price":35450,"dateOfTransfer":"1995-01-25T00:00:00","postcodeFull":"TS24 8RE","propertyType":"Terraced","oldOrNew":"New build","duration":"Freehold","paon":"54","saon":"","street":"ROSTHWAITE CLOSE","locality":"HARTLEPOOL","townOrCity":"HARTLEPOOL","district":"HARTLEPOOL","county":"HARTLEPOOL","ppdCategoryType":"Standard","recordStatus":"Addition","latitude":54.699866,"longitude":-1.212911,"postcodeStart":"TS24 8","postcode":["TS24","8RE"]}
{"price":26950,"dateOfTransfer":"1995-01-20T00:00:00","postcodeFull":"TS24 8RE","propertyType":"Semi-detached","oldOrNew":"New build","duration":"Leasehold","paon":"74","saon":"","street":"ROSTHWAITE CLOSE","locality":"HARTLEPOOL","townOrCity":"HARTLEPOOL","district":"HARTLEPOOL","county":"HARTLEPOOL","ppdCategoryType":"Standard","recordStatus":"Addition","latitude":54.699866,"longitude":-1.212911,"postcodeStart":"TS24 8","postcode":["TS24","8RE"]}
{"price":26950,"dateOfTransfer":"1995-03-17T00:00:00","postcodeFull":"TS24 8RE","propertyType":"Flat/Maisonette/Townhouse","oldOrNew":"New build","duration":"Leasehold","paon":"30","saon":"","street":"ROSTHWAITE CLOSE","locality":"HARTLEPOOL","townOrCity":"HARTLEPOOL","district":"HARTLEPOOL","county":"HARTLEPOOL","ppdCategoryType":"Standard","recordStatus":"Addition","latitude":54.699866,"longitude":-1.212911,"postcodeStart":"TS24 8","postcode":["TS24","8RE"]}
{"price":17500,"dateOfTransfer":"1995-05-31T00:00:00","postcodeFull":"TS24 8HY","propertyType":"Terraced","oldOrNew":"Established","duration":"Freehold","paon":"23","saon":"","street":"CHALLONER ROAD","locality":"HARTLEPOOL","townOrCity":"HARTLEPOOL","district":"HARTLEPOOL","county":"HARTLEPOOL","ppdCategoryType":"Standard","recordStatus":"Addition","latitude":54.69653,"longitude":-1.222036,"postcodeStart":"TS24 8","postcode":["TS24","8HY"]}
{"price":37950,"dateOfTransfer":"1995-01-31T00:00:00","postcodeFull":"TS24 8RA","propertyType":"Semi-detached","oldOrNew":"New build","duration":"Freehold","paon":"42","saon":"","street":"STONETHWAITE CLOSE","locality":"HARTLEPOOL","townOrCity":"HARTLEPOOL","district":"HARTLEPOOL","county":"HARTLEPOOL","ppdCategoryType":"Standard","recordStatus":"Addition","latitude":54.698839,"longitude":-1.213799,"postcodeStart":"TS24 8","postcode":["TS24","8RA"]}
{"price":26950,"dateOfTransfer":"1995-05-26T00:00:00","postcodeFull":"TS24 8RA","propertyType":"Flat/Maisonette/Townhouse","oldOrNew":"New build","duration":"Leasehold","paon":"39","saon":"","street":"STONETHWAITE CLOSE","locality":"HARTLEPOOL","townOrCity":"HARTLEPOOL","district":"HARTLEPOOL","county":"HARTLEPOOL","ppdCategoryType":"Standard","recordStatus":"Addition","latitude":54.698839,"longitude":-1.213799,"postcodeStart":"TS24 8","postcode":["TS24","8RA"]}
{"price":32000,"dateOfTransfer":"1995-03-03T00:00:00","postcodeFull":"TS24 8RA","propertyType":"Semi-detached","oldOrNew":"New build","duration":"Freehold","paon":"32","saon":"","street":"STONETHWAITE CLOSE","locality":"HARTLEPOOL","townOrCity":"HARTLEPOOL","district":"HARTLEPOOL","county":"HARTLEPOOL","ppdCategoryType":"Standard","recordStatus":"Addition","latitude":54.698839,"longitude":-1.213799,"postcodeStart":"TS24 8","postcode":["TS24","8RA"]}
{"price":26950,"dateOfTransfer":"1995-03-10T00:00:00","postcodeFull":"TS24 8RE","propertyType":"Flat/Maisonette/Townhouse","oldOrNew":"New build","duration":"Leasehold","paon":"40","saon":"","street":"ROSTHWAITE CLOSE","locality":"HARTLEPOOL","townOrCity":"HARTLEPOOL","district":"HARTLEPOOL","county":"HARTLEPOOL","ppdCategoryType":"Standard","recordStatus":"Addition","latitude":54.699866,"longitude":-1.212911,"postcodeStart":"TS24 8","postcode":["TS24","8RE"]}
{"price":34950,"dateOfTransfer":"1995-01-12T00:00:00","postcodeFull":"TS24 8RD","propertyType":"Semi-detached","oldOrNew":"New build","duration":"Freehold","paon":"65","saon":"","street":"ROSTHWAITE CLOSE","locality":"HARTLEPOOL","townOrCity":"HARTLEPOOL","district":"HARTLEPOOL","county":"HARTLEPOOL","ppdCategoryType":"Standard","recordStatus":"Addition","latitude":54.700061,"longitude":-1.213822,"postcodeStart":"TS24 8","postcode":["TS24","8RD"]}
{"price":36000,"dateOfTransfer":"1995-06-09T00:00:00","postcodeFull":"TS24 8JL","propertyType":"Terraced","oldOrNew":"Established","duration":"Freehold","paon":"58","saon":"","street":"LIME CRESCENT","locality":"HARTLEPOOL","townOrCity":"HARTLEPOOL","district":"HARTLEPOOL","county":"HARTLEPOOL","ppdCategoryType":"Standard","recordStatus":"Addition","latitude":54.698157,"longitude":-1.225124,"postcodeStart":"TS24 8","postcode":["TS24","8JL"]}
{"price":26500,"dateOfTransfer":"1995-02-23T00:00:00","postcodeFull":"TS24 8RE","propertyType":"Semi-detached","oldOrNew":"New build","duration":"Leasehold","paon":"76","saon":"","street":"ROSTHWAITE CLOSE","locality":"HARTLEPOOL","townOrCity":"HARTLEPOOL","district":"HARTLEPOOL","county":"HARTLEPOOL","ppdCategoryType":"Standard","recordStatus":"Addition","latitude":54.699866,"longitude":-1.212911,"postcodeStart":"TS24 8","postcode":["TS24","8RE"]}
{"price":37950,"dateOfTransfer":"1995-02-15T00:00:00","postcodeFull":"TS24 8RD","propertyType":"Semi-detached","oldOrNew":"New build","duration":"Freehold","paon":"1","saon":"","street":"ROSTHWAITE CLOSE","locality":"HARTLEPOOL","townOrCity":"HARTLEPOOL","district":"HARTLEPOOL","county":"HARTLEPOOL","ppdCategoryType":"Standard","recordStatus":"Addition","latitude":54.700061,"longitude":-1.213822,"postcodeStart":"TS24 8","postcode":["TS24","8RD"]}
{"price":25500,"dateOfTransfer":"1995-01-19T00:00:00","postcodeFull":"TS24 8LG","propertyType":"Terraced","oldOrNew":"Established","duration":"Freehold","paon":"26","saon":"","street":"IVY GROVE","locality":"HARTLEPOOL","townOrCity":"HARTLEPOOL","district":"HARTLEPOOL","county":"HARTLEPOOL","ppdCategoryType":"Standard","recordStatus":"Addition","latitude":54.69815,"longitude":-1.226847,"postcodeStart":"TS24 8","postcode":["TS24","8LG"]}
{"price":31500,"dateOfTransfer":"1995-01-13T00:00:00","postcodeFull":"TS24 8RE","propertyType":"Semi-detached","oldOrNew":"New build","duration":"Freehold","paon":"10","saon":"","street":"ROSTHWAITE CLOSE","locality":"HARTLEPOOL","townOrCity":"HARTLEPOOL","district":"HARTLEPOOL","county":"HARTLEPOOL","ppdCategoryType":"Standard","recordStatus":"Addition","latitude":54.699866,"longitude":-1.212911,"postcodeStart":"TS24 8","postcode":["TS24","8RE"]}
{"price":26950,"dateOfTransfer":"1995-02-03T00:00:00","postcodeFull":"TS24 8RE","propertyType":"Semi-detached","oldOrNew":"New build","duration":"Leasehold","paon":"82","saon":"","street":"ROSTHWAITE CLOSE","locality":"HARTLEPOOL","townOrCity":"HARTLEPOOL","district":"HARTLEPOOL","county":"HARTLEPOOL","ppdCategoryType":"Standard","recordStatus":"Addition","latitude":54.699866,"longitude":-1.212911,"postcodeStart":"TS24 8","postcode":["TS24","8RE"]}
{"price":32500,"dateOfTransfer":"1995-08-18T00:00:00","postcodeFull":"TS24 8QS","propertyType":"Terraced","oldOrNew":"Established","duration":"Freehold","paon":"54","saon":"","street":"JESMOND GARDENS","locality":"HARTLEPOOL","townOrCity":"HARTLEPOOL","district":"HARTLEPOOL","county":"HARTLEPOOL","ppdCategoryType":"Standard","recordStatus":"Addition","latitude":54.693596,"longitude":-1.227212,"postcodeStart":"TS24 8","postcode":["TS24","8QS"]}
{"price":41700,"dateOfTransfer":"1995-08-18T00:00:00","postcodeFull":"TS24 8QR","propertyType":"Semi-detached","oldOrNew":"Established","duration":"Freehold","paon":"33","saon":"","street":"ASHLEY GARDENS","locality":"HARTLEPOOL","townOrCity":"HARTLEPOOL","district":"HARTLEPOOL","county":"HARTLEPOOL","ppdCategoryType":"Standard","recordStatus":"Addition","latitude":54.693706,"longitude":-1.226155,"postcodeStart":"TS24 8","postcode":["TS24","8QR"]}
{"price":24000,"dateOfTransfer":"1995-04-13T00:00:00","postcodeFull":"TS24 8HJ","propertyType":"Terraced","oldOrNew":"Established","duration":"Freehold","paon":"16","saon":"","street":"CHATHAM GARDENS","locality":"HARTLEPOOL","townOrCity":"HARTLEPOOL","district":"HARTLEPOOL","county":"HARTLEPOOL","ppdCategoryType":"Standard","recordStatus":"Addition","latitude":54.695534,"longitude":-1.22373,"postcodeStart":"TS24 8","postcode":["TS24","8HJ"]}
{"price":41000,"dateOfTransfer":"1995-12-08T00:00:00","postcodeFull":"TS24 8LT","propertyType":"Semi-detached","oldOrNew":"Established","duration":"Freehold","paon":"15","saon":"","street":"AMBERTON ROAD","locality":"HARTLEPOOL","townOrCity":"HARTLEPOOL","district":"HARTLEPOOL","county":"HARTLEPOOL","ppdCategoryType":"Standard","recordStatus":"Addition","latitude":54.697088,"longitude":-1.214019,"postcodeStart":"TS24 8","postcode":["TS24","8LT"]}
{"price":35000,"dateOfTransfer":"1995-08-25T00:00:00","postcodeFull":"TS24 8LZ","propertyType":"Semi-detached","oldOrNew":"Established","duration":"Freehold","paon":"34","saon":"","street":"POWLETT ROAD","locality":"HARTLEPOOL","townOrCity":"HARTLEPOOL","district":"HARTLEPOOL","county":"HARTLEPOOL","ppdCategoryType":"Standard","recordStatus":"Addition","latitude":54.69796,"longitude":-1.214111,"postcodeStart":"TS24 8","postcode":["TS24","8LZ"]}
{"price":18250,"dateOfTransfer":"1995-08-10T00:00:00","postcodeFull":"TS24 8QR","propertyType":"Terraced","oldOrNew":"Established","duration":"Freehold","paon":"45","saon":"","street":"ASHLEY GARDENS","locality":"HARTLEPOOL","townOrCity":"HARTLEPOOL","district":"HARTLEPOOL","county":"HARTLEPOOL","ppdCategoryType":"Standard","recordStatus":"Addition","latitude":54.693706,"longitude":-1.226155,"postcodeStart":"TS24 8","postcode":["TS24","8QR"]}
{"price":60000,"dateOfTransfer":"1995-03-03T00:00:00","postcodeFull":"TS24 8RA","propertyType":"Terraced","oldOrNew":"New build","duration":"Freehold","paon":"30","saon":"","street":"STONETHWAITE CLOSE","locality":"HARTLEPOOL","townOrCity":"HARTLEPOOL","district":"HARTLEPOOL","county":"HARTLEPOOL","ppdCategoryType":"Standard","recordStatus":"Addition","latitude":54.698839,"longitude":-1.213799,"postcodeStart":"TS24 8","postcode":["TS24","8RA"]}
{"price":38950,"dateOfTransfer":"1995-01-16T00:00:00","postcodeFull":"TS24 8RE","propertyType":"Semi-detached","oldOrNew":"New build","duration":"Freehold","paon":"2","saon":"","street":"ROSTHWAITE CLOSE","locality":"HARTLEPOOL","townOrCity":"HARTLEPOOL","district":"HARTLEPOOL","county":"HARTLEPOOL","ppdCategoryType":"Standard","recordStatus":"Addition","latitude":54.699866,"longitude":-1.212911,"postcodeStart":"TS24 8","postcode":["TS24","8RE"]}
{"price":12500,"dateOfTransfer":"1995-02-14T00:00:00","postcodeFull":"TS24 8DN","propertyType":"Terraced","oldOrNew":"Established","duration":"Freehold","paon":"3","saon":"","street":"FURNESS STREET","locality":"HARTLEPOOL","townOrCity":"HARTLEPOOL","district":"HARTLEPOOL","county":"HARTLEPOOL","ppdCategoryType":"Standard","recordStatus":"Addition","latitude":54.690632,"longitude":-1.216304,"postcodeStart":"TS24 8","postcode":["TS24","8DN"]}
{"price":20000,"dateOfTransfer":"1995-10-20T00:00:00","postcodeFull":"TS24 8NS","propertyType":"Terraced","oldOrNew":"Established","duration":"Freehold","paon":"49","saon":"","street":"WHARTON TERRACE","locality":"HARTLEPOOL","townOrCity":"HARTLEPOOL","district":"HARTLEPOOL","county":"HARTLEPOOL","ppdCategoryType":"Standard","recordStatus":"Addition","latitude":54.694454,"longitude":-1.216645,"postcodeStart":"TS24 8","postcode":["TS24","8NS"]}
{"price":25950,"dateOfTransfer":"1995-01-27T00:00:00","postcodeFull":"TS24 8RF","propertyType":"Semi-detached","oldOrNew":"New build","duration":"Leasehold","paon":"47","saon":"","street":"WASDALE CLOSE","locality":"HARTLEPOOL","townOrCity":"HARTLEPOOL","district":"HARTLEPOOL","county":"HARTLEPOOL","ppdCategoryType":"Standard","recordStatus":"Addition","latitude":54.701005,"longitude":-1.213928,"postcodeStart":"TS24 8","postcode":["TS24","8RF"]}
{"price":12000,"dateOfTransfer":"1995-06-30T00:00:00","postcodeFull":"TS24 8AT","propertyType":"Terraced","oldOrNew":"Established","duration":"Freehold","paon":"54","saon":"","street":"AVENUE ROAD","locality":"HARTLEPOOL","townOrCity":"HARTLEPOOL","district":"HARTLEPOOL","county":"HARTLEPOOL","ppdCategoryType":"Standard","recordStatus":"Addition","latitude":54.687176,"longitude":-1.215483,"postcodeStart":"TS24 8","postcode":["TS24","8AT"]}
{"price":26950,"dateOfTransfer":"1995-03-10T00:00:00","postcodeFull":"TS24 8RE","propertyType":"Flat/Maisonette/Townhouse","oldOrNew":"New build","duration":"Leasehold","paon":"20","saon":"","street":"ROSTHWAITE CLOSE","locality":"HARTLEPOOL","townOrCity":"HARTLEPOOL","district":"HARTLEPOOL","county":"HARTLEPOOL","ppdCategoryType":"Standard","recordStatus":"Addition","latitude":54.699866,"longitude":-1.212911,"postcodeStart":"TS24 8","postcode":["TS24","8RE"]}
{"price":32000,"dateOfTransfer":"1995-01-27T00:00:00","postcodeFull":"TS24 8RA","propertyType":"Semi-detached","oldOrNew":"New build","duration":"Freehold","paon":"23","saon":"","street":"STONETHWAITE CLOSE","locality":"HARTLEPOOL","townOrCity":"HARTLEPOOL","district":"HARTLEPOOL","county":"HARTLEPOOL","ppdCategoryType":"Standard","recordStatus":"Addition","latitude":54.698839,"longitude":-1.213799,"postcodeStart":"TS24 8","postcode":["TS24","8RA"]}
{"price":26950,"dateOfTransfer":"1995-02-27T00:00:00","postcodeFull":"TS24 8RE","propertyType":"Terraced","oldOrNew":"New build","duration":"Leasehold","paon":"26","saon":"","street":"ROSTHWAITE CLOSE","locality":"HARTLEPOOL","townOrCity":"HARTLEPOOL","district":"HARTLEPOOL","county":"HARTLEPOOL","ppdCategoryType":"Standard","recordStatus":"Addition","latitude":54.699866,"longitude":-1.212911,"postcodeStart":"TS24 8","postcode":["TS24","8RE"]}
{"price":37950,"dateOfTransfer":"1995-02-16T00:00:00","postcodeFull":"TS24 8RA","propertyType":"Terraced","oldOrNew":"New build","duration":"Freehold","paon":"25","saon":"","street":"STONETHWAITE CLOSE","locality":"HARTLEPOOL","townOrCity":"HARTLEPOOL","district":"HARTLEPOOL","county":"HARTLEPOOL","ppdCategoryType":"Standard","recordStatus":"Addition","latitude":54.698839,"longitude":-1.213799,"postcodeStart":"TS24 8","postcode":["TS24","8RA"]}
{"price":37950,"dateOfTransfer":"1995-03-10T00:00:00","postcodeFull":"TS24 8RA","propertyType":"Semi-detached","oldOrNew":"New build","duration":"Freehold","paon":"43","saon":"","street":"STONETHWAITE CLOSE","locality":"HARTLEPOOL","townOrCity":"HARTLEPOOL","district":"HARTLEPOOL","county":"HARTLEPOOL","ppdCategoryType":"Standard","recordStatus":"Addition","latitude":54.698839,"longitude":-1.213799,"postcodeStart":"TS24 8","postcode":["TS24","8RA"]}
{"price":13000,"dateOfTransfer":"1995-10-27T00:00:00","postcodeFull":"TS24 8EJ","propertyType":"Terraced","oldOrNew":"Established","duration":"Freehold","paon":"164","saon":"","street":"RABY ROAD","locality":"HARTLEPOOL","townOrCity":"HARTLEPOOL","district":"HARTLEPOOL","county":"HARTLEPOOL","ppdCategoryType":"Standard","recordStatus":"Addition","latitude":54.692654,"longitude":-1.218945,"postcodeStart":"TS24 8","postcode":["TS24","8EJ"]}
{"price":29950,"dateOfTransfer":"1995-08-04T00:00:00","postcodeFull":"TS24 8QS","propertyType":"Terraced","oldOrNew":"Established","duration":"Freehold","paon":"6","saon":"","street":"JESMOND GARDENS","locality":"HARTLEPOOL","townOrCity":"HARTLEPOOL","district":"HARTLEPOOL","county":"HARTLEPOOL","ppdCategoryType":"Standard","recordStatus":"Addition","latitude":54.693596,"longitude":-1.227212,"postcodeStart":"TS24 8","postcode":["TS24","8QS"]}
{"price":31500,"dateOfTransfer":"1995-10-20T00:00:00","postcodeFull":"TS24 8NS","propertyType":"Terraced","oldOrNew":"Established","duration":"Freehold","paon":"51","saon":"","street":"WHARTON TERRACE","locality":"HARTLEPOOL","townOrCity":"HARTLEPOOL","district":"HARTLEPOOL","county":"HARTLEPOOL","ppdCategoryType":"Standard","recordStatus":"Addition","latitude":54.694454,"longitude":-1.216645,"postcodeStart":"TS24 8","postcode":["TS24","8NS"]}
{"price":24950,"dateOfTransfer":"1995-04-21T00:00:00","postcodeFull":"TS24 8RA","propertyType":"Flat/Maisonette/Townhouse","oldOrNew":"New build","duration":"Leasehold","paon":"33","saon":"","street":"STONETHWAITE CLOSE","locality":"HARTLEPOOL","townOrCity":"HARTLEPOOL","district":"HARTLEPOOL","county":"HARTLEPOOL","ppdCategoryType":"Standard","recordStatus":"Addition","latitude":54.698839,"longitude":-1.213799,"postcodeStart":"TS24 8","postcode":["TS24","8RA"]}
{"price":14000,"dateOfTransfer":"1995-10-23T00:00:00","postcodeFull":"TS24 8DN","propertyType":"Terraced","oldOrNew":"Established","duration":"Freehold","paon":"44","saon":"","street":"FURNESS STREET","locality":"HARTLEPOOL","townOrCity":"HARTLEPOOL","district":"HARTLEPOOL","county":"HARTLEPOOL","ppdCategoryType":"Standard","recordStatus":"Addition","latitude":54.690632,"longitude":-1.216304,"postcodeStart":"TS24 8","postcode":["TS24","8DN"]}
{"price":15000,"dateOfTransfer":"1995-05-05T00:00:00","postcodeFull":"TS24 8NR","propertyType":"Terraced","oldOrNew":"Established","duration":"Freehold","paon":"29","saon":"","street":"ST OSWALDS STREET","locality":"HARTLEPOOL","townOrCity":"HARTLEPOOL","district":"HARTLEPOOL","county":"HARTLEPOOL","ppdCategoryType":"Standard","recordStatus":"Addition","latitude":54.693917,"longitude":-1.218412,"postcodeStart":"TS24 8","postcode":["TS24","8NR"]}
{"price":60000,"dateOfTransfer":"1995-02-20T00:00:00","postcodeFull":"TS24 8RA","propertyType":"Semi-detached","oldOrNew":"New build","duration":"Freehold","paon":"27","saon":"","street":"STONETHWAITE CLOSE","locality":"HARTLEPOOL","townOrCity":"HARTLEPOOL","district":"HARTLEPOOL","county":"HARTLEPOOL","ppdCategoryType":"Standard","recordStatus":"Addition","latitude":54.698839,"longitude":-1.213799,"postcodeStart":"TS24 8","postcode":["TS24","8RA"]}
{"price":25600,"dateOfTransfer":"1995-04-03T00:00:00","postcodeFull":"TS24 8RA","propertyType":"Flat/Maisonette/Townhouse","oldOrNew":"New build","duration":"Leasehold","paon":"31","saon":"","street":"STONETHWAITE CLOSE","locality":"HARTLEPOOL","townOrCity":"HARTLEPOOL","district":"HARTLEPOOL","county":"HARTLEPOOL","ppdCategoryType":"Standard","recordStatus":"Addition","latitude":54.698839,"longitude":-1.213799,"postcodeStart":"TS24 8","postcode":["TS24","8RA"]}
{"price":20000,"dateOfTransfer":"1995-07-31T00:00:00","postcodeFull":"TS24 8NJ","propertyType":"Terraced","oldOrNew":"Established","duration":"Freehold","paon":"49","saon":"","street":"PARTON STREET","locality":"HARTLEPOOL","townOrCity":"HARTLEPOOL","district":"HARTLEPOOL","county":"HARTLEPOOL","ppdCategoryType":"Standard","recordStatus":"Addition","latitude":54.694718,"longitude":-1.218627,"postcodeStart":"TS24 8","postcode":["TS24","8NJ"]}
{"price":37950,"dateOfTransfer":"1995-03-03T00:00:00","postcodeFull":"TS24 8RD","propertyType":"Semi-detached","oldOrNew":"New build","duration":"Freehold","paon":"5","saon":"","street":"ROSTHWAITE CLOSE","locality":"HARTLEPOOL","townOrCity":"HARTLEPOOL","district":"HARTLEPOOL","county":"HARTLEPOOL","ppdCategoryType":"Standard","recordStatus":"Addition","latitude":54.700061,"longitude":-1.213822,"postcodeStart":"TS24 8","postcode":["TS24","8RD"]}
{"price":37950,"dateOfTransfer":"1995-01-20T00:00:00","postcodeFull":"TS24 8RA","propertyType":"Semi-detached","oldOrNew":"New build","duration":"Freehold","paon":"21","saon":"","street":"STONETHWAITE CLOSE","locality":"HARTLEPOOL","townOrCity":"HARTLEPOOL","district":"HARTLEPOOL","county":"HARTLEPOOL","ppdCategoryType":"Standard","recordStatus":"Addition","latitude":54.698839,"longitude":-1.213799,"postcodeStart":"TS24 8","postcode":["TS24","8RA"]}
{"price":21500,"dateOfTransfer":"1995-11-30T00:00:00","postcodeFull":"TS24 8DL","propertyType":"Terraced","oldOrNew":"Established","duration":"Freehold","paon":"25","saon":"","street":"CAMERON ROAD","locality":"HARTLEPOOL","townOrCity":"HARTLEPOOL","district":"HARTLEPOOL","county":"HARTLEPOOL","ppdCategoryType":"Standard","recordStatus":"Addition","latitude":54.690126,"longitude":-1.215953,"postcodeStart":"TS24 8","postcode":["TS24","8DL"]}
{"price":16400,"dateOfTransfer":"1995-02-22T00:00:00","postcodeFull":"TS24 8ES","propertyType":"Terraced","oldOrNew":"Established","duration":"Freehold","paon":"36","saon":"","street":"HURWORTH STREET","locality":"HARTLEPOOL","townOrCity":"HARTLEPOOL","district":"HARTLEPOOL","county":"HARTLEPOOL","ppdCategoryType":"Standard","recordStatus":"Addition","latitude":54.692987,"longitude":-1.218954,"postcodeStart":"TS24 8","postcode":["TS24","8ES"]}
{"price":35950,"dateOfTransfer":"1995-06-23T00:00:00","postcodeFull":"TS24 8RA","propertyType":"Detached","oldOrNew":"New build","duration":"Freehold","paon":"5","saon":"","street":"STONETHWAITE CLOSE","locality":"HARTLEPOOL","townOrCity":"HARTLEPOOL","district":"HARTLEPOOL","county":"HARTLEPOOL","ppdCategoryType":"Standard","recordStatus":"Addition","latitude":54.698839,"longitude":-1.213799,"postcodeStart":"TS24 8","postcode":["TS24","8RA"]}
{"price":30000,"dateOfTransfer":"1995-02-11T00:00:00","postcodeFull":"TS24 8EH","propertyType":"Terraced","oldOrNew":"Established","duration":"Freehold","paon":"195","saon":"","street":"RABY ROAD","locality":"HARTLEPOOL","townOrCity":"HARTLEPOOL","district":"HARTLEPOOL","county":"HARTLEPOOL","ppdCategoryType":"Standard","recordStatus":"Addition","latitude":54.69271,"longitude":-1.219363,"postcodeStart":"TS24 8","postcode":["TS24","8EH"]}
{"price":21000,"dateOfTransfer":"1995-12-22T00:00:00","postcodeFull":"TS24 8EW","propertyType":"Terraced","oldOrNew":"Established","duration":"Freehold","paon":"60","saon":"","street":"TURNBULL STREET","locality":"HARTLEPOOL","townOrCity":"HARTLEPOOL","district":"HARTLEPOOL","county":"HARTLEPOOL","ppdCategoryType":"Standard","recordStatus":"Addition","latitude":54.692691,"longitude":-1.216291,"postcodeStart":"TS24 8","postcode":["TS24","8EW"]}
{"price":10000,"dateOfTransfer":"1995-05-15T00:00:00","postcodeFull":"TS24 8NT","propertyType":"Terraced","oldOrNew":"Established","duration":"Freehold","paon":"21","saon":"","street":"MILBANK ROAD","locality":"HARTLEPOOL","townOrCity":"HARTLEPOOL","district":"HARTLEPOOL","county":"HARTLEPOOL","ppdCategoryType":"Standard","recordStatus":"Addition","latitude":54.694658,"longitude":-1.216005,"postcodeStart":"TS24 8","postcode":["TS24","8NT"]}
{"price":26950,"dateOfTransfer":"1995-06-02T00:00:00","postcodeFull":"TS24 8RE","propertyType":"Semi-detached","oldOrNew":"New build","duration":"Leasehold","paon":"36","saon":"","street":"ROSTHWAITE CLOSE","locality":"HARTLEPOOL","townOrCity":"HARTLEPOOL","district":"HARTLEPOOL","county":"HARTLEPOOL","ppdCategoryType":"Standard","recordStatus":"Addition","latitude":54.699866,"longitude":-1.212911,"postcodeStart":"TS24 8","postcode":["TS24","8RE"]}
{"price":26950,"dateOfTransfer":"1995-01-27T00:00:00","postcodeFull":"TS24 8RE","propertyType":"Flat/Maisonette/Townhouse","oldOrNew":"New build","duration":"Leasehold","paon":"84","saon":"","street":"ROSTHWAITE CLOSE","locality":"HARTLEPOOL","townOrCity":"HARTLEPOOL","district":"HARTLEPOOL","county":"HARTLEPOOL","ppdCategoryType":"Standard","recordStatus":"Addition","latitude":54.699866,"longitude":-1.212911,"postcodeStart":"TS24 8","postcode":["TS24","8RE"]}
{"price":6750,"dateOfTransfer":"1995-12-07T00:00:00","postcodeFull":"TS24 8NF","propertyType":"Terraced","oldOrNew":"Established","duration":"Freehold","paon":"22","saon":"","street":"MILBANK ROAD","locality":"HARTLEPOOL","townOrCity":"HARTLEPOOL","district":"HARTLEPOOL","county":"HARTLEPOOL","ppdCategoryType":"Standard","recordStatus":"Addition","latitude":54.695039,"longitude":-1.215548,"postcodeStart":"TS24 8","postcode":["TS24","8NF"]}
{"price":38000,"dateOfTransfer":"1995-07-07T00:00:00","postcodeFull":"TS24 8LZ","propertyType":"Detached","oldOrNew":"Established","duration":"Freehold","paon":"36","saon":"","street":"POWLETT ROAD","locality":"HARTLEPOOL","townOrCity":"HARTLEPOOL","district":"HARTLEPOOL","county":"HARTLEPOOL","ppdCategoryType":"Standard","recordStatus":"Addition","latitude":54.69796,"longitude":-1.214111,"postcodeStart":"TS24 8","postcode":["TS24","8LZ"]}
{"price":25950,"dateOfTransfer":"1995-01-26T00:00:00","postcodeFull":"TS24 8RF","propertyType":"Flat/Maisonette/Townhouse","oldOrNew":"New build","duration":"Leasehold","paon":"53","saon":"","street":"WASDALE CLOSE","locality":"HARTLEPOOL","townOrCity":"HARTLEPOOL","district":"HARTLEPOOL","county":"HARTLEPOOL","ppdCategoryType":"Standard","recordStatus":"Addition","latitude":54.701005,"longitude":-1.213928,"postcodeStart":"TS24 8","postcode":["TS24","8RF"]}
{"price":32000,"dateOfTransfer":"1995-03-31T00:00:00","postcodeFull":"TS24 8RA","propertyType":"Semi-detached","oldOrNew":"New build","duration":"Freehold","paon":"29","saon":"","street":"STONETHWAITE CLOSE","locality":"HARTLEPOOL","townOrCity":"HARTLEPOOL","district":"HARTLEPOOL","county":"HARTLEPOOL","ppdCategoryType":"Standard","recordStatus":"Addition","latitude":54.698839,"longitude":-1.213799,"postcodeStart":"TS24 8","postcode":["TS24","8RA"]}
{"price":32000,"dateOfTransfer":"1995-01-27T00:00:00","postcodeFull":"TS24 8QJ","propertyType":"Terraced","oldOrNew":"Established","duration":"Freehold","paon":"18","saon":"","street":"WYNNSTAY GARDENS","locality":"HARTLEPOOL","townOrCity":"HARTLEPOOL","district":"HARTLEPOOL","county":"HARTLEPOOL","ppdCategoryType":"Standard","recordStatus":"Addition","latitude":54.693862,"longitude":-1.223965,"postcodeStart":"TS24 8","postcode":["TS24","8QJ"]}
{"price":36450,"dateOfTransfer":"1995-02-03T00:00:00","postcodeFull":"TS24 8RA","propertyType":"Terraced","oldOrNew":"New build","duration":"Freehold","paon":"36","saon":"","street":"STONETHWAITE CLOSE","locality":"HARTLEPOOL","townOrCity":"HARTLEPOOL","district":"HARTLEPOOL","county":"HARTLEPOOL","ppdCategoryType":"Standard","recordStatus":"Addition","latitude":54.698839,"longitude":-1.213799,"postcodeStart":"TS24 8","postcode":["TS24","8RA"]}
{"price":27950,"dateOfTransfer":"1995-04-07T00:00:00","postcodeFull":"TS24 8RA","propertyType":"Semi-detached","oldOrNew":"New build","duration":"Leasehold","paon":"41","saon":"","street":"STONETHWAITE CLOSE","locality":"HARTLEPOOL","townOrCity":"HARTLEPOOL","district":"HARTLEPOOL","county":"HARTLEPOOL","ppdCategoryType":"Standard","recordStatus":"Addition","latitude":54.698839,"longitude":-1.213799,"postcodeStart":"TS24 8","postcode":["TS24","8RA"]}
{"price":28000,"dateOfTransfer":"1995-11-03T00:00:00","postcodeFull":"TS24 8LY","propertyType":"Terraced","oldOrNew":"Established","duration":"Freehold","paon":"41","saon":"","street":"POWLETT ROAD","locality":"HARTLEPOOL","townOrCity":"HARTLEPOOL","district":"HARTLEPOOL","county":"HARTLEPOOL","ppdCategoryType":"Standard","recordStatus":"Addition","latitude":54.69829,"longitude":-1.213717,"postcodeStart":"TS24 8","postcode":["TS24","8LY"]}
{"price":27500,"dateOfTransfer":"1995-11-30T00:00:00","postcodeFull":"TS24 8RB","propertyType":"Flat/Maisonette/Townhouse","oldOrNew":"Established","duration":"Leasehold","paon":"75","saon":"","street":"GATESGARTH CLOSE","locality":"HARTLEPOOL","townOrCity":"HARTLEPOOL","district":"HARTLEPOOL","county":"HARTLEPOOL","ppdCategoryType":"Standard","recordStatus":"Addition","latitude":54.699954,"longitude":-1.21533,"postcodeStart":"TS24 8","postcode":["TS24","8RB"]}
{"price":31500,"dateOfTransfer":"1995-02-03T00:00:00","postcodeFull":"TS24 8RE","propertyType":"Terraced","oldOrNew":"New build","duration":"Freehold","paon":"42","saon":"","street":"ROSTHWAITE CLOSE","locality":"HARTLEPOOL","townOrCity":"HARTLEPOOL","district":"HARTLEPOOL","county":"HARTLEPOOL","ppdCategoryType":"Standard","recordStatus":"Addition","latitude":54.699866,"longitude":-1.212911,"postcodeStart":"TS24 8","postcode":["TS24","8RE"]}
{"price":35450,"dateOfTransfer":"1995-01-05T00:00:00","postcodeFull":"TS24 8RE","propertyType":"Terraced","oldOrNew":"New build","duration":"Freehold","paon":"14","saon":"","street":"ROSTHWAITE CLOSE","locality":"HARTLEPOOL","townOrCity":"HARTLEPOOL","district":"HARTLEPOOL","county":"HARTLEPOOL","ppdCategoryType":"Standard","recordStatus":"Addition","latitude":54.699866,"longitude":-1.212911,"postcodeStart":"TS24 8","postcode":["TS24","8RE"]}
{"price":41000,"dateOfTransfer":"1995-06-30T00:00:00","postcodeFull":"TS24 8RF","propertyType":"Semi-detached","oldOrNew":"Established","duration":"Freehold","paon":"14","saon":"","street":"WASDALE CLOSE","locality":"HARTLEPOOL","townOrCity":"HARTLEPOOL","district":"HARTLEPOOL","county":"HARTLEPOOL","ppdCategoryType":"Standard","recordStatus":"Addition","latitude":54.701005,"longitude":-1.213928,"postcodeStart":"TS24 8","postcode":["TS24","8RF"]}
{"price":28000,"dateOfTransfer":"1995-05-31T00:00:00","postcodeFull":"TS24 8LS","propertyType":"Terraced","oldOrNew":"Established","duration":"Freehold","paon":"95","saon":"","street":"LANCASTER ROAD","locality":"HARTLEPOOL","townOrCity":"HARTLEPOOL","district":"HARTLEPOOL","county":"HARTLEPOOL","ppdCategoryType":"Standard","recordStatus":"Addition","latitude":54.697591,"longitude":-1.212706,"postcodeStart":"TS24 8","postcode":["TS24","8LS"]}
{"price":23000,"dateOfTransfer":"1995-01-16T00:00:00","postcodeFull":"TS24 8NH","propertyType":"Semi-detached","oldOrNew":"Established","duration":"Freehold","paon":"23","saon":"","street":"AVONDALE GARDENS","locality":"HARTLEPOOL","townOrCity":"HARTLEPOOL","district":"HARTLEPOOL","county":"HARTLEPOOL","ppdCategoryType":"Standard","recordStatus":"Addition","latitude":54.695141,"longitude":-1.218727,"postcodeStart":"TS24 8","postcode":["TS24","8NH"]}
{"price":20000,"dateOfTransfer":"1995-10-06T00:00:00","postcodeFull":"TS24 8QQ","propertyType":"Terraced","oldOrNew":"Established","duration":"Freehold","paon":"59","saon":"","street":"CHATHAM ROAD","locality":"HARTLEPOOL","townOrCity":"HARTLEPOOL","district":"HARTLEPOOL","county":"HARTLEPOOL","ppdCategoryType":"Standard","recordStatus":"Addition","latitude":54.694604,"longitude":-1.224633,"postcodeStart":"TS24 8","postcode":["TS24","8QQ"]}
{"price":32000,"dateOfTransfer":"1995-02-02T00:00:00","postcodeFull":"TS24 8RA","propertyType":"Semi-detached","oldOrNew":"New build","duration":"Freehold","paon":"40","saon":"","street":"STONETHWAITE CLOSE","locality":"HARTLEPOOL","townOrCity":"HARTLEPOOL","district":"HARTLEPOOL","county":"HARTLEPOOL","ppdCategoryType":"Standard","recordStatus":"Addition","latitude":54.698839,"longitude":-1.213799,"postcodeStart":"TS24 8","postcode":["TS24","8RA"]}
{"price":28500,"dateOfTransfer":"1995-01-25T00:00:00","postcodeFull":"TS24 8JW","propertyType":"Terraced","oldOrNew":"Established","duration":"Freehold","paon":"86","saon":"","street":"LIME CRESCENT","locality":"HARTLEPOOL","townOrCity":"HARTLEPOOL","district":"HARTLEPOOL","county":"HARTLEPOOL","ppdCategoryType":"Standard","recordStatus":"Addition","latitude":54.69825,"longitude":-1.224269,"postcodeStart":"TS24 8","postcode":["TS24","8JW"]}
{"price":42800,"dateOfTransfer":"1995-08-18T00:00:00","postcodeFull":"TS24 8QJ","propertyType":"Terraced","oldOrNew":"Established","duration":"Freehold","paon":"28","saon":"","street":"WYNNSTAY GARDENS","locality":"HARTLEPOOL","townOrCity":"HARTLEPOOL","district":"HARTLEPOOL","county":"HARTLEPOOL","ppdCategoryType":"Standard","recordStatus":"Addition","latitude":54.693862,"longitude":-1.223965,"postcodeStart":"TS24 8","postcode":["TS24","8QJ"]}
{"price":11000,"dateOfTransfer":"1995-07-19T00:00:00","postcodeFull":"TS24 8QQ","propertyType":"Terraced","oldOrNew":"Established","duration":"Freehold","paon":"53","saon":"","street":"CHATHAM ROAD","locality":"HARTLEPOOL","townOrCity":"HARTLEPOOL","district":"HARTLEPOOL","county":"HARTLEPOOL","ppdCategoryType":"Standard","recordStatus":"Addition","latitude":54.694604,"longitude":-1.224633,"postcodeStart":"TS24 8","postcode":["TS24","8QQ"]}
{"price":22500,"dateOfTransfer":"1995-04-19T00:00:00","postcodeFull":"TS24 8NT","propertyType":"Terraced","oldOrNew":"Established","duration":"Freehold","paon":"19","saon":"","street":"MILBANK ROAD","locality":"HARTLEPOOL","townOrCity":"HARTLEPOOL","district":"HARTLEPOOL","county":"HARTLEPOOL","ppdCategoryType":"Standard","recordStatus":"Addition","latitude":54.694658,"longitude":-1.216005,"postcodeStart":"TS24 8","postcode":["TS24","8NT"]}
{"price":13500,"dateOfTransfer":"1995-06-02T00:00:00","postcodeFull":"TS24 8DN","propertyType":"Terraced","oldOrNew":"Established","duration":"Freehold","paon":"31","saon":"","street":"FURNESS STREET","locality":"HARTLEPOOL","townOrCity":"HARTLEPOOL","district":"HARTLEPOOL","county":"HARTLEPOOL","ppdCategoryType":"Standard","recordStatus":"Addition","latitude":54.690632,"longitude":-1.216304,"postcodeStart":"TS24 8","postcode":["TS24","8DN"]}
{"price":28000,"dateOfTransfer":"1995-06-09T00:00:00","postcodeFull":"TS24 8ES","propertyType":"Terraced","oldOrNew":"Established","duration":"Freehold","paon":"19","saon":"","street":"HURWORTH STREET","locality":"HARTLEPOOL","townOrCity":"HARTLEPOOL","district":"HARTLEPOOL","county":"HARTLEPOOL","ppdCategoryType":"Standard","recordStatus":"Addition","latitude":54.692987,"longitude":-1.218954,"postcodeStart":"TS24 8","postcode":["TS24","8ES"]}
{"price":22000,"dateOfTransfer":"1995-06-30T00:00:00","postcodeFull":"TS24 8EX","propertyType":"Terraced","oldOrNew":"Established","duration":"Freehold","paon":"22","saon":"","street":"BROUGHAM TERRACE","locality":"HARTLEPOOL","townOrCity":"HARTLEPOOL","district":"HARTLEPOOL","county":"HARTLEPOOL","ppdCategoryType":"Standard","recordStatus":"Addition","latitude":54.693312,"longitude":-1.218095,"postcodeStart":"TS24 8","postcode":["TS24","8EX"]}
{"price":16850,"dateOfTransfer":"1995-11-24T00:00:00","postcodeFull":"TS24 8NW","propertyType":"Terraced","oldOrNew":"Established","duration":"Freehold","paon":"11","saon":"","street":"WHARTON TERRACE","locality":"HARTLEPOOL","townOrCity":"HARTLEPOOL","district":"HARTLEPOOL","county":"HARTLEPOOL","ppdCategoryType":"Standard","recordStatus":"Addition","latitude":54.694124,"longitude":-1.218452,"postcodeStart":"TS24 8","postcode":["TS24","8NW"]}
{"price":45000,"dateOfTransfer":"1995-12-18T00:00:00","postcodeFull":"TS24 8DT","propertyType":"Terraced","oldOrNew":"Established","duration":"Freehold","paon":"113","saon":"","street":"RABY ROAD","locality":"HARTLEPOOL","townOrCity":"HARTLEPOOL","district":"HARTLEPOOL","county":"HARTLEPOOL","ppdCategoryType":"Standard","recordStatus":"Addition","latitude":54.690158,"longitude":-1.217907,"postcodeStart":"TS24 8","postcode":["TS24","8DT"]}
{"price":39950,"dateOfTransfer":"1995-02-03T00:00:00","postcodeFull":"TS24 8RA","propertyType":"Terraced","oldOrNew":"New build","duration":"Freehold","paon":"3","saon":"","street":"STONETHWAITE CLOSE","locality":"HARTLEPOOL","townOrCity":"HARTLEPOOL","district":"HARTLEPOOL","county":"HARTLEPOOL","ppdCategoryType":"Standard","recordStatus":"Addition","latitude":54.698839,"longitude":-1.213799,"postcodeStart":"TS24 8","postcode":["TS24","8RA"]}
{"price":26000,"dateOfTransfer":"1995-10-27T00:00:00","postcodeFull":"TS24 8QW","propertyType":"Terraced","oldOrNew":"Established","duration":"Freehold","paon":"10","saon":"","street":"OAKLEY GARDENS","locality":"HARTLEPOOL","townOrCity":"HARTLEPOOL","district":"HARTLEPOOL","county":"HARTLEPOOL","ppdCategoryType":"Standard","recordStatus":"Addition","latitude":54.693762,"longitude":-1.225115,"postcodeStart":"TS24 8","postcode":["TS24","8QW"]}
{"price":35000,"dateOfTransfer":"1995-10-30T00:00:00","postcodeFull":"TS24 8QJ","propertyType":"Semi-detached","oldOrNew":"Established","duration":"Freehold","paon":"49","saon":"","street":"WYNNSTAY GARDENS","locality":"HARTLEPOOL","townOrCity":"HARTLEPOOL","district":"HARTLEPOOL","county":"HARTLEPOOL","ppdCategoryType":"Standard","recordStatus":"Addition","latitude":54.693862,"longitude":-1.223965,"postcodeStart":"TS24 8","postcode":["TS24","8QJ"]}
{"price":37950,"dateOfTransfer":"1995-05-09T00:00:00","postcodeFull":"TS24 8RB","propertyType":"Semi-detached","oldOrNew":"Established","duration":"Freehold","paon":"12","saon":"","street":"GATESGARTH CLOSE","locality":"HARTLEPOOL","townOrCity":"HARTLEPOOL","district":"HARTLEPOOL","county":"HARTLEPOOL","ppdCategoryType":"Standard","recordStatus":"Addition","latitude":54.699954,"longitude":-1.21533,"postcodeStart":"TS24 8","postcode":["TS24","8RB"]}
{"price":32000,"dateOfTransfer":"1995-02-24T00:00:00","postcodeFull":"TS24 8RA","propertyType":"Terraced","oldOrNew":"New build","duration":"Freehold","paon":"34","saon":"","street":"STONETHWAITE CLOSE","locality":"HARTLEPOOL","townOrCity":"HARTLEPOOL","district":"HARTLEPOOL","county":"HARTLEPOOL","ppdCategoryType":"Standard","recordStatus":"Addition","latitude":54.698839,"longitude":-1.213799,"postcodeStart":"TS24 8","postcode":["TS24","8RA"]}
{"price":33000,"dateOfTransfer":"1995-01-27T00:00:00","postcodeFull":"TS24 8RF","propertyType":"Terraced","oldOrNew":"New build","duration":"Freehold","paon":"39","saon":"","street":"WASDALE CLOSE","locality":"HARTLEPOOL","townOrCity":"HARTLEPOOL","district":"HARTLEPOOL","county":"HARTLEPOOL","ppdCategoryType":"Standard","recordStatus":"Addition","latitude":54.701005,"longitude":-1.213928,"postcodeStart":"TS24 8","postcode":["TS24","8RF"]}
{"price":31500,"dateOfTransfer":"1995-01-27T00:00:00","postcodeFull":"TS24 8RE","propertyType":"Terraced","oldOrNew":"New build","duration":"Freehold","paon":"12","saon":"","street":"ROSTHWAITE CLOSE","locality":"HARTLEPOOL","townOrCity":"HARTLEPOOL","district":"HARTLEPOOL","county":"HARTLEPOOL","ppdCategoryType":"Standard","recordStatus":"Addition","latitude":54.699866,"longitude":-1.212911,"postcodeStart":"TS24 8","postcode":["TS24","8RE"]}
{"price":18500,"dateOfTransfer":"1995-05-12T00:00:00","postcodeFull":"TS24 8BJ","propertyType":"Terraced","oldOrNew":"Established","duration":"Freehold","paon":"6","saon":"","street":"LOWTHIAN ROAD","locality":"HARTLEPOOL","townOrCity":"HARTLEPOOL","district":"HARTLEPOOL","county":"HARTLEPOOL","ppdCategoryType":"Standard","recordStatus":"Addition","latitude":54.687953,"longitude":-1.21615,"postcodeStart":"TS24 8","postcode":["TS24","8BJ"]}
{"price":40000,"dateOfTransfer":"1995-08-18T00:00:00","postcodeFull":"TS24 8RD","propertyType":"Semi-detached","oldOrNew":"Established","duration":"Freehold","paon":"1","saon":"","street":"ROSTHWAITE CLOSE","locality":"HARTLEPOOL","townOrCity":"HARTLEPOOL","district":"HARTLEPOOL","county":"HARTLEPOOL","ppdCategoryType":"Standard","recordStatus":"Addition","latitude":54.700061,"longitude":-1.213822,"postcodeStart":"TS24 8","postcode":["TS24","8RD"]}
{"price":25750,"dateOfTransfer":"1995-09-01T00:00:00","postcodeFull":"TS24 8RB","propertyType":"Flat/Maisonette/Townhouse","oldOrNew":"Established","duration":"Leasehold","paon":"19","saon":"","street":"GATESGARTH CLOSE","locality":"HARTLEPOOL","townOrCity":"HARTLEPOOL","district":"HARTLEPOOL","county":"HARTLEPOOL","ppdCategoryType":"Standard","recordStatus":"Addition","latitude":54.699954,"longitude":-1.21533,"postcodeStart":"TS24 8","postcode":["TS24","8RB"]}
{"price":26950,"dateOfTransfer":"1995-03-03T00:00:00","postcodeFull":"TS24 8RE","propertyType":"Flat/Maisonette/Townhouse","oldOrNew":"New build","duration":"Leasehold","paon":"24","saon":"","street":"ROSTHWAITE CLOSE","locality":"HARTLEPOOL","townOrCity":"HARTLEPOOL","district":"HARTLEPOOL","county":"HARTLEPOOL","ppdCategoryType":"Standard","recordStatus":"Addition","latitude":54.699866,"longitude":-1.212911,"postcodeStart":"TS24 8","postcode":["TS24","8RE"]}
{"price":10000,"dateOfTransfer":"1995-03-30T00:00:00","postcodeFull":"TS24 8NN","propertyType":"Terraced","oldOrNew":"Established","duration":"Freehold","paon":"15","saon":"","street":"PARTON STREET","locality":"HARTLEPOOL","townOrCity":"HARTLEPOOL","district":"HARTLEPOOL","county":"HARTLEPOOL","ppdCategoryType":"Standard","recordStatus":"Addition","latitude":54.694866,"longitude":-1.216731,"postcodeStart":"TS24 8","postcode":["TS24","8NN"]}
{"price":38950,"dateOfTransfer":"1995-02-20T00:00:00","postcodeFull":"TS24 8RE","propertyType":"Semi-detached","oldOrNew":"New build","duration":"Freehold","paon":"4","saon":"","street":"ROSTHWAITE CLOSE","locality":"HARTLEPOOL","townOrCity":"HARTLEPOOL","district":"HARTLEPOOL","county":"HARTLEPOOL","ppdCategoryType":"Standard","recordStatus":"Addition","latitude":54.699866,"longitude":-1.212911,"postcodeStart":"TS24 8","postcode":["TS24","8RE"]}
{"price":26950,"dateOfTransfer":"1995-02-23T00:00:00","postcodeFull":"TS24 8RE","propertyType":"Flat/Maisonette/Townhouse","oldOrNew":"New build","duration":"Leasehold","paon":"80","saon":"","street":"ROSTHWAITE CLOSE","locality":"HARTLEPOOL","townOrCity":"HARTLEPOOL","district":"HARTLEPOOL","county":"HARTLEPOOL","ppdCategoryType":"Standard","recordStatus":"Addition","latitude":54.699866,"longitude":-1.212911,"postcodeStart":"TS24 8","postcode":["TS24","8RE"]}
{"price":19000,"dateOfTransfer":"1995-08-11T00:00:00","postcodeFull":"TS24 8LF","propertyType":"Terraced","oldOrNew":"Established","duration":"Freehold","paon":"184","saon":"FLAT","street":"RABY ROAD","locality":"","townOrCity":"HARTLEPOOL","district":"HARTLEPOOL","county":"HARTLEPOOL","ppdCategoryType":"Standard","recordStatus":"Addition","latitude":54.693634,"longitude":-1.219206,"postcodeStart":"TS24 8","postcode":["TS24","8LF"]}
{"price":30000,"dateOfTransfer":"1995-11-27T00:00:00","postcodeFull":"TS24 8LT","propertyType":"Semi-detached","oldOrNew":"Established","duration":"Freehold","paon":"2","saon":"","street":"AMBERTON ROAD","locality":"HARTLEPOOL","townOrCity":"HARTLEPOOL","district":"HARTLEPOOL","county":"HARTLEPOOL","ppdCategoryType":"Standard","recordStatus":"Addition","latitude":54.697088,"longitude":-1.214019,"postcodeStart":"TS24 8","postcode":["TS24","8LT"]}
{"price":38950,"dateOfTransfer":"1995-02-09T00:00:00","postcodeFull":"TS24 8RD","propertyType":"Semi-detached","oldOrNew":"New build","duration":"Freehold","paon":"7","saon":"","street":"ROSTHWAITE CLOSE","locality":"HARTLEPOOL","townOrCity":"HARTLEPOOL","district":"HARTLEPOOL","county":"HARTLEPOOL","ppdCategoryType":"Standard","recordStatus":"Addition","latitude":54.700061,"longitude":-1.213822,"postcodeStart":"TS24 8","postcode":["TS24","8RD"]}
{"price":37950,"dateOfTransfer":"1995-02-03T00:00:00","postcodeFull":"TS24 8RA","propertyType":"Terraced","oldOrNew":"New build","duration":"Freehold","paon":"38","saon":"","street":"STONETHWAITE CLOSE","locality":"HARTLEPOOL","townOrCity":"HARTLEPOOL","district":"HARTLEPOOL","county":"HARTLEPOOL","ppdCategoryType":"Standard","recordStatus":"Addition","latitude":54.698839,"longitude":-1.213799,"postcodeStart":"TS24 8","postcode":["TS24","8RA"]}
{"price":12050,"dateOfTransfer":"1995-09-18T00:00:00","postcodeFull":"TS24 8DH","propertyType":"Terraced","oldOrNew":"Established","duration":"Freehold","paon":"15","saon":"","street":"BELK STREET","locality":"HARTLEPOOL","townOrCity":"HARTLEPOOL","district":"HARTLEPOOL","county":"HARTLEPOOL","ppdCategoryType":"Standard","recordStatus":"Addition","latitude":54.689783,"longitude":-1.215727,"postcodeStart":"TS24 8","postcode":["TS24","8DH"]}
{"price":34950,"dateOfTransfer":"1995-03-10T00:00:00","postcodeFull":"TS24 8RD","propertyType":"Semi-detached","oldOrNew":"New build","duration":"Freehold","paon":"23","saon":"","street":"ROSTHWAITE CLOSE","locality":"HARTLEPOOL","townOrCity":"HARTLEPOOL","district":"HARTLEPOOL","county":"HARTLEPOOL","ppdCategoryType":"Standard","recordStatus":"Addition","latitude":54.700061,"longitude":-1.213822,"postcodeStart":"TS24 8","postcode":["TS24","8RD"]}
{"price":37950,"dateOfTransfer":"1995-02-10T00:00:00","postcodeFull":"TS24 8RD","propertyType":"Semi-detached","oldOrNew":"New build","duration":"Freehold","paon":"3","saon":"","street":"ROSTHWAITE CLOSE","locality":"HARTLEPOOL","townOrCity":"HARTLEPOOL","district":"HARTLEPOOL","county":"HARTLEPOOL","ppdCategoryType":"Standard","recordStatus":"Addition","latitude":54.700061,"longitude":-1.213822,"postcodeStart":"TS24 8","postcode":["TS24","8RD"]}
{"price":15000,"dateOfTransfer":"1995-06-07T00:00:00","postcodeFull":"TS24 8AS","propertyType":"Terraced","oldOrNew":"Established","duration":"Freehold","paon":"29","saon":"","street":"RABY ROAD","locality":"HARTLEPOOL","townOrCity":"HARTLEPOOL","district":"HARTLEPOOL","county":"HARTLEPOOL","ppdCategoryType":"Standard","recordStatus":"Addition","latitude":54.688203,"longitude":-1.215772,"postcodeStart":"TS24 8","postcode":["TS24","8AS"]}
{"price":31500,"dateOfTransfer":"1995-04-28T00:00:00","postcodeFull":"TS24 8LB","propertyType":"Semi-detached","oldOrNew":"Established","duration":"Freehold","paon":"220","saon":"","street":"RABY ROAD","locality":"HARTLEPOOL","townOrCity":"HARTLEPOOL","district":"HARTLEPOOL","county":"HARTLEPOOL","ppdCategoryType":"Standard","recordStatus":"Addition","latitude":54.695947,"longitude":-1.219736,"postcodeStart":"TS24 8","postcode":["TS24","8LB"]}
{"price":32000,"dateOfTransfer":"1995-11-22T00:00:00","postcodeFull":"TS24 8AW","propertyType":"Terraced","oldOrNew":"Established","duration":"Freehold","paon":"6","saon":"","street":"RIUM TERRACE","locality":"HARTLEPOOL","townOrCity":"HARTLEPOOL","district":"HARTLEPOOL","county":"HARTLEPOOL","ppdCategoryType":"Standard","recordStatus":"Addition","latitude":54.687736,"longitude":-1.214557,"postcodeStart":"TS24 8","postcode":["TS24","8AW"]}
{"price":26950,"dateOfTransfer":"1995-04-07T00:00:00","postcodeFull":"TS24 8RA","propertyType":"Flat/Maisonette/Townhouse","oldOrNew":"New build","duration":"Leasehold","paon":"35","saon":"","street":"STONETHWAITE CLOSE","locality":"HARTLEPOOL","townOrCity":"HARTLEPOOL","district":"HARTLEPOOL","county":"HARTLEPOOL","ppdCategoryType":"Standard","recordStatus":"Addition","latitude":54.698839,"longitude":-1.213799,"postcodeStart":"TS24 8","postcode":["TS24","8RA"]}
{"price":37950,"dateOfTransfer":"1995-01-17T00:00:00","postcodeFull":"TS24 8RE","propertyType":"Terraced","oldOrNew":"New build","duration":"Freehold","paon":"28","saon":"","street":"ROSTHWAITE CLOSE","locality":"HARTLEPOOL","townOrCity":"HARTLEPOOL","district":"HARTLEPOOL","county":"HARTLEPOOL","ppdCategoryType":"Standard","recordStatus":"Addition","latitude":54.699866,"longitude":-1.212911,"postcodeStart":"TS24 8","postcode":["TS24","8RE"]}
{"price":24950,"dateOfTransfer":"1995-03-31T00:00:00","postcodeFull":"TS24 8RE","propertyType":"Flat/Maisonette/Townhouse","oldOrNew":"New build","duration":"Leasehold","paon":"18","saon":"","street":"ROSTHWAITE CLOSE","locality":"HARTLEPOOL","townOrCity":"HARTLEPOOL","district":"HARTLEPOOL","county":"HARTLEPOOL","ppdCategoryType":"Standard","recordStatus":"Addition","latitude":54.699866,"longitude":-1.212911,"postcodeStart":"TS24 8","postcode":["TS24","8RE"]}
{"price":21000,"dateOfTransfer":"1995-03-29T00:00:00","postcodeFull":"TS24 8AT","propertyType":"Terraced","oldOrNew":"Established","duration":"Freehold","paon":"52","saon":"","street":"AVENUE ROAD","locality":"HARTLEPOOL","townOrCity":"HARTLEPOOL","district":"HARTLEPOOL","county":"HARTLEPOOL","ppdCategoryType":"Standard","recordStatus":"Addition","latitude":54.687176,"longitude":-1.215483,"postcodeStart":"TS24 8","postcode":["TS24","8AT"]}
{"price":31500,"dateOfTransfer":"1995-01-12T00:00:00","postcodeFull":"TS24 8RE","propertyType":"Semi-detached","oldOrNew":"New build","duration":"Freehold","paon":"8","saon":"","street":"ROSTHWAITE CLOSE","locality":"HARTLEPOOL","townOrCity":"HARTLEPOOL","district":"HARTLEPOOL","county":"HARTLEPOOL","ppdCategoryType":"Standard","recordStatus":"Addition","latitude":54.699866,"longitude":-1.212911,"postcodeStart":"TS24 8","postcode":["TS24","8RE"]}
{"price":32500,"dateOfTransfer":"1995-02-08T00:00:00","postcodeFull":"TS24 8RE","propertyType":"Terraced","oldOrNew":"New build","duration":"Freehold","paon":"44","saon":"","street":"ROSTHWAITE CLOSE","locality":"HARTLEPOOL","townOrCity":"HARTLEPOOL","district":"HARTLEPOOL","county":"HARTLEPOOL","ppdCategoryType":"Standard","recordStatus":"Addition","latitude":54.699866,"longitude":-1.212911,"postcodeStart":"TS24 8","postcode":["TS24","8RE"]}
{"price":22000,"dateOfTransfer":"1995-03-27T00:00:00","postcodeFull":"TS24 8JA","propertyType":"Terraced","oldOrNew":"Established","duration":"Freehold","paon":"12","saon":"","street":"CHALLONER ROAD","locality":"HARTLEPOOL","townOrCity":"HARTLEPOOL","district":"HARTLEPOOL","county":"HARTLEPOOL","ppdCategoryType":"Standard","recordStatus":"Addition","latitude":54.696276,"longitude":-1.224834,"postcodeStart":"TS24 8","postcode":["TS24","8JA"]}
{"price":10000,"dateOfTransfer":"1995-02-10T00:00:00","postcodeFull":"TS24 8PY","propertyType":"Terraced","oldOrNew":"Established","duration":"Freehold","paon":"22","saon":"","street":"","locality":"FINCHLEY ROAD","townOrCity":"HARTLEPOOL","district":"HARTLEPOOL","county":"HARTLEPOOL","ppdCategoryType":"Standard","recordStatus":"Addition","latitude":54.693102,"longitude":-1.220318,"postcodeStart":"TS24 8","postcode":["TS24","8PY"]}
{"price":25950,"dateOfTransfer":"1995-01-27T00:00:00","postcodeFull":"TS24 8RF","propertyType":"Semi-detached","oldOrNew":"New build","duration":"Leasehold","paon":"49","saon":"","street":"WASDALE CLOSE","locality":"HARTLEPOOL","townOrCity":"HARTLEPOOL","district":"HARTLEPOOL","county":"HARTLEPOOL","ppdCategoryType":"Standard","recordStatus":"Addition","latitude":54.701005,"longitude":-1.213928,"postcodeStart":"TS24 8","postcode":["TS24","8RF"]}
{"price":39450,"dateOfTransfer":"1995-12-13T00:00:00","postcodeFull":"TS24 8RF","propertyType":"Semi-detached","oldOrNew":"Established","duration":"Freehold","paon":"4","saon":"","street":"WASDALE CLOSE","locality":"HARTLEPOOL","townOrCity":"HARTLEPOOL","district":"HARTLEPOOL","county":"HARTLEPOOL","ppdCategoryType":"Standard","recordStatus":"Addition","latitude":54.701005,"longitude":-1.213928,"postcodeStart":"TS24 8","postcode":["TS24","8RF"]}
{"price":25000,"dateOfTransfer":"1996-03-06T00:00:00","postcodeFull":"TS24 8JH","propertyType":"Terraced","oldOrNew":"Established","duration":"Freehold","paon":"21","saon":"","street":"BIRCH WALK","locality":"HARTLEPOOL","townOrCity":"HARTLEPOOL","district":"HARTLEPOOL","county":"HARTLEPOOL","ppdCategoryType":"Standard","recordStatus":"Addition","latitude":54.696876,"longitude":-1.224497,"postcodeStart":"TS24 8","postcode":["TS24","8JH"]}
{"price":35000,"dateOfTransfer":"1996-09-20T00:00:00","postcodeFull":"TS24 8QJ","propertyType":"Terraced","oldOrNew":"Established","duration":"Freehold","paon":"48","saon":"","street":"WYNNSTAY GARDENS","locality":"HARTLEPOOL","townOrCity":"HARTLEPOOL","district":"HARTLEPOOL","county":"HARTLEPOOL","ppdCategoryType":"Standard","recordStatus":"Addition","latitude":54.693862,"longitude":-1.223965,"postcodeStart":"TS24 8","postcode":["TS24","8QJ"]}
{"price":28500,"dateOfTransfer":"1996-04-30T00:00:00","postcodeFull":"TS24 8RE","propertyType":"Flat/Maisonette/Townhouse","oldOrNew":"Established","duration":"Leasehold","paon":"18","saon":"","street":"ROSTHWAITE CLOSE","locality":"HARTLEPOOL","townOrCity":"HARTLEPOOL","district":"HARTLEPOOL","county":"HARTLEPOOL","ppdCategoryType":"Standard","recordStatus":"Addition","latitude":54.699866,"longitude":-1.212911,"postcodeStart":"TS24 8","postcode":["TS24","8RE"]}
{"price":42891,"dateOfTransfer":"1996-11-15T00:00:00","postcodeFull":"TS24 8PH","propertyType":"Semi-detached","oldOrNew":"New build","duration":"Freehold","paon":"45","saon":"","street":"BRECONGILL CLOSE","locality":"HARTLEPOOL","townOrCity":"HARTLEPOOL","district":"HARTLEPOOL","county":"HARTLEPOOL","ppdCategoryType":"Standard","recordStatus":"Addition","latitude":54.695227,"longitude":-1.213978,"postcodeStart":"TS24 8","postcode":["TS24","8PH"]}
{"price":14000,"dateOfTransfer":"1996-04-11T00:00:00","postcodeFull":"TS24 8DH","propertyType":"Terraced","oldOrNew":"Established","duration":"Freehold","paon":"36","saon":"","street":"BELK STREET","locality":"HARTLEPOOL","townOrCity":"HARTLEPOOL","district":"HARTLEPOOL","county":"HARTLEPOOL","ppdCategoryType":"Standard","recordStatus":"Addition","latitude":54.689783,"longitude":-1.215727,"postcodeStart":"TS24 8","postcode":["TS24","8DH"]}
{"price":40000,"dateOfTransfer":"1996-02-23T00:00:00","postcodeFull":"TS24 8RB","propertyType":"Semi-detached","oldOrNew":"Established","duration":"Freehold","paon":"43","saon":"","street":"GATESGARTH CLOSE","locality":"HARTLEPOOL","townOrCity":"HARTLEPOOL","district":"HARTLEPOOL","county":"HARTLEPOOL","ppdCategoryType":"Standard","recordStatus":"Addition","latitude":54.699954,"longitude":-1.21533,"postcodeStart":"TS24 8","postcode":["TS24","8RB"]}
{"price":31087,"dateOfTransfer":"1996-05-24T00:00:00","postcodeFull":"TS24 8PH","propertyType":"Terraced","oldOrNew":"New build","duration":"Freehold","paon":"27","saon":"","street":"BRECONGILL CLOSE","locality":"HARTLEPOOL","townOrCity":"HARTLEPOOL","district":"HARTLEPOOL","county":"HARTLEPOOL","ppdCategoryType":"Standard","recordStatus":"Addition","latitude":54.695227,"longitude":-1.213978,"postcodeStart":"TS24 8","postcode":["TS24","8PH"]}
{"price":20000,"dateOfTransfer":"1996-08-07T00:00:00","postcodeFull":"TS24 8HY","propertyType":"Semi-detached","oldOrNew":"Established","duration":"Freehold","paon":"25","saon":"","street":"CHALLONER ROAD","locality":"HARTLEPOOL","townOrCity":"HARTLEPOOL","district":"HARTLEPOOL","county":"HARTLEPOOL","ppdCategoryType":"Standard","recordStatus":"Addition","latitude":54.69653,"longitude":-1.222036,"postcodeStart":"TS24 8","postcode":["TS24","8HY"]}
{"price":30000,"dateOfTransfer":"1996-09-20T00:00:00","postcodeFull":"TS24 8BH","propertyType":"Terraced","oldOrNew":"Established","duration":"Freehold","paon":"19","saon":"","street":"LOWTHIAN ROAD","locality":"HARTLEPOOL","townOrCity":"HARTLEPOOL","district":"HARTLEPOOL","county":"HARTLEPOOL","ppdCategoryType":"Standard","recordStatus":"Addition","latitude":54.687717,"longitude":-1.215829,"postcodeStart":"TS24 8","postcode":["TS24","8BH"]}
{"price":43950,"dateOfTransfer":"1996-06-28T00:00:00","postcodeFull":"TS24 8PH","propertyType":"Terraced","oldOrNew":"New build","duration":"Freehold","paon":"4","saon":"","street":"BRECONGILL CLOSE","locality":"HARTLEPOOL","townOrCity":"HARTLEPOOL","district":"HARTLEPOOL","county":"HARTLEPOOL","ppdCategoryType":"Standard","recordStatus":"Addition","latitude":54.695227,"longitude":-1.213978,"postcodeStart":"TS24 8","postcode":["TS24","8PH"]}
{"price":24000,"dateOfTransfer":"1996-10-04T00:00:00","postcodeFull":"TS24 8PA","propertyType":"Semi-detached","oldOrNew":"Established","duration":"Freehold","paon":"63","saon":"","street":"WHARTON TERRACE","locality":"HARTLEPOOL","townOrCity":"HARTLEPOOL","district":"HARTLEPOOL","county":"HARTLEPOOL","ppdCategoryType":"Standard","recordStatus":"Addition","latitude":54.694633,"longitude":-1.215184,"postcodeStart":"TS24 8","postcode":["TS24","8PA"]}
{"price":3000,"dateOfTransfer":"1996-04-04T00:00:00","postcodeFull":"TS24 8HP","propertyType":"Semi-detached","oldOrNew":"Established","duration":"Freehold","paon":"7","saon":"","street":"CHALLONER SQUARE","locality":"","townOrCity":"HARTLEPOOL","district":"HARTLEPOOL","county":"HARTLEPOOL","ppdCategoryType":"Standard","recordStatus":"Addition","latitude":54.695358,"longitude":-1.225876,"postcodeStart":"TS24 8","postcode":["TS24","8HP"]}
{"price":1500,"dateOfTransfer":"1996-08-05T00:00:00","postcodeFull":"TS24 8RB","propertyType":"Semi-detached","oldOrNew":"Established","duration":"Freehold","paon":"24","saon":"","street":"GATESGARTH CLOSE","locality":"","townOrCity":"HARTLEPOOL","district":"HARTLEPOOL","county":"HARTLEPOOL","ppdCategoryType":"Standard","recordStatus":"Addition","latitude":54.699954,"longitude":-1.21533,"postcodeStart":"TS24 8","postcode":["TS24","8RB"]}
{"price":32450,"dateOfTransfer":"1996-12-12T00:00:00","postcodeFull":"TS24 8PH","propertyType":"Semi-detached","oldOrNew":"New build","duration":"Freehold","paon":"49","saon":"","street":"BRECONGILL CLOSE","locality":"HARTLEPOOL","townOrCity":"HARTLEPOOL","district":"HARTLEPOOL","county":"HARTLEPOOL","ppdCategoryType":"Standard","recordStatus":"Addition","latitude":54.695227,"longitude":-1.213978,"postcodeStart":"TS24 8","postcode":["TS24","8PH"]}
{"price":20000,"dateOfTransfer":"1996-08-21T00:00:00","postcodeFull":"TS24 8DQ","propertyType":"Terraced","oldOrNew":"Established","duration":"Freehold","paon":"17","saon":"","street":"ADDISON ROAD","locality":"HARTLEPOOL","townOrCity":"HARTLEPOOL","district":"HARTLEPOOL","county":"HARTLEPOOL","ppdCategoryType":"Standard","recordStatus":"Addition","latitude":54.690135,"longitude":-1.214495,"postcodeStart":"TS24 8","postcode":["TS24","8DQ"]}
{"price":25000,"dateOfTransfer":"1996-04-03T00:00:00","postcodeFull":"TS24 8DN","propertyType":"Terraced","oldOrNew":"Established","duration":"Freehold","paon":"36","saon":"","street":"FURNESS STREET","locality":"HARTLEPOOL","townOrCity":"HARTLEPOOL","district":"HARTLEPOOL","county":"HARTLEPOOL","ppdCategoryType":"Standard","recordStatus":"Addition","latitude":54.690632,"longitude":-1.216304,"postcodeStart":"TS24 8","postcode":["TS24","8DN"]}
{"price":16000,"dateOfTransfer":"1996-04-03T00:00:00","postcodeFull":"TS24 8NN","propertyType":"Terraced","oldOrNew":"Established","duration":"Freehold","paon":"15","saon":"","street":"PARTON STREET","locality":"HARTLEPOOL","townOrCity":"HARTLEPOOL","district":"HARTLEPOOL","county":"HARTLEPOOL","ppdCategoryType":"Standard","recordStatus":"Addition","latitude":54.694866,"longitude":-1.216731,"postcodeStart":"TS24 8","postcode":["TS24","8NN"]}
{"price":36000,"dateOfTransfer":"1996-06-10T00:00:00","postcodeFull":"TS24 8RA","propertyType":"Semi-detached","oldOrNew":"Established","duration":"Freehold","paon":"40","saon":"","street":"STONETHWAITE CLOSE","locality":"HARTLEPOOL","townOrCity":"HARTLEPOOL","district":"HARTLEPOOL","county":"HARTLEPOOL","ppdCategoryType":"Standard","recordStatus":"Addition","latitude":54.698839,"longitude":-1.213799,"postcodeStart":"TS24 8","postcode":["TS24","8RA"]}
{"price":10000,"dateOfTransfer":"1996-11-07T00:00:00","postcodeFull":"TS24 8NP","propertyType":"Terraced","oldOrNew":"Established","duration":"Freehold","paon":"30","saon":"","street":"MAPLETON ROAD","locality":"HARTLEPOOL","townOrCity":"HARTLEPOOL","district":"HARTLEPOOL","county":"HARTLEPOOL","ppdCategoryType":"Standard","recordStatus":"Addition","latitude":54.693909,"longitude":-1.217339,"postcodeStart":"TS24 8","postcode":["TS24","8NP"]}
{"price":36000,"dateOfTransfer":"1996-09-27T00:00:00","postcodeFull":"TS24 8QP","propertyType":"Terraced","oldOrNew":"Established","duration":"Freehold","paon":"96","saon":"","street":"CHESTER ROAD","locality":"HARTLEPOOL","townOrCity":"HARTLEPOOL","district":"HARTLEPOOL","county":"HARTLEPOOL","ppdCategoryType":"Standard","recordStatus":"Addition","latitude":54.692959,"longitude":-1.225968,"postcodeStart":"TS24 8","postcode":["TS24","8QP"]}
{"price":29950,"dateOfTransfer":"1996-05-15T00:00:00","postcodeFull":"TS24 8EU","propertyType":"Terraced","oldOrNew":"Established","duration":"Freehold","paon":"61","saon":"","street":"BROUGHAM TERRACE","locality":"HARTLEPOOL","townOrCity":"HARTLEPOOL","district":"HARTLEPOOL","county":"HARTLEPOOL","ppdCategoryType":"Standard","recordStatus":"Addition","latitude":54.693548,"longitude":-1.218401,"postcodeStart":"TS24 8","postcode":["TS24","8EU"]}
{"price":38950,"dateOfTransfer":"1996-05-24T00:00:00","postcodeFull":"TS24 8PB","propertyType":"Terraced","oldOrNew":"New build","duration":"Freehold","paon":"83","saon":"","street":"WHARTON TERRACE","locality":"HARTLEPOOL","townOrCity":"HARTLEPOOL","district":"HARTLEPOOL","county":"HARTLEPOOL","ppdCategoryType":"Standard","recordStatus":"Addition","latitude":54.694809,"longitude":-1.213241,"postcodeStart":"TS24 8","postcode":["TS24","8PB"]}
{"price":37865,"dateOfTransfer":"1996-04-26T00:00:00","postcodeFull":"TS24 8PB","propertyType":"Semi-detached","oldOrNew":"New build","duration":"Freehold","paon":"77","saon":"","street":"WHARTON TERRACE","locality":"HARTLEPOOL","townOrCity":"HARTLEPOOL","district":"HARTLEPOOL","county":"HARTLEPOOL","ppdCategoryType":"Standard","recordStatus":"Addition","latitude":54.694809,"longitude":-1.213241,"postcodeStart":"TS24 8","postcode":["TS24","8PB"]}
{"price":28500,"dateOfTransfer":"1996-11-25T00:00:00","postcodeFull":"TS24 8RB","propertyType":"Flat/Maisonette/Townhouse","oldOrNew":"Established","duration":"Leasehold","paon":"57","saon":"","street":"GATESGARTH CLOSE","locality":"HARTLEPOOL","townOrCity":"HARTLEPOOL","district":"HARTLEPOOL","county":"HARTLEPOOL","ppdCategoryType":"Standard","recordStatus":"Addition","latitude":54.699954,"longitude":-1.21533,"postcodeStart":"TS24 8","postcode":["TS24","8RB"]}
{"price":33250,"dateOfTransfer":"1996-03-22T00:00:00","postcodeFull":"TS24 8EE","propertyType":"Terraced","oldOrNew":"Established","duration":"Freehold","paon":"9","saon":"","street":"MASON WALK","locality":"HARTLEPOOL","townOrCity":"HARTLEPOOL","district":"HARTLEPOOL","county":"HARTLEPOOL","ppdCategoryType":"Standard","recordStatus":"Addition","latitude":54.691895,"longitude":-1.215702,"postcodeStart":"TS24 8","postcode":["TS24","8EE"]}
{"price":17500,"dateOfTransfer":"1996-04-19T00:00:00","postcodeFull":"TS24 8QL","propertyType":"Terraced","oldOrNew":"Established","duration":"Freehold","paon":"80","saon":"","street":"CHESTER ROAD","locality":"HARTLEPOOL","townOrCity":"HARTLEPOOL","district":"HARTLEPOOL","county":"HARTLEPOOL","ppdCategoryType":"Standard","recordStatus":"Addition","latitude":54.693092,"longitude":-1.224383,"postcodeStart":"TS24 8","postcode":["TS24","8QL"]}
{"price":41950,"dateOfTransfer":"1996-10-11T00:00:00","postcodeFull":"TS24 8PH","propertyType":"Semi-detached","oldOrNew":"New build","duration":"Freehold","paon":"48","saon":"","street":"BRECONGILL CLOSE","locality":"HARTLEPOOL","townOrCity":"HARTLEPOOL","district":"HARTLEPOOL","county":"HARTLEPOOL","ppdCategoryType":"Standard","recordStatus":"Addition","latitude":54.695227,"longitude":-1.213978,"postcodeStart":"TS24 8","postcode":["TS24","8PH"]}
{"price":21000,"dateOfTransfer":"1996-08-06T00:00:00","postcodeFull":"TS24 8BJ","propertyType":"Terraced","oldOrNew":"Established","duration":"Freehold","paon":"18","saon":"","street":"LOWTHIAN ROAD","locality":"","townOrCity":"HARTLEPOOL","district":"HARTLEPOOL","county":"HARTLEPOOL","ppdCategoryType":"Standard","recordStatus":"Addition","latitude":54.687953,"longitude":-1.21615,"postcodeStart":"TS24 8","postcode":["TS24","8BJ"]}
{"price":33450,"dateOfTransfer":"1996-12-13T00:00:00","postcodeFull":"TS24 8PH","propertyType":"Terraced","oldOrNew":"New build","duration":"Freehold","paon":"32","saon":"","street":"BRECONGILL CLOSE","locality":"HARTLEPOOL","townOrCity":"HARTLEPOOL","district":"HARTLEPOOL","county":"HARTLEPOOL","ppdCategoryType":"Standard","recordStatus":"Addition","latitude":54.695227,"longitude":-1.213978,"postcodeStart":"TS24 8","postcode":["TS24","8PH"]}
{"price":38950,"dateOfTransfer":"1996-08-30T00:00:00","postcodeFull":"TS24 8PH","propertyType":"Semi-detached","oldOrNew":"New build","duration":"Freehold","paon":"61","saon":"","street":"BRECONGILL CLOSE","locality":"HARTLEPOOL","townOrCity":"HARTLEPOOL","district":"HARTLEPOOL","county":"HARTLEPOOL","ppdCategoryType":"Standard","recordStatus":"Addition","latitude":54.695227,"longitude":-1.213978,"postcodeStart":"TS24 8","postcode":["TS24","8PH"]}
{"price":41752,"dateOfTransfer":"1996-08-22T00:00:00","postcodeFull":"TS24 8PH","propertyType":"Semi-detached","oldOrNew":"New build","duration":"Freehold","paon":"52","saon":"","street":"BRECONGILL CLOSE","locality":"HARTLEPOOL","townOrCity":"HARTLEPOOL","district":"HARTLEPOOL","county":"HARTLEPOOL","ppdCategoryType":"Standard","recordStatus":"Addition","latitude":54.695227,"longitude":-1.213978,"postcodeStart":"TS24 8","postcode":["TS24","8PH"]}
{"price":42450,"dateOfTransfer":"1996-11-22T00:00:00","postcodeFull":"TS24 8PH","propertyType":"Semi-detached","oldOrNew":"New build","duration":"Freehold","paon":"30","saon":"","street":"BRECONGILL CLOSE","locality":"HARTLEPOOL","townOrCity":"HARTLEPOOL","district":"HARTLEPOOL","county":"HARTLEPOOL","ppdCategoryType":"Standard","recordStatus":"Addition","latitude":54.695227,"longitude":-1.213978,"postcodeStart":"TS24 8","postcode":["TS24","8PH"]}
{"price":37000,"dateOfTransfer":"1996-03-29T00:00:00","postcodeFull":"TS24 8RD","propertyType":"Semi-detached","oldOrNew":"Established","duration":"Freehold","paon":"61","saon":"","street":"ROSTHWAITE CLOSE","locality":"HARTLEPOOL","townOrCity":"HARTLEPOOL","district":"HARTLEPOOL","county":"HARTLEPOOL","ppdCategoryType":"Standard","recordStatus":"Addition","latitude":54.700061,"longitude":-1.213822,"postcodeStart":"TS24 8","postcode":["TS24","8RD"]}
{"price":37450,"dateOfTransfer":"1996-04-12T00:00:00","postcodeFull":"TS24 8PH","propertyType":"Semi-detached","oldOrNew":"New build","duration":"Freehold","paon":"29","saon":"","street":"BRECONGILL CLOSE","locality":"HARTLEPOOL","townOrCity":"HARTLEPOOL","district":"HARTLEPOOL","county":"HARTLEPOOL","ppdCategoryType":"Standard","recordStatus":"Addition","latitude":54.695227,"longitude":-1.213978,"postcodeStart":"TS24 8","postcode":["TS24","8PH"]}
{"price":29500,"dateOfTransfer":"1996-05-17T00:00:00","postcodeFull":"TS24 8BQ","propertyType":"Terraced","oldOrNew":"Established","duration":"Freehold","paon":"24","saon":"","street":"WHARTON STREET","locality":"HARTLEPOOL","townOrCity":"HARTLEPOOL","district":"HARTLEPOOL","county":"HARTLEPOOL","ppdCategoryType":"Standard","recordStatus":"Addition","latitude":54.687286,"longitude":-1.215838,"postcodeStart":"TS24 8","postcode":["TS24","8BQ"]}
{"price":41500,"dateOfTransfer":"1996-11-22T00:00:00","postcodeFull":"TS24 8PH","propertyType":"Semi-detached","oldOrNew":"New build","duration":"Freehold","paon":"51","saon":"","street":"BRECONGILL CLOSE","locality":"HARTLEPOOL","townOrCity":"HARTLEPOOL","district":"HARTLEPOOL","county":"HARTLEPOOL","ppdCategoryType":"Standard","recordStatus":"Addition","latitude":54.695227,"longitude":-1.213978,"postcodeStart":"TS24 8","postcode":["TS24","8PH"]}
{"price":32000,"dateOfTransfer":"1996-11-28T00:00:00","postcodeFull":"TS24 8QJ","propertyType":"Terraced","oldOrNew":"Established","duration":"Freehold","paon":"35","saon":"","street":"WYNNSTAY GARDENS","locality":"HARTLEPOOL","townOrCity":"HARTLEPOOL","district":"HARTLEPOOL","county":"HARTLEPOOL","ppdCategoryType":"Standard","recordStatus":"Addition","latitude":54.693862,"longitude":-1.223965,"postcodeStart":"TS24 8","postcode":["TS24","8QJ"]}
{"price":12000,"dateOfTransfer":"1996-12-16T00:00:00","postcodeFull":"TS24 8QF","propertyType":"Terraced","oldOrNew":"Established","duration":"Freehold","paon":"3","saon":"","street":"","locality":"FINCHLEY ROAD","townOrCity":"HARTLEPOOL","district":"HARTLEPOOL","county":"HARTLEPOOL","ppdCategoryType":"Standard","recordStatus":"Addition","latitude":54.694369,"longitude":-1.222823,"postcodeStart":"TS24 8","postcode":["TS24","8QF"]}
{"price":28000,"dateOfTransfer":"1996-05-29T00:00:00","postcodeFull":"TS24 8NG","propertyType":"Semi-detached","oldOrNew":"Established","duration":"Freehold","paon":"46","saon":"","street":"AVONDALE GARDENS","locality":"HARTLEPOOL","townOrCity":"HARTLEPOOL","district":"HARTLEPOOL","county":"HARTLEPOOL","ppdCategoryType":"Standard","recordStatus":"Addition","latitude":54.69502,"longitude":-1.216816,"postcodeStart":"TS24 8","postcode":["TS24","8NG"]}
{"price":30915,"dateOfTransfer":"1996-03-29T00:00:00","postcodeFull":"TS24 8PH","propertyType":"Terraced","oldOrNew":"New build","duration":"Freehold","paon":"28","saon":"","street":"BRECONGILL CLOSE","locality":"HARTLEPOOL","townOrCity":"HARTLEPOOL","district":"HARTLEPOOL","county":"HARTLEPOOL","ppdCategoryType":"Standard","recordStatus":"Addition","latitude":54.695227,"longitude":-1.213978,"postcodeStart":"TS24 8","postcode":["TS24","8PH"]}
{"price":15500,"dateOfTransfer":"1996-06-10T00:00:00","postcodeFull":"TS24 8NT","propertyType":"Terraced","oldOrNew":"Established","duration":"Freehold","paon":"21","saon":"","street":"MILBANK ROAD","locality":"HARTLEPOOL","townOrCity":"HARTLEPOOL","district":"HARTLEPOOL","county":"HARTLEPOOL","ppdCategoryType":"Standard","recordStatus":"Addition","latitude":54.694658,"longitude":-1.216005,"postcodeStart":"TS24 8","postcode":["TS24","8NT"]}
{"price":9500,"dateOfTransfer":"1996-05-21T00:00:00","postcodeFull":"TS24 8DN","propertyType":"Terraced","oldOrNew":"Established","duration":"Freehold","paon":"50","saon":"","street":"FURNESS STREET","locality":"HARTLEPOOL","townOrCity":"HARTLEPOOL","district":"HARTLEPOOL","county":"HARTLEPOOL","ppdCategoryType":"Standard","recordStatus":"Addition","latitude":54.690632,"longitude":-1.216304,"postcodeStart":"TS24 8","postcode":["TS24","8DN"]}
{"price":39660,"dateOfTransfer":"1996-03-29T00:00:00","postcodeFull":"TS24 8PH","propertyType":"Semi-detached","oldOrNew":"New build","duration":"Freehold","paon":"26","saon":"","street":"BRECONGILL CLOSE","locality":"HARTLEPOOL","townOrCity":"HARTLEPOOL","district":"HARTLEPOOL","county":"HARTLEPOOL","ppdCategoryType":"Standard","recordStatus":"Addition","latitude":54.695227,"longitude":-1.213978,"postcodeStart":"TS24 8","postcode":["TS24","8PH"]}
{"price":18000,"dateOfTransfer":"1996-10-31T00:00:00","postcodeFull":"TS24 8BQ","propertyType":"Terraced","oldOrNew":"Established","duration":"Freehold","paon":"5","saon":"","street":"WHARTON STREET","locality":"HARTLEPOOL","townOrCity":"HARTLEPOOL","district":"HARTLEPOOL","county":"HARTLEPOOL","ppdCategoryType":"Standard","recordStatus":"Addition","latitude":54.687286,"longitude":-1.215838,"postcodeStart":"TS24 8","postcode":["TS24","8BQ"]}
{"price":25000,"dateOfTransfer":"1996-11-29T00:00:00","postcodeFull":"TS24 8RB","propertyType":"Flat/Maisonette/Townhouse","oldOrNew":"Established","duration":"Leasehold","paon":"35","saon":"","street":"GATESGARTH CLOSE","locality":"HARTLEPOOL","townOrCity":"HARTLEPOOL","district":"HARTLEPOOL","county":"HARTLEPOOL","ppdCategoryType":"Standard","recordStatus":"Addition","latitude":54.699954,"longitude":-1.21533,"postcodeStart":"TS24 8","postcode":["TS24","8RB"]}
{"price":41950,"dateOfTransfer":"1996-07-19T00:00:00","postcodeFull":"TS24 8PH","propertyType":"Semi-detached","oldOrNew":"New build","duration":"Freehold","paon":"54","saon":"","street":"BRECONGILL CLOSE","locality":"HARTLEPOOL","townOrCity":"HARTLEPOOL","district":"HARTLEPOOL","county":"HARTLEPOOL","ppdCategoryType":"Standard","recordStatus":"Addition","latitude":54.695227,"longitude":-1.213978,"postcodeStart":"TS24 8","postcode":["TS24","8PH"]}
{"price":28200,"dateOfTransfer":"1996-05-10T00:00:00","postcodeFull":"TS24 8QR","propertyType":"Semi-detached","oldOrNew":"Established","duration":"Freehold","paon":"29","saon":"","street":"ASHLEY GARDENS","locality":"HARTLEPOOL","townOrCity":"HARTLEPOOL","district":"HARTLEPOOL","county":"HARTLEPOOL","ppdCategoryType":"Standard","recordStatus":"Addition","latitude":54.693706,"longitude":-1.226155,"postcodeStart":"TS24 8","postcode":["TS24","8QR"]}
{"price":37950,"dateOfTransfer":"1996-01-19T00:00:00","postcodeFull":"TS24 8NH","propertyType":"Semi-detached","oldOrNew":"Established","duration":"Freehold","paon":"13","saon":"","street":"AVONDALE GARDENS","locality":"HARTLEPOOL","townOrCity":"HARTLEPOOL","district":"HARTLEPOOL","county":"HARTLEPOOL","ppdCategoryType":"Standard","recordStatus":"Addition","latitude":54.695141,"longitude":-1.218727,"postcodeStart":"TS24 8","postcode":["TS24","8NH"]}
{"price":19250,"dateOfTransfer":"1996-10-18T00:00:00","postcodeFull":"TS24 8JY","propertyType":"Semi-detached","oldOrNew":"New build","duration":"Freehold","paon":"36","saon":"","street":"EASINGTON ROAD","locality":"HARTLEPOOL","townOrCity":"HARTLEPOOL","district":"HARTLEPOOL","county":"HARTLEPOOL","ppdCategoryType":"Standard","recordStatus":"Addition","latitude":54.700163,"longitude":-1.226901,"postcodeStart":"TS24 8","postcode":["TS24","8JY"]}
{"price":17500,"dateOfTransfer":"1996-07-19T00:00:00","postcodeFull":"TS24 8NS","propertyType":"Terraced","oldOrNew":"Established","duration":"Freehold","paon":"45","saon":"","street":"WHARTON TERRACE","locality":"HARTLEPOOL","townOrCity":"HARTLEPOOL","district":"HARTLEPOOL","county":"HARTLEPOOL","ppdCategoryType":"Standard","recordStatus":"Addition","latitude":54.694454,"longitude":-1.216645,"postcodeStart":"TS24 8","postcode":["TS24","8NS"]}
{"price":29950,"dateOfTransfer":"1996-07-26T00:00:00","postcodeFull":"TS24 8PB","propertyType":"Terraced","oldOrNew":"New build","duration":"Freehold","paon":"79","saon":"","street":"WHARTON TERRACE","locality":"HARTLEPOOL","townOrCity":"HARTLEPOOL","district":"HARTLEPOOL","county":"HARTLEPOOL","ppdCategoryType":"Standard","recordStatus":"Addition","latitude":54.694809,"longitude":-1.213241,"postcodeStart":"TS24 8","postcode":["TS24","8PB"]}
{"price":30000,"dateOfTransfer":"1996-01-31T00:00:00","postcodeFull":"TS24 8RF","propertyType":"Flat/Maisonette/Townhouse","oldOrNew":"Established","duration":"Leasehold","paon":"45","saon":"","street":"WASDALE CLOSE","locality":"HARTLEPOOL","townOrCity":"HARTLEPOOL","district":"HARTLEPOOL","county":"HARTLEPOOL","ppdCategoryType":"Standard","recordStatus":"Addition","latitude":54.701005,"longitude":-1.213928,"postcodeStart":"TS24 8","postcode":["TS24","8RF"]}
{"price":18500,"dateOfTransfer":"1996-02-23T00:00:00","postcodeFull":"TS24 8DT","propertyType":"Terraced","oldOrNew":"Established","duration":"Freehold","paon":"121","saon":"","street":"RABY ROAD","locality":"HARTLEPOOL","townOrCity":"HARTLEPOOL","district":"HARTLEPOOL","county":"HARTLEPOOL","ppdCategoryType":"Standard","recordStatus":"Addition","latitude":54.690158,"longitude":-1.217907,"postcodeStart":"TS24 8","postcode":["TS24","8DT"]}
{"price":29995,"dateOfTransfer":"1996-06-21T00:00:00","postcodeFull":"TS24 8DN","propertyType":"Terraced","oldOrNew":"Established","duration":"Freehold","paon":"53","saon":"","street":"FURNESS STREET","locality":"HARTLEPOOL","townOrCity":"HARTLEPOOL","district":"HARTLEPOOL","county":"HARTLEPOOL","ppdCategoryType":"Standard","recordStatus":"Addition","latitude":54.690632,"longitude":-1.216304,"postcodeStart":"TS24 8","postcode":["TS24","8DN"]}
{"price":14750,"dateOfTransfer":"1996-11-08T00:00:00","postcodeFull":"TS24 8EW","propertyType":"Terraced","oldOrNew":"Established","duration":"Freehold","paon":"61","saon":"","street":"TURNBULL STREET","locality":"HARTLEPOOL","townOrCity":"HARTLEPOOL","district":"HARTLEPOOL","county":"HARTLEPOOL","ppdCategoryType":"Standard","recordStatus":"Addition","latitude":54.692691,"longitude":-1.216291,"postcodeStart":"TS24 8","postcode":["TS24","8EW"]}
{"price":40327,"dateOfTransfer":"1996-11-07T00:00:00","postcodeFull":"TS24 8PH","propertyType":"Semi-detached","oldOrNew":"New build","duration":"Freehold","paon":"42","saon":"","street":"BRECONGILL CLOSE","locality":"HARTLEPOOL","townOrCity":"HARTLEPOOL","district":"HARTLEPOOL","county":"HARTLEPOOL","ppdCategoryType":"Standard","recordStatus":"Addition","latitude":54.695227,"longitude":-1.213978,"postcodeStart":"TS24 8","postcode":["TS24","8PH"]}
{"price":33000,"dateOfTransfer":"1996-05-24T00:00:00","postcodeFull":"TS24 8QR","propertyType":"Terraced","oldOrNew":"Established","duration":"Freehold","paon":"26","saon":"","street":"ASHLEY GARDENS","locality":"HARTLEPOOL","townOrCity":"HARTLEPOOL","district":"HARTLEPOOL","county":"HARTLEPOOL","ppdCategoryType":"Standard","recordStatus":"Addition","latitude":54.693706,"longitude":-1.226155,"postcodeStart":"TS24 8","postcode":["TS24","8QR"]}
{"price":33915,"dateOfTransfer":"1996-08-02T00:00:00","postcodeFull":"TS24 8PH","propertyType":"Terraced","oldOrNew":"New build","duration":"Freehold","paon":"55","saon":"","street":"BRECONGILL CLOSE","locality":"HARTLEPOOL","townOrCity":"HARTLEPOOL","district":"HARTLEPOOL","county":"HARTLEPOOL","ppdCategoryType":"Standard","recordStatus":"Addition","latitude":54.695227,"longitude":-1.213978,"postcodeStart":"TS24 8","postcode":["TS24","8PH"]}
{"price":11500,"dateOfTransfer":"1996-10-04T00:00:00","postcodeFull":"TS24 8QF","propertyType":"Terraced","oldOrNew":"Established","duration":"Freehold","paon":"25","saon":"","street":"","locality":"FINCHLEY ROAD","townOrCity":"HARTLEPOOL","district":"HARTLEPOOL","county":"HARTLEPOOL","ppdCategoryType":"Standard","recordStatus":"Addition","latitude":54.694369,"longitude":-1.222823,"postcodeStart":"TS24 8","postcode":["TS24","8QF"]}
{"price":38950,"dateOfTransfer":"1996-06-07T00:00:00","postcodeFull":"TS24 8PH","propertyType":"Semi-detached","oldOrNew":"New build","duration":"Freehold","paon":"58","saon":"","street":"BRECONGILL CLOSE","locality":"HARTLEPOOL","townOrCity":"HARTLEPOOL","district":"HARTLEPOOL","county":"HARTLEPOOL","ppdCategoryType":"Standard","recordStatus":"Addition","latitude":54.695227,"longitude":-1.213978,"postcodeStart":"TS24 8","postcode":["TS24","8PH"]}
{"price":44365,"dateOfTransfer":"1996-10-04T00:00:00","postcodeFull":"TS24 8PH","propertyType":"Semi-detached","oldOrNew":"New build","duration":"Freehold","paon":"47","saon":"","street":"BRECONGILL CLOSE","locality":"HARTLEPOOL","townOrCity":"HARTLEPOOL","district":"HARTLEPOOL","county":"HARTLEPOOL","ppdCategoryType":"Standard","recordStatus":"Addition","latitude":54.695227,"longitude":-1.213978,"postcodeStart":"TS24 8","postcode":["TS24","8PH"]}
{"price":9000,"dateOfTransfer":"1996-09-27T00:00:00","postcodeFull":"TS24 8LH","propertyType":"Semi-detached","oldOrNew":"Established","duration":"Freehold","paon":"9","saon":"","street":"HAWTHORN WALK","locality":"HARTLEPOOL","townOrCity":"HARTLEPOOL","district":"HARTLEPOOL","county":"HARTLEPOOL","ppdCategoryType":"Standard","recordStatus":"Addition","latitude":54.698392,"longitude":-1.222637,"postcodeStart":"TS24 8","postcode":["TS24","8LH"]}
{"price":12250,"dateOfTransfer":"1996-10-17T00:00:00","postcodeFull":"TS24 8EU","propertyType":"Terraced","oldOrNew":"Established","duration":"Freehold","paon":"67","saon":"","street":"BROUGHAM TERRACE","locality":"HARTLEPOOL","townOrCity":"HARTLEPOOL","district":"HARTLEPOOL","county":"HARTLEPOOL","ppdCategoryType":"Standard","recordStatus":"Addition","latitude":54.693548,"longitude":-1.218401,"postcodeStart":"TS24 8","postcode":["TS24","8EU"]}
{"price":32500,"dateOfTransfer":"1996-01-26T00:00:00","postcodeFull":"TS24 8QW","propertyType":"Semi-detached","oldOrNew":"Established","duration":"Freehold","paon":"44","saon":"","street":"OAKLEY GARDENS","locality":"HARTLEPOOL","townOrCity":"HARTLEPOOL","district":"HARTLEPOOL","county":"HARTLEPOOL","ppdCategoryType":"Standard","recordStatus":"Addition","latitude":54.693762,"longitude":-1.225115,"postcodeStart":"TS24 8","postcode":["TS24","8QW"]}
{"price":32995,"dateOfTransfer":"1996-12-05T00:00:00","postcodeFull":"TS24 8RE","propertyType":"Terraced","oldOrNew":"Established","duration":"Freehold","paon":"46","saon":"","street":"ROSTHWAITE CLOSE","locality":"HARTLEPOOL","townOrCity":"HARTLEPOOL","district":"HARTLEPOOL","county":"HARTLEPOOL","ppdCategoryType":"Standard","recordStatus":"Addition","latitude":54.699866,"longitude":-1.212911,"postcodeStart":"TS24 8","postcode":["TS24","8RE"]}
{"price":32000,"dateOfTransfer":"1996-10-31T00:00:00","postcodeFull":"TS24 8RE","propertyType":"Terraced","oldOrNew":"Established","duration":"Freehold","paon":"90","saon":"","street":"ROSTHWAITE CLOSE","locality":"HARTLEPOOL","townOrCity":"HARTLEPOOL","district":"HARTLEPOOL","county":"HARTLEPOOL","ppdCategoryType":"Standard","recordStatus":"Addition","latitude":54.699866,"longitude":-1.212911,"postcodeStart":"TS24 8","postcode":["TS24","8RE"]}
{"price":22000,"dateOfTransfer":"1996-01-26T00:00:00","postcodeFull":"TS24 8ES","propertyType":"Terraced","oldOrNew":"Established","duration":"Freehold","paon":"21","saon":"","street":"HURWORTH STREET","locality":"HARTLEPOOL","townOrCity":"HARTLEPOOL","district":"HARTLEPOOL","county":"HARTLEPOOL","ppdCategoryType":"Standard","recordStatus":"Addition","latitude":54.692987,"longitude":-1.218954,"postcodeStart":"TS24 8","postcode":["TS24","8ES"]}
{"price":22000,"dateOfTransfer":"1996-12-13T00:00:00","postcodeFull":"TS24 8QN","propertyType":"Terraced","oldOrNew":"Established","duration":"Freehold","paon":"18","saon":"","street":"HELMSLEY STREET","locality":"HARTLEPOOL","townOrCity":"HARTLEPOOL","district":"HARTLEPOOL","county":"HARTLEPOOL","ppdCategoryType":"Standard","recordStatus":"Addition","latitude":54.693803,"longitude":-1.22454,"postcodeStart":"TS24 8","postcode":["TS24","8QN"]}
{"price":34391,"dateOfTransfer":"1996-11-29T00:00:00","postcodeFull":"TS24 8PH","propertyType":"Semi-detached","oldOrNew":"New build","duration":"Freehold","paon":"31","saon":"","street":"BRECONGILL CLOSE","locality":"HARTLEPOOL","townOrCity":"HARTLEPOOL","district":"HARTLEPOOL","county":"HARTLEPOOL","ppdCategoryType":"Standard","recordStatus":"Addition","latitude":54.695227,"longitude":-1.213978,"postcodeStart":"TS24 8","postcode":["TS24","8PH"]}
{"price":19000,"dateOfTransfer":"1996-11-29T00:00:00","postcodeFull":"TS24 8LJ","propertyType":"Terraced","oldOrNew":"Established","duration":"Freehold","paon":"7","saon":"","street":"WILLOW WALK","locality":"HARTLEPOOL","townOrCity":"HARTLEPOOL","district":"HARTLEPOOL","county":"HARTLEPOOL","ppdCategoryType":"Standard","recordStatus":"Addition","latitude":54.697851,"longitude":-1.222244,"postcodeStart":"TS24 8","postcode":["TS24","8LJ"]}
{"price":15000,"dateOfTransfer":"1996-12-16T00:00:00","postcodeFull":"TS24 8NP","propertyType":"Terraced","oldOrNew":"Established","duration":"Freehold","paon":"30","saon":"","street":"MAPLETON ROAD","locality":"HARTLEPOOL","townOrCity":"HARTLEPOOL","district":"HARTLEPOOL","county":"HARTLEPOOL","ppdCategoryType":"Standard","recordStatus":"Addition","latitude":54.693909,"longitude":-1.217339,"postcodeStart":"TS24 8","postcode":["TS24","8NP"]}
{"price":23950,"dateOfTransfer":"1996-01-22T00:00:00","postcodeFull":"TS24 8RB","propertyType":"Flat/Maisonette/Townhouse","oldOrNew":"Established","duration":"Leasehold","paon":"19","saon":"","street":"GATESGARTH CLOSE","locality":"HARTLEPOOL","townOrCity":"HARTLEPOOL","district":"HARTLEPOOL","county":"HARTLEPOOL","ppdCategoryType":"Standard","recordStatus":"Addition","latitude":54.699954,"longitude":-1.21533,"postcodeStart":"TS24 8","postcode":["TS24","8RB"]}
{"price":18000,"dateOfTransfer":"1996-04-18T00:00:00","postcodeFull":"TS24 8QF","propertyType":"Terraced","oldOrNew":"Established","duration":"Freehold","paon":"23","saon":"","street":"","locality":"FINCHLEY ROAD","townOrCity":"HARTLEPOOL","district":"HARTLEPOOL","county":"HARTLEPOOL","ppdCategoryType":"Standard","recordStatus":"Addition","latitude":54.694369,"longitude":-1.222823,"postcodeStart":"TS24 8","postcode":["TS24","8QF"]}
{"price":33000,"dateOfTransfer":"1996-09-20T00:00:00","postcodeFull":"TS24 8PH","propertyType":"Terraced","oldOrNew":"New build","duration":"Freehold","paon":"59","saon":"","street":"BRECONGILL CLOSE","locality":"HARTLEPOOL","townOrCity":"HARTLEPOOL","district":"HARTLEPOOL","county":"HARTLEPOOL","ppdCategoryType":"Standard","recordStatus":"Addition","latitude":54.695227,"longitude":-1.213978,"postcodeStart":"TS24 8","postcode":["TS24","8PH"]}
{"price":29950,"dateOfTransfer":"1996-05-10T00:00:00","postcodeFull":"TS24 8NJ","propertyType":"Semi-detached","oldOrNew":"Established","duration":"Freehold","paon":"45","saon":"","street":"PARTON STREET","locality":"HARTLEPOOL","townOrCity":"HARTLEPOOL","district":"HARTLEPOOL","county":"HARTLEPOOL","ppdCategoryType":"Standard","recordStatus":"Addition","latitude":54.694718,"longitude":-1.218627,"postcodeStart":"TS24 8","postcode":["TS24","8NJ"]}
{"price":41950,"dateOfTransfer":"1996-08-02T00:00:00","postcodeFull":"TS24 8PH","propertyType":"Terraced","oldOrNew":"New build","duration":"Freehold","paon":"57","saon":"","street":"BRECONGILL CLOSE","locality":"HARTLEPOOL","townOrCity":"HARTLEPOOL","district":"HARTLEPOOL","county":"HARTLEPOOL","ppdCategoryType":"Standard","recordStatus":"Addition","latitude":54.695227,"longitude":-1.213978,"postcodeStart":"TS24 8","postcode":["TS24","8PH"]}
{"price":32000,"dateOfTransfer":"1996-06-28T00:00:00","postcodeFull":"TS24 8RD","propertyType":"Semi-detached","oldOrNew":"Established","duration":"Freehold","paon":"39","saon":"","street":"ROSTHWAITE CLOSE","locality":"HARTLEPOOL","townOrCity":"HARTLEPOOL","district":"HARTLEPOOL","county":"HARTLEPOOL","ppdCategoryType":"Standard","recordStatus":"Addition","latitude":54.700061,"longitude":-1.213822,"postcodeStart":"TS24 8","postcode":["TS24","8RD"]}
{"price":33500,"dateOfTransfer":"1996-06-14T00:00:00","postcodeFull":"TS24 8RA","propertyType":"Semi-detached","oldOrNew":"Established","duration":"Freehold","paon":"20","saon":"","street":"STONETHWAITE CLOSE","locality":"HARTLEPOOL","townOrCity":"HARTLEPOOL","district":"HARTLEPOOL","county":"HARTLEPOOL","ppdCategoryType":"Standard","recordStatus":"Addition","latitude":54.698839,"longitude":-1.213799,"postcodeStart":"TS24 8","postcode":["TS24","8RA"]}
{"price":44891,"dateOfTransfer":"1996-12-20T00:00:00","postcodeFull":"TS24 8PH","propertyType":"Semi-detached","oldOrNew":"New build","duration":"Freehold","paon":"34","saon":"","street":"BRECONGILL CLOSE","locality":"HARTLEPOOL","townOrCity":"HARTLEPOOL","district":"HARTLEPOOL","county":"HARTLEPOOL","ppdCategoryType":"Standard","recordStatus":"Addition","latitude":54.695227,"longitude":-1.213978,"postcodeStart":"TS24 8","postcode":["TS24","8PH"]}
{"price":39000,"dateOfTransfer":"1996-08-09T00:00:00","postcodeFull":"TS24 8RF","propertyType":"Semi-detached","oldOrNew":"Established","duration":"Freehold","paon":"6","saon":"","street":"WASDALE CLOSE","locality":"HARTLEPOOL","townOrCity":"HARTLEPOOL","district":"HARTLEPOOL","county":"HARTLEPOOL","ppdCategoryType":"Standard","recordStatus":"Addition","latitude":54.701005,"longitude":-1.213928,"postcodeStart":"TS24 8","postcode":["TS24","8RF"]}
{"price":22650,"dateOfTransfer":"1996-05-31T00:00:00","postcodeFull":"TS24 8ES","propertyType":"Terraced","oldOrNew":"Established","duration":"Freehold","paon":"45","saon":"","street":"HURWORTH STREET","locality":"HARTLEPOOL","townOrCity":"HARTLEPOOL","district":"HARTLEPOOL","county":"HARTLEPOOL","ppdCategoryType":"Standard","recordStatus":"Addition","latitude":54.692987,"longitude":-1.218954,"postcodeStart":"TS24 8","postcode":["TS24","8ES"]}
{"price":20000,"dateOfTransfer":"1996-11-12T00:00:00","postcodeFull":"TS24 8HF","propertyType":"Terraced","oldOrNew":"Established","duration":"Freehold","paon":"283","saon":"","street":"","locality":"FINCHLEY ROAD","townOrCity":"HARTLEPOOL","district":"HARTLEPOOL","county":"HARTLEPOOL","ppdCategoryType":"Standard","recordStatus":"Addition","latitude":54.693901,"longitude":-1.219852,"postcodeStart":"TS24 8","postcode":["TS24","8HF"]}
{"price":30915,"dateOfTransfer":"1996-05-24T00:00:00","postcodeFull":"TS24 8PB","propertyType":"Terraced","oldOrNew":"New build","duration":"Freehold","paon":"81","saon":"","street":"WHARTON TERRACE","locality":"HARTLEPOOL","townOrCity":"HARTLEPOOL","district":"HARTLEPOOL","county":"HARTLEPOOL","ppdCategoryType":"Standard","recordStatus":"Addition","latitude":54.694809,"longitude":-1.213241,"postcodeStart":"TS24 8","postcode":["TS24","8PB"]}
{"price":33500,"dateOfTransfer":"1996-07-19T00:00:00","postcodeFull":"TS24 8PH","propertyType":"Terraced","oldOrNew":"New build","duration":"Freehold","paon":"56","saon":"","street":"BRECONGILL CLOSE","locality":"HARTLEPOOL","townOrCity":"HARTLEPOOL","district":"HARTLEPOOL","county":"HARTLEPOOL","ppdCategoryType":"Standard","recordStatus":"Addition","latitude":54.695227,"longitude":-1.213978,"postcodeStart":"TS24 8","postcode":["TS24","8PH"]}
{"price":40000,"dateOfTransfer":"1996-08-30T00:00:00","postcodeFull":"TS24 8RB","propertyType":"Semi-detached","oldOrNew":"Established","duration":"Freehold","paon":"40","saon":"","street":"GATESGARTH CLOSE","locality":"HARTLEPOOL","townOrCity":"HARTLEPOOL","district":"HARTLEPOOL","county":"HARTLEPOOL","ppdCategoryType":"Standard","recordStatus":"Addition","latitude":54.699954,"longitude":-1.21533,"postcodeStart":"TS24 8","postcode":["TS24","8RB"]}
{"price":20000,"dateOfTransfer":"1996-08-21T00:00:00","postcodeFull":"TS24 8EX","propertyType":"Flat/Maisonette/Townhouse","oldOrNew":"Established","duration":"Leasehold","paon":"2A","saon":"","street":"BROUGHAM TERRACE","locality":"HARTLEPOOL","townOrCity":"HARTLEPOOL","district":"HARTLEPOOL","county":"HARTLEPOOL","ppdCategoryType":"Standard","recordStatus":"Addition","latitude":54.693312,"longitude":-1.218095,"postcodeStart":"TS24 8","postcode":["TS24","8EX"]}
{"price":33500,"dateOfTransfer":"1996-07-26T00:00:00","postcodeFull":"TS24 8PH","propertyType":"Terraced","oldOrNew":"New build","duration":"Freehold","paon":"60","saon":"","street":"BRECONGILL CLOSE","locality":"HARTLEPOOL","townOrCity":"HARTLEPOOL","district":"HARTLEPOOL","county":"HARTLEPOOL","ppdCategoryType":"Standard","recordStatus":"Addition","latitude":54.695227,"longitude":-1.213978,"postcodeStart":"TS24 8","postcode":["TS24","8PH"]}
{"price":45023,"dateOfTransfer":"1996-08-23T00:00:00","postcodeFull":"TS24 8PH","propertyType":"Semi-detached","oldOrNew":"New build","duration":"Freehold","paon":"53","saon":"","street":"BRECONGILL CLOSE","locality":"HARTLEPOOL","townOrCity":"HARTLEPOOL","district":"HARTLEPOOL","county":"HARTLEPOOL","ppdCategoryType":"Standard","recordStatus":"Addition","latitude":54.695227,"longitude":-1.213978,"postcodeStart":"TS24 8","postcode":["TS24","8PH"]}
{"price":34351,"dateOfTransfer":"1996-12-06T00:00:00","postcodeFull":"TS24 8PH","propertyType":"Terraced","oldOrNew":"New build","duration":"Freehold","paon":"43","saon":"","street":"BRECONGILL CLOSE","locality":"HARTLEPOOL","townOrCity":"HARTLEPOOL","district":"HARTLEPOOL","county":"HARTLEPOOL","ppdCategoryType":"Standard","recordStatus":"Addition","latitude":54.695227,"longitude":-1.213978,"postcodeStart":"TS24 8","postcode":["TS24","8PH"]}
{"price":29950,"dateOfTransfer":"1996-07-12T00:00:00","postcodeFull":"TS24 8DX","propertyType":"Terraced","oldOrNew":"Established","duration":"Freehold","paon":"43","saon":"","street":"MIDDLETON ROAD","locality":"HARTLEPOOL","townOrCity":"HARTLEPOOL","district":"HARTLEPOOL","county":"HARTLEPOOL","ppdCategoryType":"Standard","recordStatus":"Addition","latitude":54.691242,"longitude":-1.216118,"postcodeStart":"TS24 8","postcode":["TS24","8DX"]}
{"price":20000,"dateOfTransfer":"1996-10-11T00:00:00","postcodeFull":"TS24 8NJ","propertyType":"Semi-detached","oldOrNew":"Established","duration":"Freehold","paon":"47","saon":"","street":"PARTON STREET","locality":"HARTLEPOOL","townOrCity":"HARTLEPOOL","district":"HARTLEPOOL","county":"HARTLEPOOL","ppdCategoryType":"Standard","recordStatus":"Addition","latitude":54.694718,"longitude":-1.218627,"postcodeStart":"TS24 8","postcode":["TS24","8NJ"]}
