{"price":23500,"dateOfTransfer":"1995-01-23T00:00:00","postcodeFull":"UB9 4DQ","propertyType":"Terraced","oldOrNew":"Established","duration":"Freehold","paon":"14","saon":"","street":"OXFORD ROAD","locality":"DENHAM","townOrCity":"UXBRIDGE","district":"SOUTH BUCKS","county":"BUCKINGHAMSHIRE","ppdCategoryType":"Standard","recordStatus":"Addition","latitude":51.551817,"longitude":-0.486291,"postcodeStart":"UB9 4","postcode":["UB9","4DQ"]}
{"price":138000,"dateOfTransfer":"1995-07-03T00:00:00","postcodeFull":"UB9 4BB","propertyType":"Detached","oldOrNew":"Established","duration":"Freehold","paon":"NINE STILES BUNGALOW","saon":"","street":"ORCHARD CLOSE","locality":"DENHAM","townOrCity":"UXBRIDGE","district":"SOUTH BUCKS","county":"BUCKINGHAMSHIRE","ppdCategoryType":"Standard","recordStatus":"Addition","latitude":51.553897,"longitude":-0.490816,"postcodeStart":"UB9 4","postcode":["UB9","4BB"]}
{"price":113000,"dateOfTransfer":"1995-12-01T00:00:00","postcodeFull":"UB9 4HH","propertyType":"Semi-detached","oldOrNew":"Established","duration":"Freehold","paon":"DAMARJEN","saon":"","street":"HOLLYBUSH LANE","locality":"DENHAM","townOrCity":"UXBRIDGE","district":"SOUTH BUCKS","county":"BUCKINGHAMSHIRE","ppdCategoryType":"Standard","recordStatus":"Addition","latitude":51.572261,"longitude":-0.526427,"postcodeStart":"UB9 4","postcode":["UB9","4HH"]}
{"price":250000,"dateOfTransfer":"1995-06-15T00:00:00","postcodeFull":"UB9 4LQ","propertyType":"Detached","oldOrNew":"Established","duration":"Freehold","paon":"CARISBROOKE","saon":"","street":"BAKERS WOOD","locality":"DENHAM","townOrCity":"UXBRIDGE","district":"SOUTH BUCKS","county":"BUCKINGHAMSHIRE","ppdCategoryType":"Standard","recordStatus":"Addition","latitude":51.572815,"longitude":-0.516871,"postcodeStart":"UB9 4","postcode":["UB9","4LQ"]}
{"price":98000,"dateOfTransfer":"1995-11-27T00:00:00","postcodeFull":"UB9 4HS","propertyType":"Semi-detached","oldOrNew":"Established","duration":"Freehold","paon":"EASTWOOD HOUSE","saon":"","street":"SKYLARK ROAD","locality":"DENHAM","townOrCity":"UXBRIDGE","district":"SOUTH BUCKS","county":"BUCKINGHAMSHIRE","ppdCategoryType":"Standard","recordStatus":"Addition","latitude":51.572798,"longitude":-0.529094,"postcodeStart":"UB9 4","postcode":["UB9","4HS"]}
{"price":380000,"dateOfTransfer":"1995-12-05T00:00:00","postcodeFull":"UB9 4LG","propertyType":"Detached","oldOrNew":"Established","duration":"Freehold","paon":"NORTHFIELDS","saon":"","street":"BAKERS WOOD","locality":"DENHAM","townOrCity":"UXBRIDGE","district":"SOUTH BUCKS","county":"BUCKINGHAMSHIRE","ppdCategoryType":"Standard","recordStatus":"Addition","latitude":51.574242,"longitude":-0.515959,"postcodeStart":"UB9 4","postcode":["UB9","4LG"]}
{"price":80000,"dateOfTransfer":"1995-07-20T00:00:00","postcodeFull":"UB9 4ED","propertyType":"Semi-detached","oldOrNew":"Established","duration":"Freehold","paon":"35","saon":"","street":"OXFORD GARDENS","locality":"DENHAM","townOrCity":"UXBRIDGE","district":"SOUTH BUCKS","county":"BUCKINGHAMSHIRE","ppdCategoryType":"Standard","recordStatus":"Addition","latitude":51.566571,"longitude":-0.50103,"postcodeStart":"UB9 4","postcode":["UB9","4ED"]}
{"price":156000,"dateOfTransfer":"1995-06-30T00:00:00","postcodeFull":"UB9 4AP","propertyType":"Detached","oldOrNew":"Established","duration":"Freehold","paon":"1","saon":"","street":"WILLOW CRESCENT EAST","locality":"DENHAM","townOrCity":"UXBRIDGE","district":"SOUTH BUCKS","county":"BUCKINGHAMSHIRE","ppdCategoryType":"Standard","recordStatus":"Addition","latitude":51.555459,"longitude":-0.485037,"postcodeStart":"UB9 4","postcode":["UB9","4AP"]}
{"price":93000,"dateOfTransfer":"1995-03-31T00:00:00","postcodeFull":"UB9 4BE","propertyType":"Semi-detached","oldOrNew":"Established","duration":"Freehold","paon":"22","saon":"","street":"NEWTOWN ROAD","locality":"DENHAM","townOrCity":"UXBRIDGE","district":"SOUTH BUCKS","county":"BUCKINGHAMSHIRE","ppdCategoryType":"Standard","recordStatus":"Addition","latitude":51.553378,"longitude":-0.490357,"postcodeStart":"UB9 4","postcode":["UB9","4BE"]}
{"price":165000,"dateOfTransfer":"1995-07-21T00:00:00","postcodeFull":"UB9 4LG","propertyType":"Detached","oldOrNew":"Established","duration":"Freehold","paon":"OAK LODGE","saon":"","street":"BAKERS WOOD","locality":"DENHAM","townOrCity":"UXBRIDGE","district":"SOUTH BUCKS","county":"BUCKINGHAMSHIRE","ppdCategoryType":"Standard","recordStatus":"Addition","latitude":51.574242,"longitude":-0.515959,"postcodeStart":"UB9 4","postcode":["UB9","4LG"]}
{"price":94600,"dateOfTransfer":"1995-07-24T00:00:00","postcodeFull":"UB9 4EF","propertyType":"Semi-detached","oldOrNew":"Established","duration":"Freehold","paon":"14","saon":"","street":"COURTFIELD GARDENS","locality":"DENHAM","townOrCity":"UXBRIDGE","district":"SOUTH BUCKS","county":"BUCKINGHAMSHIRE","ppdCategoryType":"Standard","recordStatus":"Addition","latitude":51.565899,"longitude":-0.499046,"postcodeStart":"UB9 4","postcode":["UB9","4EF"]}
{"price":65500,"dateOfTransfer":"1995-10-27T00:00:00","postcodeFull":"UB9 4AA","propertyType":"Flat/Maisonette/Townhouse","oldOrNew":"Established","duration":"Leasehold","paon":"19","saon":"","street":"DENHAM LODGE","locality":"DENHAM","townOrCity":"UXBRIDGE","district":"SOUTH BUCKS","county":"BUCKINGHAMSHIRE","ppdCategoryType":"Standard","recordStatus":"Addition","latitude":51.551188,"longitude":-0.485049,"postcodeStart":"UB9 4","postcode":["UB9","4AA"]}
{"price":92000,"dateOfTransfer":"1995-08-31T00:00:00","postcodeFull":"UB9 4HH","propertyType":"Terraced","oldOrNew":"Established","duration":"Freehold","paon":"3","saon":"","street":"HOLLYBUSH LANE","locality":"DENHAM","townOrCity":"UXBRIDGE","district":"SOUTH BUCKS","county":"BUCKINGHAMSHIRE","ppdCategoryType":"Standard","recordStatus":"Addition","latitude":51.572261,"longitude":-0.526427,"postcodeStart":"UB9 4","postcode":["UB9","4HH"]}
{"price":83000,"dateOfTransfer":"1995-07-28T00:00:00","postcodeFull":"UB9 4HS","propertyType":"Terraced","oldOrNew":"Established","duration":"Freehold","paon":"30","saon":"","street":"SKYLARK ROAD","locality":"DENHAM","townOrCity":"UXBRIDGE","district":"SOUTH BUCKS","county":"BUCKINGHAMSHIRE","ppdCategoryType":"Standard","recordStatus":"Addition","latitude":51.572798,"longitude":-0.529094,"postcodeStart":"UB9 4","postcode":["UB9","4HS"]}
{"price":112000,"dateOfTransfer":"1995-01-03T00:00:00","postcodeFull":"UB9 4EB","propertyType":"Detached","oldOrNew":"Established","duration":"Freehold","paon":"30","saon":"","street":"OXFORD GARDENS","locality":"DENHAM","townOrCity":"UXBRIDGE","district":"SOUTH BUCKS","county":"BUCKINGHAMSHIRE","ppdCategoryType":"Standard","recordStatus":"Addition","latitude":51.565959,"longitude":-0.500228,"postcodeStart":"UB9 4","postcode":["UB9","4EB"]}
{"price":56500,"dateOfTransfer":"1995-12-08T00:00:00","postcodeFull":"UB9 4BA","propertyType":"Semi-detached","oldOrNew":"Established","duration":"Freehold","paon":"4","saon":"","street":"NINE STILES CLOSE","locality":"DENHAM","townOrCity":"UXBRIDGE","district":"SOUTH BUCKS","county":"BUCKINGHAMSHIRE","ppdCategoryType":"Standard","recordStatus":"Addition","latitude":51.55288,"longitude":-0.492205,"postcodeStart":"UB9 4","postcode":["UB9","4BA"]}
{"price":84500,"dateOfTransfer":"1995-03-22T00:00:00","postcodeFull":"UB9 4AF","propertyType":"Semi-detached","oldOrNew":"Established","duration":"Freehold","paon":"2A","saon":"","street":"WILLOW AVENUE","locality":"DENHAM","townOrCity":"UXBRIDGE","district":"SOUTH BUCKS","county":"BUCKINGHAMSHIRE","ppdCategoryType":"Standard","recordStatus":"Addition","latitude":51.552213,"longitude":-0.485571,"postcodeStart":"UB9 4","postcode":["UB9","4AF"]}
{"price":45000,"dateOfTransfer":"1995-09-25T00:00:00","postcodeFull":"UB9 4DQ","propertyType":"Terraced","oldOrNew":"Established","duration":"Freehold","paon":"20","saon":"","street":"OXFORD ROAD","locality":"DENHAM","townOrCity":"UXBRIDGE","district":"SOUTH BUCKS","county":"BUCKINGHAMSHIRE","ppdCategoryType":"Standard","recordStatus":"Addition","latitude":51.551817,"longitude":-0.486291,"postcodeStart":"UB9 4","postcode":["UB9","4DQ"]}
{"price":90000,"dateOfTransfer":"1995-05-09T00:00:00","postcodeFull":"UB9 4DZ","propertyType":"Terraced","oldOrNew":"Established","duration":"Freehold","paon":"3","saon":"","street":"DENHAM PARADE","locality":"DENHAM","townOrCity":"UXBRIDGE","district":"SOUTH BUCKS","county":"BUCKINGHAMSHIRE","ppdCategoryType":"Standard","recordStatus":"Addition","latitude":51.566827,"longitude":-0.501353,"postcodeStart":"UB9 4","postcode":["UB9","4DZ"]}
{"price":141000,"dateOfTransfer":"1995-04-07T00:00:00","postcodeFull":"UB9 4AJ","propertyType":"Detached","oldOrNew":"Established","duration":"Freehold","paon":"10","saon":"","street":"HAWTHORN DRIVE","locality":"DENHAM","townOrCity":"UXBRIDGE","district":"SOUTH BUCKS","county":"BUCKINGHAMSHIRE","ppdCategoryType":"Standard","recordStatus":"Addition","latitude":51.553262,"longitude":-0.484836,"postcodeStart":"UB9 4","postcode":["UB9","4AJ"]}
{"price":104000,"dateOfTransfer":"1995-01-31T00:00:00","postcodeFull":"UB9 4AP","propertyType":"Detached","oldOrNew":"Established","duration":"Freehold","paon":"14","saon":"","street":"WILLOW CRESCENT EAST","locality":"DENHAM","townOrCity":"UXBRIDGE","district":"SOUTH BUCKS","county":"BUCKINGHAMSHIRE","ppdCategoryType":"Standard","recordStatus":"Addition","latitude":51.555459,"longitude":-0.485037,"postcodeStart":"UB9 4","postcode":["UB9","4AP"]}
{"price":67000,"dateOfTransfer":"1995-02-15T00:00:00","postcodeFull":"UB9 4AB","propertyType":"Flat/Maisonette/Townhouse","oldOrNew":"Established","duration":"Leasehold","paon":"41","saon":"","street":"DENHAM LODGE","locality":"DENHAM","townOrCity":"UXBRIDGE","district":"SOUTH BUCKS","county":"BUCKINGHAMSHIRE","ppdCategoryType":"Standard","recordStatus":"Addition","latitude":51.551188,"longitude":-0.485049,"postcodeStart":"UB9 4","postcode":["UB9","4AB"]}
{"price":270000,"dateOfTransfer":"1995-08-21T00:00:00","postcodeFull":"UB9 4LF","propertyType":"Detached","oldOrNew":"Established","duration":"Freehold","paon":"VALHALLA","saon":"","street":"BAKERS WOOD","locality":"DENHAM","townOrCity":"UXBRIDGE","district":"SOUTH BUCKS","county":"BUCKINGHAMSHIRE","ppdCategoryType":"Standard","recordStatus":"Addition","latitude":51.573505,"longitude":-0.518825,"postcodeStart":"UB9 4","postcode":["UB9","4LF"]}
{"price":81000,"dateOfTransfer":"1995-01-12T00:00:00","postcodeFull":"UB9 4EB","propertyType":"Semi-detached","oldOrNew":"Established","duration":"Freehold","paon":"22","saon":"","street":"OXFORD GARDENS","locality":"DENHAM","townOrCity":"UXBRIDGE","district":"SOUTH BUCKS","county":"BUCKINGHAMSHIRE","ppdCategoryType":"Standard","recordStatus":"Addition","latitude":51.565959,"longitude":-0.500228,"postcodeStart":"UB9 4","postcode":["UB9","4EB"]}
{"price":162500,"dateOfTransfer":"1995-10-31T00:00:00","postcodeFull":"UB9 4AP","propertyType":"Detached","oldOrNew":"Established","duration":"Freehold","paon":"2","saon":"","street":"WILLOW CRESCENT EAST","locality":"DENHAM","townOrCity":"UXBRIDGE","district":"SOUTH BUCKS","county":"BUCKINGHAMSHIRE","ppdCategoryType":"Standard","recordStatus":"Addition","latitude":51.555459,"longitude":-0.485037,"postcodeStart":"UB9 4","postcode":["UB9","4AP"]}
{"price":80000,"dateOfTransfer":"1995-01-31T00:00:00","postcodeFull":"UB9 4EA","propertyType":"Semi-detached","oldOrNew":"Established","duration":"Freehold","paon":"12","saon":"","street":"OXFORD GARDENS","locality":"DENHAM","townOrCity":"UXBRIDGE","district":"SOUTH BUCKS","county":"BUCKINGHAMSHIRE","ppdCategoryType":"Standard","recordStatus":"Addition","latitude":51.565057,"longitude":-0.499305,"postcodeStart":"UB9 4","postcode":["UB9","4EA"]}
{"price":55500,"dateOfTransfer":"1996-05-17T00:00:00","postcodeFull":"UB9 4AY","propertyType":"Flat/Maisonette/Townhouse","oldOrNew":"Established","duration":"Leasehold","paon":"4","saon":"","street":"THE ALDERS","locality":"DENHAM","townOrCity":"UXBRIDGE","district":"SOUTH BUCKS","county":"BUCKINGHAMSHIRE","ppdCategoryType":"Standard","recordStatus":"Addition","latitude":51.552557,"longitude":-0.486619,"postcodeStart":"UB9 4","postcode":["UB9","4AY"]}
{"price":339950,"dateOfTransfer":"1996-10-04T00:00:00","postcodeFull":"UB9 4AD","propertyType":"Detached","oldOrNew":"New build","duration":"Freehold","paon":"1","saon":"","street":"MISBOURNE MEADOWS","locality":"DENHAM","townOrCity":"UXBRIDGE","district":"SOUTH BUCKS","county":"BUCKINGHAMSHIRE","ppdCategoryType":"Standard","recordStatus":"Addition","latitude":51.576988,"longitude":-0.522594,"postcodeStart":"UB9 4","postcode":["UB9","4AD"]}
{"price":77500,"dateOfTransfer":"1996-02-09T00:00:00","postcodeFull":"UB9 4EQ","propertyType":"Semi-detached","oldOrNew":"Established","duration":"Freehold","paon":"49","saon":"","street":"KNIGHTON WAY LANE","locality":"DENHAM","townOrCity":"UXBRIDGE","district":"SOUTH BUCKS","county":"BUCKINGHAMSHIRE","ppdCategoryType":"Standard","recordStatus":"Addition","latitude":51.553747,"longitude":-0.493157,"postcodeStart":"UB9 4","postcode":["UB9","4EQ"]}
{"price":89950,"dateOfTransfer":"1996-09-30T00:00:00","postcodeFull":"UB9 4EF","propertyType":"Semi-detached","oldOrNew":"Established","duration":"Leasehold","paon":"2","saon":"","street":"COURTFIELD GARDENS","locality":"DENHAM","townOrCity":"UXBRIDGE","district":"SOUTH BUCKS","county":"BUCKINGHAMSHIRE","ppdCategoryType":"Standard","recordStatus":"Addition","latitude":51.565899,"longitude":-0.499046,"postcodeStart":"UB9 4","postcode":["UB9","4EF"]}
{"price":87000,"dateOfTransfer":"1996-11-08T00:00:00","postcodeFull":"UB9 4HR","propertyType":"Terraced","oldOrNew":"Established","duration":"Freehold","paon":"14","saon":"","street":"SKYLARK ROAD","locality":"DENHAM","townOrCity":"UXBRIDGE","district":"SOUTH BUCKS","county":"BUCKINGHAMSHIRE","ppdCategoryType":"Standard","recordStatus":"Addition","latitude":51.572283,"longitude":-0.527451,"postcodeStart":"UB9 4","postcode":["UB9","4HR"]}
{"price":52000,"dateOfTransfer":"1996-06-07T00:00:00","postcodeFull":"UB9 4AJ","propertyType":"Detached","oldOrNew":"Established","duration":"Freehold","paon":"18","saon":"","street":"HAWTHORN DRIVE","locality":"DENHAM","townOrCity":"UXBRIDGE","district":"SOUTH BUCKS","county":"BUCKINGHAMSHIRE","ppdCategoryType":"Standard","recordStatus":"Addition","latitude":51.553262,"longitude":-0.484836,"postcodeStart":"UB9 4","postcode":["UB9","4AJ"]}
{"price":83000,"dateOfTransfer":"1996-10-30T00:00:00","postcodeFull":"UB9 4DB","propertyType":"Semi-detached","oldOrNew":"Established","duration":"Freehold","paon":"53","saon":"","street":"OXFORD ROAD","locality":"DENHAM","townOrCity":"UXBRIDGE","district":"SOUTH BUCKS","county":"BUCKINGHAMSHIRE","ppdCategoryType":"Standard","recordStatus":"Addition","latitude":51.554649,"longitude":-0.489925,"postcodeStart":"UB9 4","postcode":["UB9","4DB"]}
{"price":40500,"dateOfTransfer":"1996-06-28T00:00:00","postcodeFull":"UB9 4BE","propertyType":"Flat/Maisonette/Townhouse","oldOrNew":"Established","duration":"Leasehold","paon":"5B","saon":"","street":"NEWTOWN ROAD","locality":"DENHAM","townOrCity":"UXBRIDGE","district":"SOUTH BUCKS","county":"BUCKINGHAMSHIRE","ppdCategoryType":"Standard","recordStatus":"Addition","latitude":51.553378,"longitude":-0.490357,"postcodeStart":"UB9 4","postcode":["UB9","4BE"]}
{"price":36000,"dateOfTransfer":"1996-10-11T00:00:00","postcodeFull":"UB9 4AD","propertyType":"Detached","oldOrNew":"New build","duration":"Freehold","paon":"2","saon":"","street":"MISBOURNE MEADOWS","locality":"DENHAM","townOrCity":"UXBRIDGE","district":"SOUTH BUCKS","county":"BUCKINGHAMSHIRE","ppdCategoryType":"Standard","recordStatus":"Addition","latitude":51.576988,"longitude":-0.522594,"postcodeStart":"UB9 4","postcode":["UB9","4AD"]}
{"price":77500,"dateOfTransfer":"1996-07-26T00:00:00","postcodeFull":"UB9 4EA","propertyType":"Semi-detached","oldOrNew":"Established","duration":"Freehold","paon":"11","saon":"","street":"OXFORD GARDENS","locality":"DENHAM","townOrCity":"UXBRIDGE","district":"SOUTH BUCKS","county":"BUCKINGHAMSHIRE","ppdCategoryType":"Standard","recordStatus":"Addition","latitude":51.565057,"longitude":-0.499305,"postcodeStart":"UB9 4","postcode":["UB9","4EA"]}
{"price":102500,"dateOfTransfer":"1996-07-12T00:00:00","postcodeFull":"UB9 4AP","propertyType":"Detached","oldOrNew":"Established","duration":"Freehold","paon":"4","saon":"","street":"WILLOW CRESCENT EAST","locality":"DENHAM","townOrCity":"UXBRIDGE","district":"SOUTH BUCKS","county":"BUCKINGHAMSHIRE","ppdCategoryType":"Standard","recordStatus":"Addition","latitude":51.555459,"longitude":-0.485037,"postcodeStart":"UB9 4","postcode":["UB9","4AP"]}
{"price":39600,"dateOfTransfer":"1996-08-23T00:00:00","postcodeFull":"UB9 4AD","propertyType":"Detached","oldOrNew":"New build","duration":"Freehold","paon":"3","saon":"","street":"MISBOURNE MEADOWS","locality":"DENHAM","townOrCity":"UXBRIDGE","district":"SOUTH BUCKS","county":"BUCKINGHAMSHIRE","ppdCategoryType":"Standard","recordStatus":"Addition","latitude":51.576988,"longitude":-0.522594,"postcodeStart":"UB9 4","postcode":["UB9","4AD"]}
{"price":39000,"dateOfTransfer":"1996-02-29T00:00:00","postcodeFull":"UB9 4BE","propertyType":"Detached","oldOrNew":"Established","duration":"Freehold","paon":"46","saon":"","street":"NEWTOWN ROAD","locality":"DENHAM","townOrCity":"UXBRIDGE","district":"SOUTH BUCKS","county":"BUCKINGHAMSHIRE","ppdCategoryType":"Standard","recordStatus":"Addition","latitude":51.553378,"longitude":-0.490357,"postcodeStart":"UB9 4","postcode":["UB9","4BE"]}
{"price":81000,"dateOfTransfer":"1996-10-11T00:00:00","postcodeFull":"UB9 4HR","propertyType":"Semi-detached","oldOrNew":"Established","duration":"Freehold","paon":"8","saon":"","street":"SKYLARK ROAD","locality":"DENHAM","townOrCity":"UXBRIDGE","district":"SOUTH BUCKS","county":"BUCKINGHAMSHIRE","ppdCategoryType":"Standard","recordStatus":"Addition","latitude":51.572283,"longitude":-0.527451,"postcodeStart":"UB9 4","postcode":["UB9","4HR"]}
{"price":90500,"dateOfTransfer":"1996-03-29T00:00:00","postcodeFull":"UB9 4AF","propertyType":"Semi-detached","oldOrNew":"Established","duration":"Freehold","paon":"1A","saon":"","street":"WILLOW AVENUE","locality":"DENHAM","townOrCity":"UXBRIDGE","district":"SOUTH BUCKS","county":"BUCKINGHAMSHIRE","ppdCategoryType":"Standard","recordStatus":"Addition","latitude":51.552213,"longitude":-0.485571,"postcodeStart":"UB9 4","postcode":["UB9","4AF"]}
{"price":375000,"dateOfTransfer":"1996-12-20T00:00:00","postcodeFull":"UB9 4AD","propertyType":"Detached","oldOrNew":"New build","duration":"Freehold","paon":"4","saon":"","street":"MISBOURNE MEADOWS","locality":"DENHAM","townOrCity":"UXBRIDGE","district":"SOUTH BUCKS","county":"BUCKINGHAMSHIRE","ppdCategoryType":"Standard","recordStatus":"Addition","latitude":51.576988,"longitude":-0.522594,"postcodeStart":"UB9 4","postcode":["UB9","4AD"]}
{"price":44500,"dateOfTransfer":"1996-01-19T00:00:00","postcodeFull":"UB9 4DS","propertyType":"Flat/Maisonette/Townhouse","oldOrNew":"Established","duration":"Leasehold","paon":"HILLVIEW","saon":"FLAT 1A","street":"OXFORD ROAD","locality":"DENHAM","townOrCity":"UXBRIDGE","district":"SOUTH BUCKS","county":"BUCKINGHAMSHIRE","ppdCategoryType":"Standard","recordStatus":"Addition","latitude":51.567119,"longitude":-0.501647,"postcodeStart":"UB9 4","postcode":["UB9","4DS"]}
{"price":270000,"dateOfTransfer":"1996-01-05T00:00:00","postcodeFull":"UB9 4LG","propertyType":"Detached","oldOrNew":"Established","duration":"Freehold","paon":"MAGNOLIA HOUSE","saon":"","street":"BAKERS WOOD","locality":"DENHAM","townOrCity":"UXBRIDGE","district":"SOUTH BUCKS","county":"BUCKINGHAMSHIRE","ppdCategoryType":"Standard","recordStatus":"Addition","latitude":51.574242,"longitude":-0.515959,"postcodeStart":"UB9 4","postcode":["UB9","4LG"]}
{"price":155000,"dateOfTransfer":"1996-10-25T00:00:00","postcodeFull":"UB9 4DW","propertyType":"Detached","oldOrNew":"Established","duration":"Freehold","paon":"94","saon":"","street":"OXFORD ROAD","locality":"DENHAM","townOrCity":"UXBRIDGE","district":"SOUTH BUCKS","county":"BUCKINGHAMSHIRE","ppdCategoryType":"Standard","recordStatus":"Addition","latitude":51.558247,"longitude":-0.49192,"postcodeStart":"UB9 4","postcode":["UB9","4DW"]}
{"price":110000,"dateOfTransfer":"1996-12-13T00:00:00","postcodeFull":"UB9 4HS","propertyType":"Terraced","oldOrNew":"Established","duration":"Freehold","paon":"SUNNY HAZE","saon":"","street":"SKYLARK ROAD","locality":"DENHAM","townOrCity":"UXBRIDGE","district":"SOUTH BUCKS","county":"BUCKINGHAMSHIRE","ppdCategoryType":"Standard","recordStatus":"Addition","latitude":51.572798,"longitude":-0.529094,"postcodeStart":"UB9 4","postcode":["UB9","4HS"]}
{"price":111950,"dateOfTransfer":"1996-10-31T00:00:00","postcodeFull":"UB9 4BD","propertyType":"Semi-detached","oldOrNew":"Established","duration":"Freehold","paon":"71","saon":"","street":"NEWTOWN ROAD","locality":"DENHAM","townOrCity":"UXBRIDGE","district":"SOUTH BUCKS","county":"BUCKINGHAMSHIRE","ppdCategoryType":"Standard","recordStatus":"Addition","latitude":51.552002,"longitude":-0.491758,"postcodeStart":"UB9 4","postcode":["UB9","4BD"]}
{"price":68000,"dateOfTransfer":"1996-09-19T00:00:00","postcodeFull":"UB9 4EA","propertyType":"Semi-detached","oldOrNew":"Established","duration":"Freehold","paon":"10","saon":"","street":"OXFORD GARDENS","locality":"DENHAM","townOrCity":"UXBRIDGE","district":"SOUTH BUCKS","county":"BUCKINGHAMSHIRE","ppdCategoryType":"Standard","recordStatus":"Addition","latitude":51.565057,"longitude":-0.499305,"postcodeStart":"UB9 4","postcode":["UB9","4EA"]}
{"price":215000,"dateOfTransfer":"1996-04-01T00:00:00","postcodeFull":"UB9 4LE","propertyType":"Detached","oldOrNew":"Established","duration":"Freehold","paon":"RINGWOOD","saon":"","street":"REDHILL","locality":"DENHAM","townOrCity":"UXBRIDGE","district":"SOUTH BUCKS","county":"BUCKINGHAMSHIRE","ppdCategoryType":"Standard","recordStatus":"Addition","latitude":51.571977,"longitude":-0.514575,"postcodeStart":"UB9 4","postcode":["UB9","4LE"]}
{"price":130500,"dateOfTransfer":"1996-02-23T00:00:00","postcodeFull":"UB9 4AS","propertyType":"Detached","oldOrNew":"Established","duration":"Freehold","paon":"25","saon":"","street":"LIME WALK","locality":"DENHAM","townOrCity":"UXBRIDGE","district":"SOUTH BUCKS","county":"BUCKINGHAMSHIRE","ppdCategoryType":"Standard","recordStatus":"Addition","latitude":51.558291,"longitude":-0.484143,"postcodeStart":"UB9 4","postcode":["UB9","4AS"]}
{"price":80000,"dateOfTransfer":"1996-01-31T00:00:00","postcodeFull":"UB9 4ED","propertyType":"Semi-detached","oldOrNew":"Established","duration":"Freehold","paon":"32","saon":"","street":"OXFORD GARDENS","locality":"DENHAM","townOrCity":"UXBRIDGE","district":"SOUTH BUCKS","county":"BUCKINGHAMSHIRE","ppdCategoryType":"Standard","recordStatus":"Addition","latitude":51.566571,"longitude":-0.50103,"postcodeStart":"UB9 4","postcode":["UB9","4ED"]}
{"price":149500,"dateOfTransfer":"1996-08-21T00:00:00","postcodeFull":"UB9 4LB","propertyType":"Detached","oldOrNew":"Established","duration":"Freehold","paon":"HILLCROFT","saon":"","street":"BROKENGATE LANE","locality":"DENHAM","townOrCity":"UXBRIDGE","district":"SOUTH BUCKS","county":"BUCKINGHAMSHIRE","ppdCategoryType":"Standard","recordStatus":"Addition","latitude":51.574186,"longitude":-0.522916,"postcodeStart":"UB9 4","postcode":["UB9","4LB"]}
{"price":56000,"dateOfTransfer":"1996-03-20T00:00:00","postcodeFull":"UB9 4AB","propertyType":"Flat/Maisonette/Townhouse","oldOrNew":"Established","duration":"Leasehold","paon":"29","saon":"","street":"DENHAM LODGE","locality":"DENHAM","townOrCity":"UXBRIDGE","district":"SOUTH BUCKS","county":"BUCKINGHAMSHIRE","ppdCategoryType":"Standard","recordStatus":"Addition","latitude":51.551188,"longitude":-0.485049,"postcodeStart":"UB9 4","postcode":["UB9","4AB"]}
{"price":81000,"dateOfTransfer":"1996-10-28T00:00:00","postcodeFull":"UB9 4HS","propertyType":"Terraced","oldOrNew":"Established","duration":"Freehold","paon":"29","saon":"","street":"SKYLARK ROAD","locality":"DENHAM","townOrCity":"UXBRIDGE","district":"SOUTH BUCKS","county":"BUCKINGHAMSHIRE","ppdCategoryType":"Standard","recordStatus":"Addition","latitude":51.572798,"longitude":-0.529094,"postcodeStart":"UB9 4","postcode":["UB9","4HS"]}
{"price":147000,"dateOfTransfer":"1996-07-29T00:00:00","postcodeFull":"UB9 4AU","propertyType":"Detached","oldOrNew":"Established","duration":"Freehold","paon":"75","saon":"","street":"WILLOW CRESCENT WEST","locality":"DENHAM","townOrCity":"UXBRIDGE","district":"SOUTH BUCKS","county":"BUCKINGHAMSHIRE","ppdCategoryType":"Standard","recordStatus":"Addition","latitude":51.555675,"longitude":-0.485795,"postcodeStart":"UB9 4","postcode":["UB9","4AU"]}
{"price":134000,"dateOfTransfer":"1996-01-12T00:00:00","postcodeFull":"UB9 4AG","propertyType":"Detached","oldOrNew":"Established","duration":"Freehold","paon":"13","saon":"","street":"WILLOW AVENUE","locality":"DENHAM","townOrCity":"UXBRIDGE","district":"SOUTH BUCKS","county":"BUCKINGHAMSHIRE","ppdCategoryType":"Standard","recordStatus":"Addition","latitude":51.553546,"longitude":-0.485952,"postcodeStart":"UB9 4","postcode":["UB9","4AG"]}
{"price":235000,"dateOfTransfer":"1996-11-18T00:00:00","postcodeFull":"UB9 4LA","propertyType":"Detached","oldOrNew":"Established","duration":"Freehold","paon":"CAPPSWOOD COTTAGE","saon":"","street":"BROKENGATE LANE","locality":"DENHAM","townOrCity":"UXBRIDGE","district":"SOUTH BUCKS","county":"BUCKINGHAMSHIRE","ppdCategoryType":"Standard","recordStatus":"Addition","latitude":51.574499,"longitude":-0.523483,"postcodeStart":"UB9 4","postcode":["UB9","4LA"]}
{"price":425000,"dateOfTransfer":"1996-04-22T00:00:00","postcodeFull":"UB9 4LQ","propertyType":"Detached","oldOrNew":"Established","duration":"Freehold","paon":"ROSEDALE","saon":"","street":"BAKERS WOOD","locality":"DENHAM","townOrCity":"UXBRIDGE","district":"SOUTH BUCKS","county":"BUCKINGHAMSHIRE","ppdCategoryType":"Standard","recordStatus":"Addition","latitude":51.572815,"longitude":-0.516871,"postcodeStart":"UB9 4","postcode":["UB9","4LQ"]}
{"price":66000,"dateOfTransfer":"1996-10-04T00:00:00","postcodeFull":"UB9 4HR","propertyType":"Terraced","oldOrNew":"Established","duration":"Freehold","paon":"23","saon":"","street":"SKYLARK ROAD","locality":"DENHAM","townOrCity":"UXBRIDGE","district":"SOUTH BUCKS","county":"BUCKINGHAMSHIRE","ppdCategoryType":"Standard","recordStatus":"Addition","latitude":51.572283,"longitude":-0.527451,"postcodeStart":"UB9 4","postcode":["UB9","4HR"]}
{"price":31500,"dateOfTransfer":"1996-11-13T00:00:00","postcodeFull":"UB9 4EJ","propertyType":"Semi-detached","oldOrNew":"Established","duration":"Freehold","paon":"6","saon":"","street":"ASH GREEN","locality":"DENHAM","townOrCity":"UXBRIDGE","district":"SOUTH BUCKS","county":"BUCKINGHAMSHIRE","ppdCategoryType":"Standard","recordStatus":"Addition","latitude":51.553704,"longitude":-0.491947,"postcodeStart":"UB9 4","postcode":["UB9","4EJ"]}
{"price":88000,"dateOfTransfer":"1996-08-02T00:00:00","postcodeFull":"UB9 4EF","propertyType":"Semi-detached","oldOrNew":"Established","duration":"Freehold","paon":"11","saon":"","street":"COURTFIELD GARDENS","locality":"DENHAM","townOrCity":"UXBRIDGE","district":"SOUTH BUCKS","county":"BUCKINGHAMSHIRE","ppdCategoryType":"Standard","recordStatus":"Addition","latitude":51.565899,"longitude":-0.499046,"postcodeStart":"UB9 4","postcode":["UB9","4EF"]}
{"price":74950,"dateOfTransfer":"1996-08-28T00:00:00","postcodeFull":"UB9 4HR","propertyType":"Semi-detached","oldOrNew":"Established","duration":"Freehold","paon":"16","saon":"","street":"SKYLARK ROAD","locality":"DENHAM","townOrCity":"UXBRIDGE","district":"SOUTH BUCKS","county":"BUCKINGHAMSHIRE","ppdCategoryType":"Standard","recordStatus":"Addition","latitude":51.572283,"longitude":-0.527451,"postcodeStart":"UB9 4","postcode":["UB9","4HR"]}
{"price":425000,"dateOfTransfer":"1996-10-25T00:00:00","postcodeFull":"UB9 4LG","propertyType":"Detached","oldOrNew":"Established","duration":"Freehold","paon":"OAK LODGE","saon":"","street":"BAKERS WOOD","locality":"DENHAM","townOrCity":"UXBRIDGE","district":"SOUTH BUCKS","county":"BUCKINGHAMSHIRE","ppdCategoryType":"Standard","recordStatus":"Addition","latitude":51.574242,"longitude":-0.515959,"postcodeStart":"UB9 4","postcode":["UB9","4LG"]}
{"price":130000,"dateOfTransfer":"1996-07-29T00:00:00","postcodeFull":"UB9 4AZ","propertyType":"Detached","oldOrNew":"Established","duration":"Freehold","paon":"4","saon":"","street":"ALDER ROAD","locality":"DENHAM","townOrCity":"UXBRIDGE","district":"SOUTH BUCKS","county":"BUCKINGHAMSHIRE","ppdCategoryType":"Standard","recordStatus":"Addition","latitude":51.553057,"longitude":-0.486372,"postcodeStart":"UB9 4","postcode":["UB9","4AZ"]}
{"price":65000,"dateOfTransfer":"1996-12-20T00:00:00","postcodeFull":"UB9 4BA","propertyType":"Semi-detached","oldOrNew":"Established","duration":"Freehold","paon":"4","saon":"","street":"NINE STILES CLOSE","locality":"DENHAM","townOrCity":"UXBRIDGE","district":"SOUTH BUCKS","county":"BUCKINGHAMSHIRE","ppdCategoryType":"Standard","recordStatus":"Addition","latitude":51.55288,"longitude":-0.492205,"postcodeStart":"UB9 4","postcode":["UB9","4BA"]}
{"price":185000,"dateOfTransfer":"1996-12-20T00:00:00","postcodeFull":"UB9 4EQ","propertyType":"Detached","oldOrNew":"Established","duration":"Freehold","paon":"47","saon":"","street":"KNIGHTON WAY LANE","locality":"DENHAM","townOrCity":"UXBRIDGE","district":"SOUTH BUCKS","county":"BUCKINGHAMSHIRE","ppdCategoryType":"Standard","recordStatus":"Addition","latitude":51.553747,"longitude":-0.493157,"postcodeStart":"UB9 4","postcode":["UB9","4EQ"]}
{"price":140000,"dateOfTransfer":"1996-01-12T00:00:00","postcodeFull":"UB9 4AH","propertyType":"Detached","oldOrNew":"Established","duration":"Freehold","paon":"5","saon":"","street":"HAWTHORN DRIVE","locality":"DENHAM","townOrCity":"UXBRIDGE","district":"SOUTH BUCKS","county":"BUCKINGHAMSHIRE","ppdCategoryType":"Standard","recordStatus":"Addition","latitude":51.554371,"longitude":-0.484352,"postcodeStart":"UB9 4","postcode":["UB9","4AH"]}
{"price":117000,"dateOfTransfer":"1996-07-19T00:00:00","postcodeFull":"UB9 4AU","propertyType":"Detached","oldOrNew":"Established","duration":"Freehold","paon":"71","saon":"","street":"WILLOW CRESCENT WEST","locality":"DENHAM","townOrCity":"UXBRIDGE","district":"SOUTH BUCKS","county":"BUCKINGHAMSHIRE","ppdCategoryType":"Standard","recordStatus":"Addition","latitude":51.555675,"longitude":-0.485795,"postcodeStart":"UB9 4","postcode":["UB9","4AU"]}
{"price":66250,"dateOfTransfer":"1996-02-09T00:00:00","postcodeFull":"UB9 4EE","propertyType":"Semi-detached","oldOrNew":"Established","duration":"Freehold","paon":"9","saon":"","street":"DENHAM CLOSE","locality":"DENHAM","townOrCity":"UXBRIDGE","district":"SOUTH BUCKS","county":"BUCKINGHAMSHIRE","ppdCategoryType":"Standard","recordStatus":"Addition","latitude":51.566867,"longitude":-0.500255,"postcodeStart":"UB9 4","postcode":["UB9","4EE"]}
{"price":75000,"dateOfTransfer":"1996-09-06T00:00:00","postcodeFull":"UB9 4AJ","propertyType":"Detached","oldOrNew":"Established","duration":"Freehold","paon":"15","saon":"","street":"HAWTHORN DRIVE","locality":"DENHAM","townOrCity":"UXBRIDGE","district":"SOUTH BUCKS","county":"BUCKINGHAMSHIRE","ppdCategoryType":"Standard","recordStatus":"Addition","latitude":51.553262,"longitude":-0.484836,"postcodeStart":"UB9 4","postcode":["UB9","4AJ"]}
{"price":35000,"dateOfTransfer":"1996-07-05T00:00:00","postcodeFull":"UB9 4AT","propertyType":"Detached","oldOrNew":"Established","duration":"Freehold","paon":"47","saon":"","street":"WILLOW CRESCENT WEST","locality":"DENHAM","townOrCity":"UXBRIDGE","district":"SOUTH BUCKS","county":"BUCKINGHAMSHIRE","ppdCategoryType":"Standard","recordStatus":"Addition","latitude":51.556758,"longitude":-0.485398,"postcodeStart":"UB9 4","postcode":["UB9","4AT"]}
{"price":111000,"dateOfTransfer":"1996-08-09T00:00:00","postcodeFull":"UB9 4HH","propertyType":"Semi-detached","oldOrNew":"Established","duration":"Freehold","paon":"RAMBUTAN","saon":"","street":"HOLLYBUSH LANE","locality":"DENHAM","townOrCity":"UXBRIDGE","district":"SOUTH BUCKS","county":"BUCKINGHAMSHIRE","ppdCategoryType":"Standard","recordStatus":"Addition","latitude":51.572261,"longitude":-0.526427,"postcodeStart":"UB9 4","postcode":["UB9","4HH"]}
{"price":115000,"dateOfTransfer":"1996-02-28T00:00:00","postcodeFull":"UB9 4HF","propertyType":"Detached","oldOrNew":"Established","duration":"Freehold","paon":"RUSH HILL FARM","saon":"","street":"HOLLYBUSH LANE","locality":"DENHAM","townOrCity":"UXBRIDGE","district":"SOUTH BUCKS","county":"BUCKINGHAMSHIRE","ppdCategoryType":"Standard","recordStatus":"Addition","latitude":51.56031,"longitude":-0.516383,"postcodeStart":"UB9 4","postcode":["UB9","4HF"]}
{"price":126000,"dateOfTransfer":"1996-08-30T00:00:00","postcodeFull":"UB9 4AP","propertyType":"Detached","oldOrNew":"Established","duration":"Freehold","paon":"12","saon":"","street":"WILLOW CRESCENT EAST","locality":"DENHAM","townOrCity":"UXBRIDGE","district":"SOUTH BUCKS","county":"BUCKINGHAMSHIRE","ppdCategoryType":"Standard","recordStatus":"Addition","latitude":51.555459,"longitude":-0.485037,"postcodeStart":"UB9 4","postcode":["UB9","4AP"]}
{"price":94950,"dateOfTransfer":"1997-08-15T00:00:00","postcodeFull":"UB9 4BE","propertyType":"Semi-detached","oldOrNew":"Established","duration":"Freehold","paon":"38","saon":"","street":"NEWTOWN ROAD","locality":"DENHAM","townOrCity":"UXBRIDGE","district":"SOUTH BUCKS","county":"BUCKINGHAMSHIRE","ppdCategoryType":"Standard","recordStatus":"Addition","latitude":51.553378,"longitude":-0.490357,"postcodeStart":"UB9 4","postcode":["UB9","4BE"]}
{"price":122500,"dateOfTransfer":"1997-03-03T00:00:00","postcodeFull":"UB9 4AS","propertyType":"Detached","oldOrNew":"Established","duration":"Freehold","paon":"4","saon":"","street":"LIME WALK","locality":"DENHAM","townOrCity":"UXBRIDGE","district":"SOUTH BUCKS","county":"BUCKINGHAMSHIRE","ppdCategoryType":"Standard","recordStatus":"Addition","latitude":51.558291,"longitude":-0.484143,"postcodeStart":"UB9 4","postcode":["UB9","4AS"]}
{"price":64950,"dateOfTransfer":"1997-07-31T00:00:00","postcodeFull":"UB9 4AY","propertyType":"Flat/Maisonette/Townhouse","oldOrNew":"Established","duration":"Leasehold","paon":"15","saon":"","street":"THE ALDERS","locality":"DENHAM","townOrCity":"UXBRIDGE","district":"SOUTH BUCKS","county":"BUCKINGHAMSHIRE","ppdCategoryType":"Standard","recordStatus":"Addition","latitude":51.552557,"longitude":-0.486619,"postcodeStart":"UB9 4","postcode":["UB9","4AY"]}
{"price":130000,"dateOfTransfer":"1997-08-22T00:00:00","postcodeFull":"UB9 4AJ","propertyType":"Detached","oldOrNew":"Established","duration":"Freehold","paon":"27","saon":"","street":"HAWTHORN DRIVE","locality":"DENHAM","townOrCity":"UXBRIDGE","district":"SOUTH BUCKS","county":"BUCKINGHAMSHIRE","ppdCategoryType":"Standard","recordStatus":"Addition","latitude":51.553262,"longitude":-0.484836,"postcodeStart":"UB9 4","postcode":["UB9","4AJ"]}
{"price":170000,"dateOfTransfer":"1997-10-21T00:00:00","postcodeFull":"UB9 4AS","propertyType":"Detached","oldOrNew":"Established","duration":"Freehold","paon":"15","saon":"","street":"LIME WALK","locality":"DENHAM","townOrCity":"UXBRIDGE","district":"SOUTH BUCKS","county":"BUCKINGHAMSHIRE","ppdCategoryType":"Standard","recordStatus":"Addition","latitude":51.558291,"longitude":-0.484143,"postcodeStart":"UB9 4","postcode":["UB9","4AS"]}
{"price":93500,"dateOfTransfer":"1997-10-03T00:00:00","postcodeFull":"UB9 4DN","propertyType":"Semi-detached","oldOrNew":"Established","duration":"Freehold","paon":"72A","saon":"","street":"OXFORD ROAD","locality":"DENHAM","townOrCity":"UXBRIDGE","district":"SOUTH BUCKS","county":"BUCKINGHAMSHIRE","ppdCategoryType":"Standard","recordStatus":"Addition","latitude":51.554464,"longitude":-0.488799,"postcodeStart":"UB9 4","postcode":["UB9","4DN"]}
{"price":85000,"dateOfTransfer":"1997-05-16T00:00:00","postcodeFull":"UB9 4ED","propertyType":"Semi-detached","oldOrNew":"Established","duration":"Freehold","paon":"33","saon":"","street":"OXFORD GARDENS","locality":"DENHAM","townOrCity":"UXBRIDGE","district":"SOUTH BUCKS","county":"BUCKINGHAMSHIRE","ppdCategoryType":"Standard","recordStatus":"Addition","latitude":51.566571,"longitude":-0.50103,"postcodeStart":"UB9 4","postcode":["UB9","4ED"]}
{"price":192500,"dateOfTransfer":"1997-08-07T00:00:00","postcodeFull":"UB9 4LA","propertyType":"Detached","oldOrNew":"Established","duration":"Freehold","paon":"NUESTRAS","saon":"","street":"BROKENGATE LANE","locality":"DENHAM","townOrCity":"UXBRIDGE","district":"SOUTH BUCKS","county":"BUCKINGHAMSHIRE","ppdCategoryType":"Standard","recordStatus":"Addition","latitude":51.574499,"longitude":-0.523483,"postcodeStart":"UB9 4","postcode":["UB9","4LA"]}
{"price":127950,"dateOfTransfer":"1997-08-22T00:00:00","postcodeFull":"UB9 4BA","propertyType":"Semi-detached","oldOrNew":"Established","duration":"Freehold","paon":"4","saon":"","street":"NINE STILES CLOSE","locality":"DENHAM","townOrCity":"UXBRIDGE","district":"SOUTH BUCKS","county":"BUCKINGHAMSHIRE","ppdCategoryType":"Standard","recordStatus":"Addition","latitude":51.55288,"longitude":-0.492205,"postcodeStart":"UB9 4","postcode":["UB9","4BA"]}
{"price":118000,"dateOfTransfer":"1997-08-07T00:00:00","postcodeFull":"UB9 4BD","propertyType":"Semi-detached","oldOrNew":"Established","duration":"Freehold","paon":"88","saon":"","street":"NEWTOWN ROAD","locality":"DENHAM","townOrCity":"UXBRIDGE","district":"SOUTH BUCKS","county":"BUCKINGHAMSHIRE","ppdCategoryType":"Standard","recordStatus":"Addition","latitude":51.552002,"longitude":-0.491758,"postcodeStart":"UB9 4","postcode":["UB9","4BD"]}
{"price":353000,"dateOfTransfer":"1997-04-25T00:00:00","postcodeFull":"UB9 4LB","propertyType":"Detached","oldOrNew":"Established","duration":"Freehold","paon":"BRIDLE PATH HOUSE","saon":"","street":"BROKENGATE LANE","locality":"DENHAM","townOrCity":"UXBRIDGE","district":"SOUTH BUCKS","county":"BUCKINGHAMSHIRE","ppdCategoryType":"Standard","recordStatus":"Addition","latitude":51.574186,"longitude":-0.522916,"postcodeStart":"UB9 4","postcode":["UB9","4LB"]}
{"price":102500,"dateOfTransfer":"1997-08-15T00:00:00","postcodeFull":"UB9 4BE","propertyType":"Semi-detached","oldOrNew":"Established","duration":"Freehold","paon":"28","saon":"","street":"NEWTOWN ROAD","locality":"DENHAM","townOrCity":"UXBRIDGE","district":"SOUTH BUCKS","county":"BUCKINGHAMSHIRE","ppdCategoryType":"Standard","recordStatus":"Addition","latitude":51.553378,"longitude":-0.490357,"postcodeStart":"UB9 4","postcode":["UB9","4BE"]}
{"price":160000,"dateOfTransfer":"1997-06-06T00:00:00","postcodeFull":"UB9 4AU","propertyType":"Detached","oldOrNew":"Established","duration":"Freehold","paon":"63","saon":"","street":"WILLOW CRESCENT WEST","locality":"DENHAM","townOrCity":"UXBRIDGE","district":"SOUTH BUCKS","county":"BUCKINGHAMSHIRE","ppdCategoryType":"Standard","recordStatus":"Addition","latitude":51.555675,"longitude":-0.485795,"postcodeStart":"UB9 4","postcode":["UB9","4AU"]}
{"price":130000,"dateOfTransfer":"1997-08-15T00:00:00","postcodeFull":"UB9 4AU","propertyType":"Detached","oldOrNew":"Established","duration":"Freehold","paon":"52","saon":"","street":"WILLOW CRESCENT WEST","locality":"DENHAM","townOrCity":"UXBRIDGE","district":"SOUTH BUCKS","county":"BUCKINGHAMSHIRE","ppdCategoryType":"Standard","recordStatus":"Addition","latitude":51.555675,"longitude":-0.485795,"postcodeStart":"UB9 4","postcode":["UB9","4AU"]}
{"price":173000,"dateOfTransfer":"1997-11-24T00:00:00","postcodeFull":"UB9 4AW","propertyType":"Detached","oldOrNew":"Established","duration":"Freehold","paon":"14","saon":"","street":"POPLAR ROAD","locality":"DENHAM","townOrCity":"UXBRIDGE","district":"SOUTH BUCKS","county":"BUCKINGHAMSHIRE","ppdCategoryType":"Standard","recordStatus":"Addition","latitude":51.553855,"longitude":-0.484081,"postcodeStart":"UB9 4","postcode":["UB9","4AW"]}
{"price":65750,"dateOfTransfer":"1997-06-12T00:00:00","postcodeFull":"UB9 4BD","propertyType":"Terraced","oldOrNew":"Established","duration":"Freehold","paon":"66","saon":"","street":"NEWTOWN ROAD","locality":"DENHAM","townOrCity":"UXBRIDGE","district":"SOUTH BUCKS","county":"BUCKINGHAMSHIRE","ppdCategoryType":"Standard","recordStatus":"Addition","latitude":51.552002,"longitude":-0.491758,"postcodeStart":"UB9 4","postcode":["UB9","4BD"]}
{"price":142000,"dateOfTransfer":"1997-06-23T00:00:00","postcodeFull":"UB9 4BE","propertyType":"Detached","oldOrNew":"Established","duration":"Freehold","paon":"1","saon":"","street":"NEWTOWN ROAD","locality":"DENHAM","townOrCity":"UXBRIDGE","district":"SOUTH BUCKS","county":"BUCKINGHAMSHIRE","ppdCategoryType":"Standard","recordStatus":"Addition","latitude":51.553378,"longitude":-0.490357,"postcodeStart":"UB9 4","postcode":["UB9","4BE"]}
{"price":133000,"dateOfTransfer":"1997-11-11T00:00:00","postcodeFull":"UB9 4EE","propertyType":"Semi-detached","oldOrNew":"Established","duration":"Freehold","paon":"7","saon":"","street":"DENHAM CLOSE","locality":"DENHAM","townOrCity":"UXBRIDGE","district":"SOUTH BUCKS","county":"BUCKINGHAMSHIRE","ppdCategoryType":"Standard","recordStatus":"Addition","latitude":51.566867,"longitude":-0.500255,"postcodeStart":"UB9 4","postcode":["UB9","4EE"]}
{"price":75000,"dateOfTransfer":"1997-08-21T00:00:00","postcodeFull":"UB9 4BA","propertyType":"Semi-detached","oldOrNew":"Established","duration":"Freehold","paon":"3","saon":"","street":"NINE STILES CLOSE","locality":"DENHAM","townOrCity":"UXBRIDGE","district":"SOUTH BUCKS","county":"BUCKINGHAMSHIRE","ppdCategoryType":"Standard","recordStatus":"Addition","latitude":51.55288,"longitude":-0.492205,"postcodeStart":"UB9 4","postcode":["UB9","4BA"]}
{"price":210000,"dateOfTransfer":"1997-02-26T00:00:00","postcodeFull":"UB9 4AS","propertyType":"Detached","oldOrNew":"Established","duration":"Freehold","paon":"1","saon":"","street":"LIME WALK","locality":"DENHAM","townOrCity":"UXBRIDGE","district":"SOUTH BUCKS","county":"BUCKINGHAMSHIRE","ppdCategoryType":"Standard","recordStatus":"Addition","latitude":51.558291,"longitude":-0.484143,"postcodeStart":"UB9 4","postcode":["UB9","4AS"]}
{"price":86500,"dateOfTransfer":"1997-02-21T00:00:00","postcodeFull":"UB9 4HS","propertyType":"Terraced","oldOrNew":"Established","duration":"Freehold","paon":"30","saon":"","street":"SKYLARK ROAD","locality":"DENHAM","townOrCity":"UXBRIDGE","district":"SOUTH BUCKS","county":"BUCKINGHAMSHIRE","ppdCategoryType":"Standard","recordStatus":"Addition","latitude":51.572798,"longitude":-0.529094,"postcodeStart":"UB9 4","postcode":["UB9","4HS"]}
{"price":95500,"dateOfTransfer":"1997-09-01T00:00:00","postcodeFull":"UB9 4DN","propertyType":"Terraced","oldOrNew":"New build","duration":"Freehold","paon":"68A","saon":"","street":"OXFORD ROAD","locality":"DENHAM","townOrCity":"UXBRIDGE","district":"SOUTH BUCKS","county":"BUCKINGHAMSHIRE","ppdCategoryType":"Standard","recordStatus":"Addition","latitude":51.554464,"longitude":-0.488799,"postcodeStart":"UB9 4","postcode":["UB9","4DN"]}
{"price":89000,"dateOfTransfer":"1997-09-05T00:00:00","postcodeFull":"UB9 4BD","propertyType":"Terraced","oldOrNew":"Established","duration":"Freehold","paon":"72","saon":"","street":"NEWTOWN ROAD","locality":"DENHAM","townOrCity":"UXBRIDGE","district":"SOUTH BUCKS","county":"BUCKINGHAMSHIRE","ppdCategoryType":"Standard","recordStatus":"Addition","latitude":51.552002,"longitude":-0.491758,"postcodeStart":"UB9 4","postcode":["UB9","4BD"]}
{"price":395000,"dateOfTransfer":"1997-07-10T00:00:00","postcodeFull":"UB9 4LF","propertyType":"Detached","oldOrNew":"Established","duration":"Freehold","paon":"CHERRY TREES","saon":"","street":"BAKERS WOOD","locality":"DENHAM","townOrCity":"UXBRIDGE","district":"SOUTH BUCKS","county":"BUCKINGHAMSHIRE","ppdCategoryType":"Standard","recordStatus":"Addition","latitude":51.573505,"longitude":-0.518825,"postcodeStart":"UB9 4","postcode":["UB9","4LF"]}
{"price":136500,"dateOfTransfer":"1997-05-15T00:00:00","postcodeFull":"UB9 4AJ","propertyType":"Detached","oldOrNew":"Established","duration":"Freehold","paon":"25","saon":"","street":"HAWTHORN DRIVE","locality":"DENHAM","townOrCity":"UXBRIDGE","district":"SOUTH BUCKS","county":"BUCKINGHAMSHIRE","ppdCategoryType":"Standard","recordStatus":"Addition","latitude":51.553262,"longitude":-0.484836,"postcodeStart":"UB9 4","postcode":["UB9","4AJ"]}
{"price":220000,"dateOfTransfer":"1997-11-21T00:00:00","postcodeFull":"UB9 4AU","propertyType":"Detached","oldOrNew":"Established","duration":"Freehold","paon":"46","saon":"","street":"WILLOW CRESCENT WEST","locality":"DENHAM","townOrCity":"UXBRIDGE","district":"SOUTH BUCKS","county":"BUCKINGHAMSHIRE","ppdCategoryType":"Standard","recordStatus":"Addition","latitude":51.555675,"longitude":-0.485795,"postcodeStart":"UB9 4","postcode":["UB9","4AU"]}
{"price":95500,"dateOfTransfer":"1997-07-09T00:00:00","postcodeFull":"UB9 4DN","propertyType":"Semi-detached","oldOrNew":"Established","duration":"Freehold","paon":"72","saon":"","street":"OXFORD ROAD","locality":"DENHAM","townOrCity":"UXBRIDGE","district":"SOUTH BUCKS","county":"BUCKINGHAMSHIRE","ppdCategoryType":"Standard","recordStatus":"Addition","latitude":51.554464,"longitude":-0.488799,"postcodeStart":"UB9 4","postcode":["UB9","4DN"]}
{"price":225000,"dateOfTransfer":"1997-04-28T00:00:00","postcodeFull":"UB9 4AU","propertyType":"Detached","oldOrNew":"Established","duration":"Freehold","paon":"83","saon":"","street":"WILLOW CRESCENT WEST","locality":"DENHAM","townOrCity":"UXBRIDGE","district":"SOUTH BUCKS","county":"BUCKINGHAMSHIRE","ppdCategoryType":"Standard","recordStatus":"Addition","latitude":51.555675,"longitude":-0.485795,"postcodeStart":"UB9 4","postcode":["UB9","4AU"]}
{"price":185000,"dateOfTransfer":"1997-09-01T00:00:00","postcodeFull":"UB9 4BE","propertyType":"Detached","oldOrNew":"Established","duration":"Freehold","paon":"46","saon":"","street":"NEWTOWN ROAD","locality":"DENHAM","townOrCity":"UXBRIDGE","district":"SOUTH BUCKS","county":"BUCKINGHAMSHIRE","ppdCategoryType":"Standard","recordStatus":"Addition","latitude":51.553378,"longitude":-0.490357,"postcodeStart":"UB9 4","postcode":["UB9","4BE"]}
{"price":95500,"dateOfTransfer":"1997-07-25T00:00:00","postcodeFull":"UB9 4DN","propertyType":"Terraced","oldOrNew":"New build","duration":"Freehold","paon":"70","saon":"","street":"OXFORD ROAD","locality":"DENHAM","townOrCity":"UXBRIDGE","district":"SOUTH BUCKS","county":"BUCKINGHAMSHIRE","ppdCategoryType":"Standard","recordStatus":"Addition","latitude":51.554464,"longitude":-0.488799,"postcodeStart":"UB9 4","postcode":["UB9","4DN"]}
{"price":85000,"dateOfTransfer":"1997-01-17T00:00:00","postcodeFull":"UB9 4HS","propertyType":"Detached","oldOrNew":"Established","duration":"Freehold","paon":"45","saon":"","street":"SKYLARK ROAD","locality":"DENHAM","townOrCity":"UXBRIDGE","district":"SOUTH BUCKS","county":"BUCKINGHAMSHIRE","ppdCategoryType":"Standard","recordStatus":"Addition","latitude":51.572798,"longitude":-0.529094,"postcodeStart":"UB9 4","postcode":["UB9","4HS"]}
{"price":59999,"dateOfTransfer":"1997-03-07T00:00:00","postcodeFull":"UB9 4BB","propertyType":"Semi-detached","oldOrNew":"Established","duration":"Leasehold","paon":"33","saon":"","street":"ORCHARD CLOSE","locality":"DENHAM","townOrCity":"UXBRIDGE","district":"SOUTH BUCKS","county":"BUCKINGHAMSHIRE","ppdCategoryType":"Standard","recordStatus":"Addition","latitude":51.553897,"longitude":-0.490816,"postcodeStart":"UB9 4","postcode":["UB9","4BB"]}
{"price":105000,"dateOfTransfer":"1997-12-12T00:00:00","postcodeFull":"UB9 4BD","propertyType":"Detached","oldOrNew":"Established","duration":"Freehold","paon":"93","saon":"","street":"NEWTOWN ROAD","locality":"DENHAM","townOrCity":"UXBRIDGE","district":"SOUTH BUCKS","county":"BUCKINGHAMSHIRE","ppdCategoryType":"Standard","recordStatus":"Addition","latitude":51.552002,"longitude":-0.491758,"postcodeStart":"UB9 4","postcode":["UB9","4BD"]}
{"price":92500,"dateOfTransfer":"1997-11-03T00:00:00","postcodeFull":"UB9 4EA","propertyType":"Semi-detached","oldOrNew":"Established","duration":"Freehold","paon":"10","saon":"","street":"OXFORD GARDENS","locality":"DENHAM","townOrCity":"UXBRIDGE","district":"SOUTH BUCKS","county":"BUCKINGHAMSHIRE","ppdCategoryType":"Standard","recordStatus":"Addition","latitude":51.565057,"longitude":-0.499305,"postcodeStart":"UB9 4","postcode":["UB9","4EA"]}
{"price":4000,"dateOfTransfer":"1997-06-30T00:00:00","postcodeFull":"UB9 4HR","propertyType":"Terraced","oldOrNew":"Established","duration":"Freehold","paon":"6","saon":"","street":"SKYLARK ROAD","locality":"DENHAM","townOrCity":"UXBRIDGE","district":"SOUTH BUCKS","county":"BUCKINGHAMSHIRE","ppdCategoryType":"Standard","recordStatus":"Addition","latitude":51.572283,"longitude":-0.527451,"postcodeStart":"UB9 4","postcode":["UB9","4HR"]}
{"price":60000,"dateOfTransfer":"1997-09-01T00:00:00","postcodeFull":"UB9 4DB","propertyType":"Semi-detached","oldOrNew":"Established","duration":"Freehold","paon":"93","saon":"","street":"OXFORD ROAD","locality":"DENHAM","townOrCity":"UXBRIDGE","district":"SOUTH BUCKS","county":"BUCKINGHAMSHIRE","ppdCategoryType":"Standard","recordStatus":"Addition","latitude":51.554649,"longitude":-0.489925,"postcodeStart":"UB9 4","postcode":["UB9","4DB"]}
{"price":366000,"dateOfTransfer":"1997-07-25T00:00:00","postcodeFull":"UB9 4AD","propertyType":"Detached","oldOrNew":"Established","duration":"Freehold","paon":"1","saon":"","street":"MISBOURNE MEADOWS","locality":"DENHAM","townOrCity":"UXBRIDGE","district":"SOUTH BUCKS","county":"BUCKINGHAMSHIRE","ppdCategoryType":"Standard","recordStatus":"Addition","latitude":51.576988,"longitude":-0.522594,"postcodeStart":"UB9 4","postcode":["UB9","4AD"]}
{"price":250000,"dateOfTransfer":"1997-07-31T00:00:00","postcodeFull":"UB9 4LQ","propertyType":"Detached","oldOrNew":"Established","duration":"Freehold","paon":"TWIN GABLES","saon":"","street":"BAKERS WOOD","locality":"DENHAM","townOrCity":"UXBRIDGE","district":"SOUTH BUCKS","county":"BUCKINGHAMSHIRE","ppdCategoryType":"Standard","recordStatus":"Addition","latitude":51.572815,"longitude":-0.516871,"postcodeStart":"UB9 4","postcode":["UB9","4LQ"]}
{"price":180000,"dateOfTransfer":"1998-02-20T00:00:00","postcodeFull":"UB9 4EH","propertyType":"Detached","oldOrNew":"Established","duration":"Freehold","paon":"71A","saon":"","street":"KNIGHTON WAY LANE","locality":"DENHAM","townOrCity":"UXBRIDGE","district":"SOUTH BUCKS","county":"BUCKINGHAMSHIRE","ppdCategoryType":"Standard","recordStatus":"Addition","latitude":51.552605,"longitude":-0.493195,"postcodeStart":"UB9 4","postcode":["UB9","4EH"]}
{"price":144000,"dateOfTransfer":"1998-12-21T00:00:00","postcodeFull":"UB9 4HH","propertyType":"Semi-detached","oldOrNew":"Established","duration":"Freehold","paon":"RAMBUTAN","saon":"","street":"HOLLYBUSH LANE","locality":"DENHAM","townOrCity":"UXBRIDGE","district":"SOUTH BUCKS","county":"BUCKINGHAMSHIRE","ppdCategoryType":"Standard","recordStatus":"Addition","latitude":51.572261,"longitude":-0.526427,"postcodeStart":"UB9 4","postcode":["UB9","4HH"]}
{"price":140000,"dateOfTransfer":"1998-04-29T00:00:00","postcodeFull":"UB9 4BD","propertyType":"Semi-detached","oldOrNew":"Established","duration":"Freehold","paon":"58","saon":"","street":"NEWTOWN ROAD","locality":"DENHAM","townOrCity":"UXBRIDGE","district":"SOUTH BUCKS","county":"BUCKINGHAMSHIRE","ppdCategoryType":"Standard","recordStatus":"Addition","latitude":51.552002,"longitude":-0.491758,"postcodeStart":"UB9 4","postcode":["UB9","4BD"]}
{"price":64000,"dateOfTransfer":"1998-05-11T00:00:00","postcodeFull":"UB9 4DY","propertyType":"Detached","oldOrNew":"Established","duration":"Freehold","paon":"5","saon":"","street":"OAKSIDE","locality":"DENHAM","townOrCity":"UXBRIDGE","district":"SOUTH BUCKS","county":"BUCKINGHAMSHIRE","ppdCategoryType":"Standard","recordStatus":"Addition","latitude":51.554169,"longitude":-0.487532,"postcodeStart":"UB9 4","postcode":["UB9","4DY"]}
{"price":415000,"dateOfTransfer":"1998-06-22T00:00:00","postcodeFull":"UB9 4LB","propertyType":"Detached","oldOrNew":"Established","duration":"Freehold","paon":"GLENMORE","saon":"","street":"BROKENGATE LANE","locality":"DENHAM","townOrCity":"UXBRIDGE","district":"SOUTH BUCKS","county":"BUCKINGHAMSHIRE","ppdCategoryType":"Standard","recordStatus":"Addition","latitude":51.574186,"longitude":-0.522916,"postcodeStart":"UB9 4","postcode":["UB9","4LB"]}
{"price":109000,"dateOfTransfer":"1998-08-28T00:00:00","postcodeFull":"UB9 4EA","propertyType":"Semi-detached","oldOrNew":"Established","duration":"Freehold","paon":"6","saon":"","street":"OXFORD GARDENS","locality":"DENHAM","townOrCity":"UXBRIDGE","district":"SOUTH BUCKS","county":"BUCKINGHAMSHIRE","ppdCategoryType":"Standard","recordStatus":"Addition","latitude":51.565057,"longitude":-0.499305,"postcodeStart":"UB9 4","postcode":["UB9","4EA"]}
{"price":108000,"dateOfTransfer":"1998-07-27T00:00:00","postcodeFull":"UB9 4EB","propertyType":"Semi-detached","oldOrNew":"Established","duration":"Freehold","paon":"23","saon":"","street":"OXFORD GARDENS","locality":"DENHAM","townOrCity":"UXBRIDGE","district":"SOUTH BUCKS","county":"BUCKINGHAMSHIRE","ppdCategoryType":"Standard","recordStatus":"Addition","latitude":51.565959,"longitude":-0.500228,"postcodeStart":"UB9 4","postcode":["UB9","4EB"]}
{"price":95000,"dateOfTransfer":"1998-03-31T00:00:00","postcodeFull":"UB9 4DN","propertyType":"Terraced","oldOrNew":"New build","duration":"Freehold","paon":"68","saon":"","street":"OXFORD ROAD","locality":"DENHAM","townOrCity":"UXBRIDGE","district":"SOUTH BUCKS","county":"BUCKINGHAMSHIRE","ppdCategoryType":"Standard","recordStatus":"Addition","latitude":51.554464,"longitude":-0.488799,"postcodeStart":"UB9 4","postcode":["UB9","4DN"]}
{"price":127000,"dateOfTransfer":"1998-03-20T00:00:00","postcodeFull":"UB9 4HH","propertyType":"Terraced","oldOrNew":"Established","duration":"Freehold","paon":"3","saon":"","street":"HOLLYBUSH LANE","locality":"DENHAM","townOrCity":"UXBRIDGE","district":"SOUTH BUCKS","county":"BUCKINGHAMSHIRE","ppdCategoryType":"Standard","recordStatus":"Addition","latitude":51.572261,"longitude":-0.526427,"postcodeStart":"UB9 4","postcode":["UB9","4HH"]}
{"price":143000,"dateOfTransfer":"1998-12-18T00:00:00","postcodeFull":"UB9 4EA","propertyType":"Detached","oldOrNew":"Established","duration":"Freehold","paon":"16","saon":"","street":"OXFORD GARDENS","locality":"DENHAM","townOrCity":"UXBRIDGE","district":"SOUTH BUCKS","county":"BUCKINGHAMSHIRE","ppdCategoryType":"Standard","recordStatus":"Addition","latitude":51.565057,"longitude":-0.499305,"postcodeStart":"UB9 4","postcode":["UB9","4EA"]}
{"price":127000,"dateOfTransfer":"1998-03-25T00:00:00","postcodeFull":"UB9 4AP","propertyType":"Detached","oldOrNew":"Established","duration":"Freehold","paon":"5","saon":"","street":"WILLOW CRESCENT EAST","locality":"DENHAM","townOrCity":"UXBRIDGE","district":"SOUTH BUCKS","county":"BUCKINGHAMSHIRE","ppdCategoryType":"Standard","recordStatus":"Addition","latitude":51.555459,"longitude":-0.485037,"postcodeStart":"UB9 4","postcode":["UB9","4AP"]}
{"price":118000,"dateOfTransfer":"1998-07-31T00:00:00","postcodeFull":"UB9 4BB","propertyType":"Semi-detached","oldOrNew":"Established","duration":"Freehold","paon":"13","saon":"","street":"ORCHARD CLOSE","locality":"DENHAM","townOrCity":"UXBRIDGE","district":"SOUTH BUCKS","county":"BUCKINGHAMSHIRE","ppdCategoryType":"Standard","recordStatus":"Addition","latitude":51.553897,"longitude":-0.490816,"postcodeStart":"UB9 4","postcode":["UB9","4BB"]}
{"price":88000,"dateOfTransfer":"1998-08-28T00:00:00","postcodeFull":"UB9 4AB","propertyType":"Flat/Maisonette/Townhouse","oldOrNew":"Established","duration":"Leasehold","paon":"48","saon":"","street":"DENHAM LODGE","locality":"DENHAM","townOrCity":"UXBRIDGE","district":"SOUTH BUCKS","county":"BUCKINGHAMSHIRE","ppdCategoryType":"Standard","recordStatus":"Addition","latitude":51.551188,"longitude":-0.485049,"postcodeStart":"UB9 4","postcode":["UB9","4AB"]}
{"price":272500,"dateOfTransfer":"1998-04-08T00:00:00","postcodeFull":"UB9 4LQ","propertyType":"Detached","oldOrNew":"Established","duration":"Freehold","paon":"WOODVIEW","saon":"","street":"BAKERS WOOD","locality":"DENHAM","townOrCity":"UXBRIDGE","district":"SOUTH BUCKS","county":"BUCKINGHAMSHIRE","ppdCategoryType":"Standard","recordStatus":"Addition","latitude":51.572815,"longitude":-0.516871,"postcodeStart":"UB9 4","postcode":["UB9","4LQ"]}
{"price":102500,"dateOfTransfer":"1998-09-22T00:00:00","postcodeFull":"UB9 4BB","propertyType":"Semi-detached","oldOrNew":"Established","duration":"Freehold","paon":"18","saon":"","street":"ORCHARD CLOSE","locality":"DENHAM","townOrCity":"UXBRIDGE","district":"SOUTH BUCKS","county":"BUCKINGHAMSHIRE","ppdCategoryType":"Standard","recordStatus":"Addition","latitude":51.553897,"longitude":-0.490816,"postcodeStart":"UB9 4","postcode":["UB9","4BB"]}
{"price":102950,"dateOfTransfer":"1998-05-22T00:00:00","postcodeFull":"UB9 4DN","propertyType":"Terraced","oldOrNew":"Established","duration":"Freehold","paon":"70","saon":"","street":"OXFORD ROAD","locality":"DENHAM","townOrCity":"UXBRIDGE","district":"SOUTH BUCKS","county":"BUCKINGHAMSHIRE","ppdCategoryType":"Standard","recordStatus":"Addition","latitude":51.554464,"longitude":-0.488799,"postcodeStart":"UB9 4","postcode":["UB9","4DN"]}
{"price":180000,"dateOfTransfer":"1998-02-27T00:00:00","postcodeFull":"UB9 4DN","propertyType":"Detached","oldOrNew":"Established","duration":"Freehold","paon":"NETWORK HOUSE, 64","saon":"","street":"OXFORD ROAD","locality":"DENHAM","townOrCity":"UXBRIDGE","district":"SOUTH BUCKS","county":"BUCKINGHAMSHIRE","ppdCategoryType":"Standard","recordStatus":"Addition","latitude":51.554464,"longitude":-0.488799,"postcodeStart":"UB9 4","postcode":["UB9","4DN"]}
{"price":99950,"dateOfTransfer":"1998-10-28T00:00:00","postcodeFull":"UB9 4HS","propertyType":"Terraced","oldOrNew":"Established","duration":"Freehold","paon":"31","saon":"","street":"SKYLARK ROAD","locality":"DENHAM","townOrCity":"UXBRIDGE","district":"SOUTH BUCKS","county":"BUCKINGHAMSHIRE","ppdCategoryType":"Standard","recordStatus":"Addition","latitude":51.572798,"longitude":-0.529094,"postcodeStart":"UB9 4","postcode":["UB9","4HS"]}
{"price":155000,"dateOfTransfer":"1998-09-10T00:00:00","postcodeFull":"UB9 4AJ","propertyType":"Detached","oldOrNew":"Established","duration":"Freehold","paon":"9","saon":"","street":"HAWTHORN DRIVE","locality":"DENHAM","townOrCity":"UXBRIDGE","district":"SOUTH BUCKS","county":"BUCKINGHAMSHIRE","ppdCategoryType":"Standard","recordStatus":"Addition","latitude":51.553262,"longitude":-0.484836,"postcodeStart":"UB9 4","postcode":["UB9","4AJ"]}
{"price":185000,"dateOfTransfer":"1998-06-22T00:00:00","postcodeFull":"UB9 4BD","propertyType":"Semi-detached","oldOrNew":"Established","duration":"Freehold","paon":"60","saon":"","street":"NEWTOWN ROAD","locality":"DENHAM","townOrCity":"UXBRIDGE","district":"SOUTH BUCKS","county":"BUCKINGHAMSHIRE","ppdCategoryType":"Standard","recordStatus":"Addition","latitude":51.552002,"longitude":-0.491758,"postcodeStart":"UB9 4","postcode":["UB9","4BD"]}
{"price":128000,"dateOfTransfer":"1998-02-17T00:00:00","postcodeFull":"UB9 4AJ","propertyType":"Detached","oldOrNew":"Established","duration":"Freehold","paon":"18","saon":"","street":"HAWTHORN DRIVE","locality":"DENHAM","townOrCity":"UXBRIDGE","district":"SOUTH BUCKS","county":"BUCKINGHAMSHIRE","ppdCategoryType":"Standard","recordStatus":"Addition","latitude":51.553262,"longitude":-0.484836,"postcodeStart":"UB9 4","postcode":["UB9","4AJ"]}
{"price":500000,"dateOfTransfer":"1998-10-23T00:00:00","postcodeFull":"UB9 4LF","propertyType":"Detached","oldOrNew":"Established","duration":"Freehold","paon":"OAKLANDS","saon":"","street":"BAKERS WOOD","locality":"DENHAM","townOrCity":"UXBRIDGE","district":"SOUTH BUCKS","county":"BUCKINGHAMSHIRE","ppdCategoryType":"Standard","recordStatus":"Addition","latitude":51.573505,"longitude":-0.518825,"postcodeStart":"UB9 4","postcode":["UB9","4LF"]}
{"price":107000,"dateOfTransfer":"1998-04-06T00:00:00","postcodeFull":"UB9 4DB","propertyType":"Semi-detached","oldOrNew":"Established","duration":"Freehold","paon":"63","saon":"","street":"OXFORD ROAD","locality":"DENHAM","townOrCity":"UXBRIDGE","district":"SOUTH BUCKS","county":"BUCKINGHAMSHIRE","ppdCategoryType":"Standard","recordStatus":"Addition","latitude":51.554649,"longitude":-0.489925,"postcodeStart":"UB9 4","postcode":["UB9","4DB"]}
{"price":95000,"dateOfTransfer":"1998-12-10T00:00:00","postcodeFull":"UB9 4AA","propertyType":"Flat/Maisonette/Townhouse","oldOrNew":"Established","duration":"Leasehold","paon":"27","saon":"CAR PORT 23","street":"DENHAM LODGE","locality":"DENHAM","townOrCity":"UXBRIDGE","district":"SOUTH BUCKS","county":"BUCKINGHAMSHIRE","ppdCategoryType":"Standard","recordStatus":"Addition","latitude":51.551188,"longitude":-0.485049,"postcodeStart":"UB9 4","postcode":["UB9","4AA"]}
{"price":120800,"dateOfTransfer":"1998-08-14T00:00:00","postcodeFull":"UB9 4BB","propertyType":"Terraced","oldOrNew":"Established","duration":"Freehold","paon":"8","saon":"","street":"ORCHARD CLOSE","locality":"DENHAM","townOrCity":"UXBRIDGE","district":"SOUTH BUCKS","county":"BUCKINGHAMSHIRE","ppdCategoryType":"Standard","recordStatus":"Addition","latitude":51.553897,"longitude":-0.490816,"postcodeStart":"UB9 4","postcode":["UB9","4BB"]}
{"price":635000,"dateOfTransfer":"1998-03-19T00:00:00","postcodeFull":"UB9 4LQ","propertyType":"Detached","oldOrNew":"Established","duration":"Freehold","paon":"ROSEDALE","saon":"","street":"BAKERS WOOD","locality":"DENHAM","townOrCity":"UXBRIDGE","district":"SOUTH BUCKS","county":"BUCKINGHAMSHIRE","ppdCategoryType":"Standard","recordStatus":"Addition","latitude":51.572815,"longitude":-0.516871,"postcodeStart":"UB9 4","postcode":["UB9","4LQ"]}
{"price":95000,"dateOfTransfer":"1998-12-10T00:00:00","postcodeFull":"UB9 4AA","propertyType":"Flat/Maisonette/Townhouse","oldOrNew":"Established","duration":"Leasehold","paon":"27","saon":"","street":"DENHAM LODGE","locality":"DENHAM","townOrCity":"UXBRIDGE","district":"SOUTH BUCKS","county":"BUCKINGHAMSHIRE","ppdCategoryType":"Standard","recordStatus":"Addition","latitude":51.551188,"longitude":-0.485049,"postcodeStart":"UB9 4","postcode":["UB9","4AA"]}
{"price":108000,"dateOfTransfer":"1998-09-25T00:00:00","postcodeFull":"UB9 4HS","propertyType":"Semi-detached","oldOrNew":"Established","duration":"Freehold","paon":"47","saon":"","street":"SKYLARK ROAD","locality":"DENHAM","townOrCity":"UXBRIDGE","district":"SOUTH BUCKS","county":"BUCKINGHAMSHIRE","ppdCategoryType":"Standard","recordStatus":"Addition","latitude":51.572798,"longitude":-0.529094,"postcodeStart":"UB9 4","postcode":["UB9","4HS"]}
{"price":95000,"dateOfTransfer":"1998-09-11T00:00:00","postcodeFull":"UB9 4AB","propertyType":"Flat/Maisonette/Townhouse","oldOrNew":"Established","duration":"Leasehold","paon":"34","saon":"","street":"DENHAM LODGE","locality":"DENHAM","townOrCity":"UXBRIDGE","district":"SOUTH BUCKS","county":"BUCKINGHAMSHIRE","ppdCategoryType":"Standard","recordStatus":"Addition","latitude":51.551188,"longitude":-0.485049,"postcodeStart":"UB9 4","postcode":["UB9","4AB"]}
{"price":125000,"dateOfTransfer":"1998-07-14T00:00:00","postcodeFull":"UB9 4EH","propertyType":"Semi-detached","oldOrNew":"Established","duration":"Freehold","paon":"89","saon":"","street":"KNIGHTON WAY LANE","locality":"DENHAM","townOrCity":"UXBRIDGE","district":"SOUTH BUCKS","county":"BUCKINGHAMSHIRE","ppdCategoryType":"Standard","recordStatus":"Addition","latitude":51.552605,"longitude":-0.493195,"postcodeStart":"UB9 4","postcode":["UB9","4EH"]}
{"price":550000,"dateOfTransfer":"1998-10-23T00:00:00","postcodeFull":"UB9 4LG","propertyType":"Detached","oldOrNew":"Established","duration":"Freehold","paon":"ROSECROFT","saon":"","street":"BAKERS WOOD","locality":"DENHAM","townOrCity":"UXBRIDGE","district":"SOUTH BUCKS","county":"BUCKINGHAMSHIRE","ppdCategoryType":"Standard","recordStatus":"Addition","latitude":51.574242,"longitude":-0.515959,"postcodeStart":"UB9 4","postcode":["UB9","4LG"]}
{"price":96000,"dateOfTransfer":"1998-04-24T00:00:00","postcodeFull":"UB9 4HS","propertyType":"Terraced","oldOrNew":"Established","duration":"Freehold","paon":"35","saon":"","street":"SKYLARK ROAD","locality":"DENHAM","townOrCity":"UXBRIDGE","district":"SOUTH BUCKS","county":"BUCKINGHAMSHIRE","ppdCategoryType":"Standard","recordStatus":"Addition","latitude":51.572798,"longitude":-0.529094,"postcodeStart":"UB9 4","postcode":["UB9","4HS"]}
{"price":122500,"dateOfTransfer":"1999-04-08T00:00:00","postcodeFull":"UB9 4HR","propertyType":"Terraced","oldOrNew":"Established","duration":"Freehold","paon":"3","saon":"","street":"SKYLARK ROAD","locality":"DENHAM","townOrCity":"UXBRIDGE","district":"SOUTH BUCKS","county":"BUCKINGHAMSHIRE","ppdCategoryType":"Standard","recordStatus":"Addition","latitude":51.572283,"longitude":-0.527451,"postcodeStart":"UB9 4","postcode":["UB9","4HR"]}
{"price":170000,"dateOfTransfer":"1999-02-19T00:00:00","postcodeFull":"UB9 4HH","propertyType":"Semi-detached","oldOrNew":"Established","duration":"Freehold","paon":"DAMARJEN","saon":"","street":"HOLLYBUSH LANE","locality":"DENHAM","townOrCity":"UXBRIDGE","district":"SOUTH BUCKS","county":"BUCKINGHAMSHIRE","ppdCategoryType":"Standard","recordStatus":"Addition","latitude":51.572261,"longitude":-0.526427,"postcodeStart":"UB9 4","postcode":["UB9","4HH"]}
{"price":114000,"dateOfTransfer":"1999-10-22T00:00:00","postcodeFull":"UB9 4EA","propertyType":"Semi-detached","oldOrNew":"Established","duration":"Freehold","paon":"5","saon":"","street":"OXFORD GARDENS","locality":"DENHAM","townOrCity":"UXBRIDGE","district":"SOUTH BUCKS","county":"BUCKINGHAMSHIRE","ppdCategoryType":"Standard","recordStatus":"Addition","latitude":51.565057,"longitude":-0.499305,"postcodeStart":"UB9 4","postcode":["UB9","4EA"]}
{"price":105000,"dateOfTransfer":"1999-11-24T00:00:00","postcodeFull":"UB9 4AY","propertyType":"Semi-detached","oldOrNew":"Established","duration":"Leasehold","paon":"17","saon":"","street":"THE ALDERS","locality":"DENHAM","townOrCity":"UXBRIDGE","district":"SOUTH BUCKS","county":"BUCKINGHAMSHIRE","ppdCategoryType":"Standard","recordStatus":"Addition","latitude":51.552557,"longitude":-0.486619,"postcodeStart":"UB9 4","postcode":["UB9","4AY"]}
{"price":249950,"dateOfTransfer":"1999-12-03T00:00:00","postcodeFull":"UB9 4LA","propertyType":"Detached","oldOrNew":"Established","duration":"Freehold","paon":"2","saon":"","street":"BROKENGATE LANE","locality":"DENHAM","townOrCity":"UXBRIDGE","district":"SOUTH BUCKS","county":"BUCKINGHAMSHIRE","ppdCategoryType":"Standard","recordStatus":"Addition","latitude":51.574499,"longitude":-0.523483,"postcodeStart":"UB9 4","postcode":["UB9","4LA"]}
{"price":128000,"dateOfTransfer":"1999-04-30T00:00:00","postcodeFull":"UB9 4BE","propertyType":"Semi-detached","oldOrNew":"Established","duration":"Freehold","paon":"32","saon":"","street":"NEWTOWN ROAD","locality":"DENHAM","townOrCity":"UXBRIDGE","district":"SOUTH BUCKS","county":"BUCKINGHAMSHIRE","ppdCategoryType":"Standard","recordStatus":"Addition","latitude":51.553378,"longitude":-0.490357,"postcodeStart":"UB9 4","postcode":["UB9","4BE"]}
{"price":101000,"dateOfTransfer":"1999-09-30T00:00:00","postcodeFull":"UB9 4BB","propertyType":"Terraced","oldOrNew":"Established","duration":"Freehold","paon":"16","saon":"","street":"ORCHARD CLOSE","locality":"DENHAM","townOrCity":"UXBRIDGE","district":"SOUTH BUCKS","county":"BUCKINGHAMSHIRE","ppdCategoryType":"Standard","recordStatus":"Addition","latitude":51.553897,"longitude":-0.490816,"postcodeStart":"UB9 4","postcode":["UB9","4BB"]}
{"price":111750,"dateOfTransfer":"1999-12-23T00:00:00","postcodeFull":"UB9 4AA","propertyType":"Flat/Maisonette/Townhouse","oldOrNew":"Established","duration":"Leasehold","paon":"12B","saon":"","street":"DENHAM LODGE","locality":"DENHAM","townOrCity":"UXBRIDGE","district":"SOUTH BUCKS","county":"BUCKINGHAMSHIRE","ppdCategoryType":"Standard","recordStatus":"Addition","latitude":51.551188,"longitude":-0.485049,"postcodeStart":"UB9 4","postcode":["UB9","4AA"]}
{"price":144500,"dateOfTransfer":"1999-10-14T00:00:00","postcodeFull":"UB9 4EE","propertyType":"Terraced","oldOrNew":"Established","duration":"Freehold","paon":"1","saon":"","street":"DENHAM CLOSE","locality":"DENHAM","townOrCity":"UXBRIDGE","district":"SOUTH BUCKS","county":"BUCKINGHAMSHIRE","ppdCategoryType":"Standard","recordStatus":"Addition","latitude":51.566867,"longitude":-0.500255,"postcodeStart":"UB9 4","postcode":["UB9","4EE"]}
{"price":120000,"dateOfTransfer":"1999-11-19T00:00:00","postcodeFull":"UB9 4BA","propertyType":"Semi-detached","oldOrNew":"Established","duration":"Freehold","paon":"6","saon":"","street":"NINE STILES CLOSE","locality":"DENHAM","townOrCity":"UXBRIDGE","district":"SOUTH BUCKS","county":"BUCKINGHAMSHIRE","ppdCategoryType":"Standard","recordStatus":"Addition","latitude":51.55288,"longitude":-0.492205,"postcodeStart":"UB9 4","postcode":["UB9","4BA"]}
{"price":66000,"dateOfTransfer":"1999-01-06T00:00:00","postcodeFull":"UB9 4HS","propertyType":"Semi-detached","oldOrNew":"Established","duration":"Freehold","paon":"46","saon":"","street":"SKYLARK ROAD","locality":"DENHAM","townOrCity":"UXBRIDGE","district":"SOUTH BUCKS","county":"BUCKINGHAMSHIRE","ppdCategoryType":"Standard","recordStatus":"Addition","latitude":51.572798,"longitude":-0.529094,"postcodeStart":"UB9 4","postcode":["UB9","4HS"]}
{"price":187500,"dateOfTransfer":"1999-10-01T00:00:00","postcodeFull":"UB9 4BB","propertyType":"Detached","oldOrNew":"Established","duration":"Freehold","paon":"RAY COTTAGE","saon":"","street":"ORCHARD CLOSE","locality":"DENHAM","townOrCity":"UXBRIDGE","district":"SOUTH BUCKS","county":"BUCKINGHAMSHIRE","ppdCategoryType":"Standard","recordStatus":"Addition","latitude":51.553897,"longitude":-0.490816,"postcodeStart":"UB9 4","postcode":["UB9","4BB"]}
{"price":146000,"dateOfTransfer":"1999-06-25T00:00:00","postcodeFull":"UB9 4EG","propertyType":"Semi-detached","oldOrNew":"Established","duration":"Freehold","paon":"9","saon":"","street":"KNIGHTON WAY LANE","locality":"DENHAM","townOrCity":"UXBRIDGE","district":"SOUTH BUCKS","county":"BUCKINGHAMSHIRE","ppdCategoryType":"Standard","recordStatus":"Addition","latitude":51.55468,"longitude":-0.491626,"postcodeStart":"UB9 4","postcode":["UB9","4EG"]}
{"price":180000,"dateOfTransfer":"1999-05-10T00:00:00","postcodeFull":"UB9 4AF","propertyType":"Semi-detached","oldOrNew":"Established","duration":"Freehold","paon":"SHAMBA","saon":"","street":"WILLOW AVENUE","locality":"DENHAM","townOrCity":"UXBRIDGE","district":"SOUTH BUCKS","county":"BUCKINGHAMSHIRE","ppdCategoryType":"Standard","recordStatus":"Addition","latitude":51.552213,"longitude":-0.485571,"postcodeStart":"UB9 4","postcode":["UB9","4AF"]}
{"price":235000,"dateOfTransfer":"1999-09-17T00:00:00","postcodeFull":"UB9 4AU","propertyType":"Detached","oldOrNew":"Established","duration":"Freehold","paon":"44","saon":"","street":"WILLOW CRESCENT WEST","locality":"DENHAM","townOrCity":"UXBRIDGE","district":"SOUTH BUCKS","county":"BUCKINGHAMSHIRE","ppdCategoryType":"Standard","recordStatus":"Addition","latitude":51.555675,"longitude":-0.485795,"postcodeStart":"UB9 4","postcode":["UB9","4AU"]}
{"price":140000,"dateOfTransfer":"1999-11-01T00:00:00","postcodeFull":"UB9 4LA","propertyType":"Detached","oldOrNew":"Established","duration":"Freehold","paon":"8","saon":"","street":"BROKENGATE LANE","locality":"DENHAM","townOrCity":"UXBRIDGE","district":"SOUTH BUCKS","county":"BUCKINGHAMSHIRE","ppdCategoryType":"Standard","recordStatus":"Addition","latitude":51.574499,"longitude":-0.523483,"postcodeStart":"UB9 4","postcode":["UB9","4LA"]}
{"price":92500,"dateOfTransfer":"1999-02-05T00:00:00","postcodeFull":"UB9 4HS","propertyType":"Terraced","oldOrNew":"Established","duration":"Freehold","paon":"33","saon":"","street":"SKYLARK ROAD","locality":"DENHAM","townOrCity":"UXBRIDGE","district":"SOUTH BUCKS","county":"BUCKINGHAMSHIRE","ppdCategoryType":"Standard","recordStatus":"Addition","latitude":51.572798,"longitude":-0.529094,"postcodeStart":"UB9 4","postcode":["UB9","4HS"]}
{"price":163950,"dateOfTransfer":"1999-07-13T00:00:00","postcodeFull":"UB9 4EF","propertyType":"Semi-detached","oldOrNew":"Established","duration":"Freehold","paon":"1","saon":"","street":"COURTFIELD GARDENS","locality":"DENHAM","townOrCity":"UXBRIDGE","district":"SOUTH BUCKS","county":"BUCKINGHAMSHIRE","ppdCategoryType":"Standard","recordStatus":"Addition","latitude":51.565899,"longitude":-0.499046,"postcodeStart":"UB9 4","postcode":["UB9","4EF"]}
{"price":92000,"dateOfTransfer":"1999-02-05T00:00:00","postcodeFull":"UB9 4HR","propertyType":"Terraced","oldOrNew":"Established","duration":"Freehold","paon":"18","saon":"","street":"SKYLARK ROAD","locality":"DENHAM","townOrCity":"UXBRIDGE","district":"SOUTH BUCKS","county":"BUCKINGHAMSHIRE","ppdCategoryType":"Standard","recordStatus":"Addition","latitude":51.572283,"longitude":-0.527451,"postcodeStart":"UB9 4","postcode":["UB9","4HR"]}
{"price":99950,"dateOfTransfer":"1999-02-15T00:00:00","postcodeFull":"UB9 4AB","propertyType":"Flat/Maisonette/Townhouse","oldOrNew":"Established","duration":"Leasehold","paon":"49","saon":"","street":"DENHAM LODGE","locality":"DENHAM","townOrCity":"UXBRIDGE","district":"SOUTH BUCKS","county":"BUCKINGHAMSHIRE","ppdCategoryType":"Standard","recordStatus":"Addition","latitude":51.551188,"longitude":-0.485049,"postcodeStart":"UB9 4","postcode":["UB9","4AB"]}
{"price":205000,"dateOfTransfer":"1999-07-09T00:00:00","postcodeFull":"UB9 4AT","propertyType":"Detached","oldOrNew":"Established","duration":"Freehold","paon":"51","saon":"","street":"WILLOW CRESCENT WEST","locality":"DENHAM","townOrCity":"UXBRIDGE","district":"SOUTH BUCKS","county":"BUCKINGHAMSHIRE","ppdCategoryType":"Standard","recordStatus":"Addition","latitude":51.556758,"longitude":-0.485398,"postcodeStart":"UB9 4","postcode":["UB9","4AT"]}
{"price":120000,"dateOfTransfer":"1999-05-07T00:00:00","postcodeFull":"UB9 4ED","propertyType":"Semi-detached","oldOrNew":"Established","duration":"Freehold","paon":"32","saon":"","street":"OXFORD GARDENS","locality":"DENHAM","townOrCity":"UXBRIDGE","district":"SOUTH BUCKS","county":"BUCKINGHAMSHIRE","ppdCategoryType":"Standard","recordStatus":"Addition","latitude":51.566571,"longitude":-0.50103,"postcodeStart":"UB9 4","postcode":["UB9","4ED"]}
{"price":125000,"dateOfTransfer":"1999-03-26T00:00:00","postcodeFull":"UB9 4AF","propertyType":"Semi-detached","oldOrNew":"Established","duration":"Freehold","paon":"4A","saon":"","street":"WILLOW AVENUE","locality":"DENHAM","townOrCity":"UXBRIDGE","district":"SOUTH BUCKS","county":"BUCKINGHAMSHIRE","ppdCategoryType":"Standard","recordStatus":"Addition","latitude":51.552213,"longitude":-0.485571,"postcodeStart":"UB9 4","postcode":["UB9","4AF"]}
{"price":85000,"dateOfTransfer":"1999-02-08T00:00:00","postcodeFull":"UB9 4HS","propertyType":"Semi-detached","oldOrNew":"Established","duration":"Freehold","paon":"46","saon":"","street":"SKYLARK ROAD","locality":"DENHAM","townOrCity":"UXBRIDGE","district":"SOUTH BUCKS","county":"BUCKINGHAMSHIRE","ppdCategoryType":"Standard","recordStatus":"Addition","latitude":51.572798,"longitude":-0.529094,"postcodeStart":"UB9 4","postcode":["UB9","4HS"]}
{"price":98000,"dateOfTransfer":"1999-02-23T00:00:00","postcodeFull":"UB9 4AB","propertyType":"Flat/Maisonette/Townhouse","oldOrNew":"Established","duration":"Leasehold","paon":"48","saon":"","street":"DENHAM LODGE","locality":"DENHAM","townOrCity":"UXBRIDGE","district":"SOUTH BUCKS","county":"BUCKINGHAMSHIRE","ppdCategoryType":"Standard","recordStatus":"Addition","latitude":51.551188,"longitude":-0.485049,"postcodeStart":"UB9 4","postcode":["UB9","4AB"]}
{"price":104000,"dateOfTransfer":"1999-04-22T00:00:00","postcodeFull":"UB9 4AA","propertyType":"Flat/Maisonette/Townhouse","oldOrNew":"Established","duration":"Leasehold","paon":"5","saon":"","street":"DENHAM LODGE","locality":"DENHAM","townOrCity":"UXBRIDGE","district":"SOUTH BUCKS","county":"BUCKINGHAMSHIRE","ppdCategoryType":"Standard","recordStatus":"Addition","latitude":51.551188,"longitude":-0.485049,"postcodeStart":"UB9 4","postcode":["UB9","4AA"]}
{"price":68000,"dateOfTransfer":"1999-04-12T00:00:00","postcodeFull":"UB9 4BE","propertyType":"Flat/Maisonette/Townhouse","oldOrNew":"Established","duration":"Leasehold","paon":"3B","saon":"","street":"NEWTOWN ROAD","locality":"DENHAM","townOrCity":"UXBRIDGE","district":"SOUTH BUCKS","county":"BUCKINGHAMSHIRE","ppdCategoryType":"Standard","recordStatus":"Addition","latitude":51.553378,"longitude":-0.490357,"postcodeStart":"UB9 4","postcode":["UB9","4BE"]}
{"price":275000,"dateOfTransfer":"1999-02-22T00:00:00","postcodeFull":"UB9 4EQ","propertyType":"Detached","oldOrNew":"Established","duration":"Freehold","paon":"BRICKFIELD COTTAGE","saon":"","street":"KNIGHTON WAY LANE","locality":"DENHAM","townOrCity":"UXBRIDGE","district":"SOUTH BUCKS","county":"BUCKINGHAMSHIRE","ppdCategoryType":"Standard","recordStatus":"Addition","latitude":51.553747,"longitude":-0.493157,"postcodeStart":"UB9 4","postcode":["UB9","4EQ"]}
{"price":142500,"dateOfTransfer":"1999-04-01T00:00:00","postcodeFull":"UB9 4AR","propertyType":"Detached","oldOrNew":"Established","duration":"Freehold","paon":"23","saon":"","street":"WILLOW CRESCENT EAST","locality":"DENHAM","townOrCity":"UXBRIDGE","district":"SOUTH BUCKS","county":"BUCKINGHAMSHIRE","ppdCategoryType":"Standard","recordStatus":"Addition","latitude":51.556532,"longitude":-0.484612,"postcodeStart":"UB9 4","postcode":["UB9","4AR"]}
{"price":110000,"dateOfTransfer":"1999-02-03T00:00:00","postcodeFull":"UB9 4AH","propertyType":"Detached","oldOrNew":"Established","duration":"Freehold","paon":"2","saon":"","street":"HAWTHORN DRIVE","locality":"DENHAM","townOrCity":"UXBRIDGE","district":"SOUTH BUCKS","county":"BUCKINGHAMSHIRE","ppdCategoryType":"Standard","recordStatus":"Addition","latitude":51.554371,"longitude":-0.484352,"postcodeStart":"UB9 4","postcode":["UB9","4AH"]}
{"price":330000,"dateOfTransfer":"1999-11-02T00:00:00","postcodeFull":"UB9 4LB","propertyType":"Detached","oldOrNew":"Established","duration":"Freehold","paon":"WALETTA HOUSE","saon":"","street":"BROKENGATE LANE","locality":"DENHAM","townOrCity":"UXBRIDGE","district":"SOUTH BUCKS","county":"BUCKINGHAMSHIRE","ppdCategoryType":"Standard","recordStatus":"Addition","latitude":51.574186,"longitude":-0.522916,"postcodeStart":"UB9 4","postcode":["UB9","4LB"]}
{"price":395000,"dateOfTransfer":"1999-04-29T00:00:00","postcodeFull":"UB9 4LQ","propertyType":"Detached","oldOrNew":"Established","duration":"Freehold","paon":"THE COTTAGE","saon":"","street":"BAKERS WOOD","locality":"DENHAM","townOrCity":"UXBRIDGE","district":"SOUTH BUCKS","county":"BUCKINGHAMSHIRE","ppdCategoryType":"Standard","recordStatus":"Addition","latitude":51.572815,"longitude":-0.516871,"postcodeStart":"UB9 4","postcode":["UB9","4LQ"]}
{"price":78000,"dateOfTransfer":"1999-01-22T00:00:00","postcodeFull":"UB9 4BE","propertyType":"Flat/Maisonette/Townhouse","oldOrNew":"Established","duration":"Leasehold","paon":"9B","saon":"","street":"NEWTOWN ROAD","locality":"DENHAM","townOrCity":"UXBRIDGE","district":"SOUTH BUCKS","county":"BUCKINGHAMSHIRE","ppdCategoryType":"Standard","recordStatus":"Addition","latitude":51.553378,"longitude":-0.490357,"postcodeStart":"UB9 4","postcode":["UB9","4BE"]}
{"price":149950,"dateOfTransfer":"1999-01-08T00:00:00","postcodeFull":"UB9 4EG","propertyType":"Semi-detached","oldOrNew":"Established","duration":"Freehold","paon":"7","saon":"","street":"KNIGHTON WAY LANE","locality":"DENHAM","townOrCity":"UXBRIDGE","district":"SOUTH BUCKS","county":"BUCKINGHAMSHIRE","ppdCategoryType":"Standard","recordStatus":"Addition","latitude":51.55468,"longitude":-0.491626,"postcodeStart":"UB9 4","postcode":["UB9","4EG"]}
{"price":88500,"dateOfTransfer":"1999-11-26T00:00:00","postcodeFull":"UB9 4BB","propertyType":"Flat/Maisonette/Townhouse","oldOrNew":"Established","duration":"Leasehold","paon":"32","saon":"","street":"ORCHARD CLOSE","locality":"DENHAM","townOrCity":"UXBRIDGE","district":"SOUTH BUCKS","county":"BUCKINGHAMSHIRE","ppdCategoryType":"Standard","recordStatus":"Addition","latitude":51.553897,"longitude":-0.490816,"postcodeStart":"UB9 4","postcode":["UB9","4BB"]}
{"price":105000,"dateOfTransfer":"1999-01-15T00:00:00","postcodeFull":"UB9 4HS","propertyType":"Semi-detached","oldOrNew":"Established","duration":"Freehold","paon":"50","saon":"","street":"SKYLARK ROAD","locality":"DENHAM","townOrCity":"UXBRIDGE","district":"SOUTH BUCKS","county":"BUCKINGHAMSHIRE","ppdCategoryType":"Standard","recordStatus":"Addition","latitude":51.572798,"longitude":-0.529094,"postcodeStart":"UB9 4","postcode":["UB9","4HS"]}
{"price":114500,"dateOfTransfer":"1999-11-12T00:00:00","postcodeFull":"UB9 4AA","propertyType":"Flat/Maisonette/Townhouse","oldOrNew":"Established","duration":"Leasehold","paon":"8","saon":"","street":"DENHAM LODGE","locality":"DENHAM","townOrCity":"UXBRIDGE","district":"SOUTH BUCKS","county":"BUCKINGHAMSHIRE","ppdCategoryType":"Standard","recordStatus":"Addition","latitude":51.551188,"longitude":-0.485049,"postcodeStart":"UB9 4","postcode":["UB9","4AA"]}
{"price":165000,"dateOfTransfer":"1999-01-25T00:00:00","postcodeFull":"UB9 4DY","propertyType":"Detached","oldOrNew":"Established","duration":"Freehold","paon":"3","saon":"","street":"OAKSIDE","locality":"DENHAM","townOrCity":"UXBRIDGE","district":"SOUTH BUCKS","county":"BUCKINGHAMSHIRE","ppdCategoryType":"Standard","recordStatus":"Addition","latitude":51.554169,"longitude":-0.487532,"postcodeStart":"UB9 4","postcode":["UB9","4DY"]}
{"price":279950,"dateOfTransfer":"1999-11-30T00:00:00","postcodeFull":"UB9 4AP","propertyType":"Detached","oldOrNew":"Established","duration":"Freehold","paon":"19","saon":"","street":"WILLOW CRESCENT EAST","locality":"DENHAM","townOrCity":"UXBRIDGE","district":"SOUTH BUCKS","county":"BUCKINGHAMSHIRE","ppdCategoryType":"Standard","recordStatus":"Addition","latitude":51.555459,"longitude":-0.485037,"postcodeStart":"UB9 4","postcode":["UB9","4AP"]}
{"price":163000,"dateOfTransfer":"1999-04-07T00:00:00","postcodeFull":"UB9 4BE","propertyType":"Semi-detached","oldOrNew":"Established","duration":"Freehold","paon":"44A","saon":"","street":"NEWTOWN ROAD","locality":"DENHAM","townOrCity":"UXBRIDGE","district":"SOUTH BUCKS","county":"BUCKINGHAMSHIRE","ppdCategoryType":"Standard","recordStatus":"Addition","latitude":51.553378,"longitude":-0.490357,"postcodeStart":"UB9 4","postcode":["UB9","4BE"]}
{"price":272500,"dateOfTransfer":"1999-03-19T00:00:00","postcodeFull":"UB9 4LA","propertyType":"Detached","oldOrNew":"Established","duration":"Freehold","paon":"LANGHAM","saon":"","street":"BROKENGATE LANE","locality":"DENHAM","townOrCity":"UXBRIDGE","district":"SOUTH BUCKS","county":"BUCKINGHAMSHIRE","ppdCategoryType":"Standard","recordStatus":"Addition","latitude":51.574499,"longitude":-0.523483,"postcodeStart":"UB9 4","postcode":["UB9","4LA"]}
{"price":123000,"dateOfTransfer":"1999-08-27T00:00:00","postcodeFull":"UB9 4BB","propertyType":"Detached","oldOrNew":"Established","duration":"Freehold","paon":"HAWKSWICH","saon":"","street":"ORCHARD CLOSE","locality":"DENHAM","townOrCity":"UXBRIDGE","district":"SOUTH BUCKS","county":"BUCKINGHAMSHIRE","ppdCategoryType":"Standard","recordStatus":"Addition","latitude":51.553897,"longitude":-0.490816,"postcodeStart":"UB9 4","postcode":["UB9","4BB"]}
{"price":190000,"dateOfTransfer":"1999-11-04T00:00:00","postcodeFull":"UB9 4AG","propertyType":"Detached","oldOrNew":"Established","duration":"Freehold","paon":"9","saon":"","street":"WILLOW AVENUE","locality":"DENHAM","townOrCity":"UXBRIDGE","district":"SOUTH BUCKS","county":"BUCKINGHAMSHIRE","ppdCategoryType":"Standard","recordStatus":"Addition","latitude":51.553546,"longitude":-0.485952,"postcodeStart":"UB9 4","postcode":["UB9","4AG"]}
{"price":133000,"dateOfTransfer":"1999-09-03T00:00:00","postcodeFull":"UB9 4HR","propertyType":"Semi-detached","oldOrNew":"Established","duration":"Freehold","paon":"8","saon":"","street":"SKYLARK ROAD","locality":"DENHAM","townOrCity":"UXBRIDGE","district":"SOUTH BUCKS","county":"BUCKINGHAMSHIRE","ppdCategoryType":"Standard","recordStatus":"Addition","latitude":51.572283,"longitude":-0.527451,"postcodeStart":"UB9 4","postcode":["UB9","4HR"]}
{"price":179500,"dateOfTransfer":"1999-04-30T00:00:00","postcodeFull":"UB9 4EG","propertyType":"Detached","oldOrNew":"Established","duration":"Freehold","paon":"31","saon":"","street":"KNIGHTON WAY LANE","locality":"DENHAM","townOrCity":"UXBRIDGE","district":"SOUTH BUCKS","county":"BUCKINGHAMSHIRE","ppdCategoryType":"Standard","recordStatus":"Addition","latitude":51.55468,"longitude":-0.491626,"postcodeStart":"UB9 4","postcode":["UB9","4EG"]}
{"price":200000,"dateOfTransfer":"1999-07-30T00:00:00","postcodeFull":"UB9 4AZ","propertyType":"Detached","oldOrNew":"Established","duration":"Freehold","paon":"3","saon":"","street":"ALDER ROAD","locality":"DENHAM","townOrCity":"UXBRIDGE","district":"SOUTH BUCKS","county":"BUCKINGHAMSHIRE","ppdCategoryType":"Standard","recordStatus":"Addition","latitude":51.553057,"longitude":-0.486372,"postcodeStart":"UB9 4","postcode":["UB9","4AZ"]}
{"price":109000,"dateOfTransfer":"1999-05-28T00:00:00","postcodeFull":"UB9 4BA","propertyType":"Semi-detached","oldOrNew":"Established","duration":"Freehold","paon":"7","saon":"","street":"NINE STILES CLOSE","locality":"DENHAM","townOrCity":"UXBRIDGE","district":"SOUTH BUCKS","county":"BUCKINGHAMSHIRE","ppdCategoryType":"Standard","recordStatus":"Addition","latitude":51.55288,"longitude":-0.492205,"postcodeStart":"UB9 4","postcode":["UB9","4BA"]}
{"price":192500,"dateOfTransfer":"1999-12-15T00:00:00","postcodeFull":"UB9 4EJ","propertyType":"Semi-detached","oldOrNew":"Established","duration":"Freehold","paon":"4","saon":"","street":"ASH GREEN","locality":"DENHAM","townOrCity":"UXBRIDGE","district":"SOUTH BUCKS","county":"BUCKINGHAMSHIRE","ppdCategoryType":"Standard","recordStatus":"Addition","latitude":51.553704,"longitude":-0.491947,"postcodeStart":"UB9 4","postcode":["UB9","4EJ"]}
{"price":170000,"dateOfTransfer":"1999-11-30T00:00:00","postcodeFull":"UB9 4AU","propertyType":"Detached","oldOrNew":"Established","duration":"Freehold","paon":"79","saon":"","street":"WILLOW CRESCENT WEST","locality":"DENHAM","townOrCity":"UXBRIDGE","district":"SOUTH BUCKS","county":"BUCKINGHAMSHIRE","ppdCategoryType":"Standard","recordStatus":"Addition","latitude":51.555675,"longitude":-0.485795,"postcodeStart":"UB9 4","postcode":["UB9","4AU"]}
{"price":194950,"dateOfTransfer":"2000-08-30T00:00:00","postcodeFull":"UB9 4DY","propertyType":"Detached","oldOrNew":"Established","duration":"Freehold","paon":"3","saon":"","street":"OAKSIDE","locality":"DENHAM","townOrCity":"UXBRIDGE","district":"SOUTH BUCKS","county":"BUCKINGHAMSHIRE","ppdCategoryType":"Standard","recordStatus":"Addition","latitude":51.554169,"longitude":-0.487532,"postcodeStart":"UB9 4","postcode":["UB9","4DY"]}
{"price":138000,"dateOfTransfer":"2000-03-31T00:00:00","postcodeFull":"UB9 4AY","propertyType":"Semi-detached","oldOrNew":"Established","duration":"Freehold","paon":"18","saon":"","street":"THE ALDERS","locality":"DENHAM","townOrCity":"UXBRIDGE","district":"SOUTH BUCKS","county":"BUCKINGHAMSHIRE","ppdCategoryType":"Standard","recordStatus":"Addition","latitude":51.552557,"longitude":-0.486619,"postcodeStart":"UB9 4","postcode":["UB9","4AY"]}
{"price":190000,"dateOfTransfer":"2000-02-23T00:00:00","postcodeFull":"UB9 4BD","propertyType":"Detached","oldOrNew":"Established","duration":"Freehold","paon":"77","saon":"","street":"NEWTOWN ROAD","locality":"DENHAM","townOrCity":"UXBRIDGE","district":"SOUTH BUCKS","county":"BUCKINGHAMSHIRE","ppdCategoryType":"Standard","recordStatus":"Addition","latitude":51.552002,"longitude":-0.491758,"postcodeStart":"UB9 4","postcode":["UB9","4BD"]}
{"price":249500,"dateOfTransfer":"2000-07-03T00:00:00","postcodeFull":"UB9 4EG","propertyType":"Detached","oldOrNew":"Established","duration":"Freehold","paon":"19","saon":"","street":"KNIGHTON WAY LANE","locality":"DENHAM","townOrCity":"UXBRIDGE","district":"SOUTH BUCKS","county":"BUCKINGHAMSHIRE","ppdCategoryType":"Standard","recordStatus":"Addition","latitude":51.55468,"longitude":-0.491626,"postcodeStart":"UB9 4","postcode":["UB9","4EG"]}
{"price":40000,"dateOfTransfer":"2000-11-29T00:00:00","postcodeFull":"UB9 4BB","propertyType":"Terraced","oldOrNew":"Established","duration":"Freehold","paon":"15","saon":"","street":"ORCHARD CLOSE","locality":"DENHAM","townOrCity":"UXBRIDGE","district":"SOUTH BUCKS","county":"BUCKINGHAMSHIRE","ppdCategoryType":"Standard","recordStatus":"Addition","latitude":51.553897,"longitude":-0.490816,"postcodeStart":"UB9 4","postcode":["UB9","4BB"]}
{"price":150500,"dateOfTransfer":"2000-08-11T00:00:00","postcodeFull":"UB9 4EB","propertyType":"Semi-detached","oldOrNew":"Established","duration":"Freehold","paon":"27","saon":"","street":"OXFORD GARDENS","locality":"DENHAM","townOrCity":"UXBRIDGE","district":"SOUTH BUCKS","county":"BUCKINGHAMSHIRE","ppdCategoryType":"Standard","recordStatus":"Addition","latitude":51.565959,"longitude":-0.500228,"postcodeStart":"UB9 4","postcode":["UB9","4EB"]}
{"price":245000,"dateOfTransfer":"2000-06-30T00:00:00","postcodeFull":"UB9 4DW","propertyType":"Semi-detached","oldOrNew":"Established","duration":"Freehold","paon":"4","saon":"","street":"MOAT PLACE","locality":"DENHAM","townOrCity":"UXBRIDGE","district":"SOUTH BUCKS","county":"BUCKINGHAMSHIRE","ppdCategoryType":"Standard","recordStatus":"Addition","latitude":51.558247,"longitude":-0.49192,"postcodeStart":"UB9 4","postcode":["UB9","4DW"]}
{"price":50000,"dateOfTransfer":"2000-10-13T00:00:00","postcodeFull":"UB9 4HS","propertyType":"Semi-detached","oldOrNew":"Established","duration":"Freehold","paon":"43","saon":"","street":"SKYLARK ROAD","locality":"DENHAM","townOrCity":"UXBRIDGE","district":"SOUTH BUCKS","county":"BUCKINGHAMSHIRE","ppdCategoryType":"Standard","recordStatus":"Addition","latitude":51.572798,"longitude":-0.529094,"postcodeStart":"UB9 4","postcode":["UB9","4HS"]}
{"price":150000,"dateOfTransfer":"2000-08-11T00:00:00","postcodeFull":"UB9 4DZ","propertyType":"Terraced","oldOrNew":"Established","duration":"Freehold","paon":"4A","saon":"","street":"DENHAM PARADE","locality":"DENHAM","townOrCity":"UXBRIDGE","district":"SOUTH BUCKS","county":"BUCKINGHAMSHIRE","ppdCategoryType":"Standard","recordStatus":"Addition","latitude":51.566827,"longitude":-0.501353,"postcodeStart":"UB9 4","postcode":["UB9","4DZ"]}
{"price":289950,"dateOfTransfer":"2000-08-18T00:00:00","postcodeFull":"UB9 4AF","propertyType":"Detached","oldOrNew":"Established","duration":"Freehold","paon":"TUDOR COTTAGE","saon":"","street":"WILLOW AVENUE","locality":"DENHAM","townOrCity":"UXBRIDGE","district":"SOUTH BUCKS","county":"BUCKINGHAMSHIRE","ppdCategoryType":"Standard","recordStatus":"Addition","latitude":51.552213,"longitude":-0.485571,"postcodeStart":"UB9 4","postcode":["UB9","4AF"]}
{"price":160000,"dateOfTransfer":"2000-02-11T00:00:00","postcodeFull":"UB9 4AX","propertyType":"Detached","oldOrNew":"Established","duration":"Freehold","paon":"1","saon":"","street":"RIVER WALK","locality":"DENHAM","townOrCity":"UXBRIDGE","district":"SOUTH BUCKS","county":"BUCKINGHAMSHIRE","ppdCategoryType":"Standard","recordStatus":"Addition","latitude":51.557464,"longitude":-0.485764,"postcodeStart":"UB9 4","postcode":["UB9","4AX"]}
{"price":138000,"dateOfTransfer":"2000-09-15T00:00:00","postcodeFull":"UB9 4EE","propertyType":"Terraced","oldOrNew":"Established","duration":"Freehold","paon":"25","saon":"","street":"DENHAM CLOSE","locality":"DENHAM","townOrCity":"UXBRIDGE","district":"SOUTH BUCKS","county":"BUCKINGHAMSHIRE","ppdCategoryType":"Standard","recordStatus":"Addition","latitude":51.566867,"longitude":-0.500255,"postcodeStart":"UB9 4","postcode":["UB9","4EE"]}
{"price":125000,"dateOfTransfer":"2000-12-21T00:00:00","postcodeFull":"UB9 4HS","propertyType":"Semi-detached","oldOrNew":"Established","duration":"Freehold","paon":"44","saon":"","street":"SKYLARK ROAD","locality":"DENHAM","townOrCity":"UXBRIDGE","district":"SOUTH BUCKS","county":"BUCKINGHAMSHIRE","ppdCategoryType":"Standard","recordStatus":"Addition","latitude":51.572798,"longitude":-0.529094,"postcodeStart":"UB9 4","postcode":["UB9","4HS"]}
{"price":167000,"dateOfTransfer":"2000-10-13T00:00:00","postcodeFull":"UB9 4BD","propertyType":"Semi-detached","oldOrNew":"Established","duration":"Freehold","paon":"88","saon":"","street":"NEWTOWN ROAD","locality":"DENHAM","townOrCity":"UXBRIDGE","district":"SOUTH BUCKS","county":"BUCKINGHAMSHIRE","ppdCategoryType":"Standard","recordStatus":"Addition","latitude":51.552002,"longitude":-0.491758,"postcodeStart":"UB9 4","postcode":["UB9","4BD"]}
{"price":190000,"dateOfTransfer":"2000-03-27T00:00:00","postcodeFull":"UB9 4AJ","propertyType":"Detached","oldOrNew":"Established","duration":"Freehold","paon":"16","saon":"","street":"HAWTHORN DRIVE","locality":"DENHAM","townOrCity":"UXBRIDGE","district":"SOUTH BUCKS","county":"BUCKINGHAMSHIRE","ppdCategoryType":"Standard","recordStatus":"Addition","latitude":51.553262,"longitude":-0.484836,"postcodeStart":"UB9 4","postcode":["UB9","4AJ"]}
{"price":435000,"dateOfTransfer":"2000-08-29T00:00:00","postcodeFull":"UB9 4AH","propertyType":"Detached","oldOrNew":"Established","duration":"Freehold","paon":"2","saon":"","street":"HAWTHORN DRIVE","locality":"DENHAM","townOrCity":"UXBRIDGE","district":"SOUTH BUCKS","county":"BUCKINGHAMSHIRE","ppdCategoryType":"Standard","recordStatus":"Addition","latitude":51.554371,"longitude":-0.484352,"postcodeStart":"UB9 4","postcode":["UB9","4AH"]}
{"price":163800,"dateOfTransfer":"2000-08-31T00:00:00","postcodeFull":"UB9 4EF","propertyType":"Detached","oldOrNew":"Established","duration":"Freehold","paon":"7","saon":"","street":"COURTFIELD GARDENS","locality":"DENHAM","townOrCity":"UXBRIDGE","district":"SOUTH BUCKS","county":"BUCKINGHAMSHIRE","ppdCategoryType":"Standard","recordStatus":"Addition","latitude":51.565899,"longitude":-0.499046,"postcodeStart":"UB9 4","postcode":["UB9","4EF"]}
{"price":150000,"dateOfTransfer":"2000-04-17T00:00:00","postcodeFull":"UB9 4EG","propertyType":"Detached","oldOrNew":"Established","duration":"Freehold","paon":"17","saon":"","street":"KNIGHTON WAY LANE","locality":"DENHAM","townOrCity":"UXBRIDGE","district":"SOUTH BUCKS","county":"BUCKINGHAMSHIRE","ppdCategoryType":"Standard","recordStatus":"Addition","latitude":51.55468,"longitude":-0.491626,"postcodeStart":"UB9 4","postcode":["UB9","4EG"]}
{"price":192000,"dateOfTransfer":"2000-08-17T00:00:00","postcodeFull":"UB9 4EH","propertyType":"Semi-detached","oldOrNew":"Established","duration":"Freehold","paon":"93","saon":"","street":"KNIGHTON WAY LANE","locality":"DENHAM","townOrCity":"UXBRIDGE","district":"SOUTH BUCKS","county":"BUCKINGHAMSHIRE","ppdCategoryType":"Standard","recordStatus":"Addition","latitude":51.552605,"longitude":-0.493195,"postcodeStart":"UB9 4","postcode":["UB9","4EH"]}
{"price":127700,"dateOfTransfer":"2000-02-01T00:00:00","postcodeFull":"UB9 4HS","propertyType":"Semi-detached","oldOrNew":"Established","duration":"Freehold","paon":"25","saon":"","street":"SKYLARK ROAD","locality":"DENHAM","townOrCity":"UXBRIDGE","district":"SOUTH BUCKS","county":"BUCKINGHAMSHIRE","ppdCategoryType":"Standard","recordStatus":"Addition","latitude":51.572798,"longitude":-0.529094,"postcodeStart":"UB9 4","postcode":["UB9","4HS"]}
{"price":190000,"dateOfTransfer":"2000-05-24T00:00:00","postcodeFull":"UB9 4AJ","propertyType":"Detached","oldOrNew":"Established","duration":"Freehold","paon":"29","saon":"","street":"HAWTHORN DRIVE","locality":"DENHAM","townOrCity":"UXBRIDGE","district":"SOUTH BUCKS","county":"BUCKINGHAMSHIRE","ppdCategoryType":"Standard","recordStatus":"Addition","latitude":51.553262,"longitude":-0.484836,"postcodeStart":"UB9 4","postcode":["UB9","4AJ"]}
{"price":150500,"dateOfTransfer":"2000-10-06T00:00:00","postcodeFull":"UB9 4DB","propertyType":"Semi-detached","oldOrNew":"Established","duration":"Freehold","paon":"89","saon":"","street":"OXFORD ROAD","locality":"DENHAM","townOrCity":"UXBRIDGE","district":"SOUTH BUCKS","county":"BUCKINGHAMSHIRE","ppdCategoryType":"Standard","recordStatus":"Addition","latitude":51.554649,"longitude":-0.489925,"postcodeStart":"UB9 4","postcode":["UB9","4DB"]}
{"price":150000,"dateOfTransfer":"2000-12-20T00:00:00","postcodeFull":"UB9 4EH","propertyType":"Semi-detached","oldOrNew":"Established","duration":"Freehold","paon":"73","saon":"","street":"KNIGHTON WAY LANE","locality":"DENHAM","townOrCity":"UXBRIDGE","district":"SOUTH BUCKS","county":"BUCKINGHAMSHIRE","ppdCategoryType":"Standard","recordStatus":"Addition","latitude":51.552605,"longitude":-0.493195,"postcodeStart":"UB9 4","postcode":["UB9","4EH"]}
{"price":485000,"dateOfTransfer":"2000-03-06T00:00:00","postcodeFull":"UB9 4AD","propertyType":"Detached","oldOrNew":"Established","duration":"Freehold","paon":"1","saon":"","street":"MISBOURNE MEADOWS","locality":"DENHAM","townOrCity":"UXBRIDGE","district":"SOUTH BUCKS","county":"BUCKINGHAMSHIRE","ppdCategoryType":"Standard","recordStatus":"Addition","latitude":51.576988,"longitude":-0.522594,"postcodeStart":"UB9 4","postcode":["UB9","4AD"]}
{"price":240000,"dateOfTransfer":"2000-06-08T00:00:00","postcodeFull":"UB9 4AR","propertyType":"Detached","oldOrNew":"Established","duration":"Freehold","paon":"39","saon":"","street":"WILLOW CRESCENT EAST","locality":"DENHAM","townOrCity":"UXBRIDGE","district":"SOUTH BUCKS","county":"BUCKINGHAMSHIRE","ppdCategoryType":"Standard","recordStatus":"Addition","latitude":51.556532,"longitude":-0.484612,"postcodeStart":"UB9 4","postcode":["UB9","4AR"]}
{"price":124500,"dateOfTransfer":"2000-07-14T00:00:00","postcodeFull":"UB9 4AB","propertyType":"Flat/Maisonette/Townhouse","oldOrNew":"Established","duration":"Leasehold","paon":"42","saon":"","street":"DENHAM LODGE","locality":"DENHAM","townOrCity":"UXBRIDGE","district":"SOUTH BUCKS","county":"BUCKINGHAMSHIRE","ppdCategoryType":"Standard","recordStatus":"Addition","latitude":51.551188,"longitude":-0.485049,"postcodeStart":"UB9 4","postcode":["UB9","4AB"]}
{"price":215000,"dateOfTransfer":"2000-06-26T00:00:00","postcodeFull":"UB9 4AT","propertyType":"Detached","oldOrNew":"Established","duration":"Freehold","paon":"55","saon":"","street":"WILLOW CRESCENT WEST","locality":"DENHAM","townOrCity":"UXBRIDGE","district":"SOUTH BUCKS","county":"BUCKINGHAMSHIRE","ppdCategoryType":"Standard","recordStatus":"Addition","latitude":51.556758,"longitude":-0.485398,"postcodeStart":"UB9 4","postcode":["UB9","4AT"]}
{"price":192000,"dateOfTransfer":"2000-03-31T00:00:00","postcodeFull":"UB9 4DW","propertyType":"Semi-detached","oldOrNew":"Established","duration":"Freehold","paon":"86","saon":"","street":"OXFORD ROAD","locality":"DENHAM","townOrCity":"UXBRIDGE","district":"SOUTH BUCKS","county":"BUCKINGHAMSHIRE","ppdCategoryType":"Standard","recordStatus":"Addition","latitude":51.558247,"longitude":-0.49192,"postcodeStart":"UB9 4","postcode":["UB9","4DW"]}
{"price":125000,"dateOfTransfer":"2000-12-20T00:00:00","postcodeFull":"UB9 4AB","propertyType":"Flat/Maisonette/Townhouse","oldOrNew":"Established","duration":"Leasehold","paon":"51","saon":"","street":"DENHAM LODGE","locality":"DENHAM","townOrCity":"UXBRIDGE","district":"SOUTH BUCKS","county":"BUCKINGHAMSHIRE","ppdCategoryType":"Standard","recordStatus":"Addition","latitude":51.551188,"longitude":-0.485049,"postcodeStart":"UB9 4","postcode":["UB9","4AB"]}
