{"price":31000,"dateOfTransfer":"1995-02-28T00:00:00","postcodeFull":"WA8 6HP","propertyType":"Terraced","oldOrNew":"Established","duration":"Freehold","paon":"50","saon":"","street":"ALLERTON ROAD","locality":"WIDNES","townOrCity":"WIDNES","district":"HALTON","county":"HALTON","ppdCategoryType":"Standard","recordStatus":"Addition","latitude":53.37282,"longitude":-2.723804,"postcodeStart":"WA8 6","postcode":["WA8","6HP"]}
{"price":28500,"dateOfTransfer":"1995-02-24T00:00:00","postcodeFull":"WA8 6RJ","propertyType":"Terraced","oldOrNew":"Established","duration":"Freehold","paon":"10","saon":"","street":"REAY STREET","locality":"WIDNES","townOrCity":"WIDNES","district":"HALTON","county":"HALTON","ppdCategoryType":"Standard","recordStatus":"Addition","latitude":53.374495,"longitude":-2.721698,"postcodeStart":"WA8 6","postcode":["WA8","6RJ"]}
{"price":40000,"dateOfTransfer":"1995-07-07T00:00:00","postcodeFull":"WA8 6HA","propertyType":"Semi-detached","oldOrNew":"Established","duration":"Freehold","paon":"120","saon":"","street":"GREENWAY ROAD","locality":"WIDNES","townOrCity":"WIDNES","district":"HALTON","county":"HALTON","ppdCategoryType":"Standard","recordStatus":"Addition","latitude":53.372969,"longitude":-2.727084,"postcodeStart":"WA8 6","postcode":["WA8","6HA"]}
{"price":33000,"dateOfTransfer":"1995-06-29T00:00:00","postcodeFull":"WA8 6ES","propertyType":"Terraced","oldOrNew":"Established","duration":"Freehold","paon":"52","saon":"","street":"COOPER STREET","locality":"WIDNES","townOrCity":"WIDNES","district":"HALTON","county":"HALTON","ppdCategoryType":"Standard","recordStatus":"Addition","latitude":53.371154,"longitude":-2.72567,"postcodeStart":"WA8 6","postcode":["WA8","6ES"]}
{"price":37000,"dateOfTransfer":"1995-12-01T00:00:00","postcodeFull":"WA8 6HG","propertyType":"Terraced","oldOrNew":"Established","duration":"Freehold","paon":"69","saon":"","street":"PARK ROAD","locality":"WIDNES","townOrCity":"WIDNES","district":"HALTON","county":"HALTON","ppdCategoryType":"Standard","recordStatus":"Addition","latitude":53.371821,"longitude":-2.725381,"postcodeStart":"WA8 6","postcode":["WA8","6HG"]}
{"price":20000,"dateOfTransfer":"1995-10-09T00:00:00","postcodeFull":"WA8 6RJ","propertyType":"Terraced","oldOrNew":"Established","duration":"Freehold","paon":"7","saon":"","street":"REAY STREET","locality":"WIDNES","townOrCity":"WIDNES","district":"HALTON","county":"HALTON","ppdCategoryType":"Standard","recordStatus":"Addition","latitude":53.374495,"longitude":-2.721698,"postcodeStart":"WA8 6","postcode":["WA8","6RJ"]}
{"price":17000,"dateOfTransfer":"1995-06-27T00:00:00","postcodeFull":"WA8 6NS","propertyType":"Terraced","oldOrNew":"Established","duration":"Leasehold","paon":"26","saon":"","street":"PRINCES STREET","locality":"WIDNES","townOrCity":"WIDNES","district":"HALTON","county":"HALTON","ppdCategoryType":"Standard","recordStatus":"Addition","latitude":53.366396,"longitude":-2.730669,"postcodeStart":"WA8 6","postcode":["WA8","6NS"]}
{"price":18870,"dateOfTransfer":"1995-09-11T00:00:00","postcodeFull":"WA8 6NS","propertyType":"Terraced","oldOrNew":"Established","duration":"Freehold","paon":"19","saon":"","street":"PRINCES STREET","locality":"WIDNES","townOrCity":"WIDNES","district":"HALTON","county":"HALTON","ppdCategoryType":"Standard","recordStatus":"Addition","latitude":53.366396,"longitude":-2.730669,"postcodeStart":"WA8 6","postcode":["WA8","6NS"]}
{"price":20000,"dateOfTransfer":"1995-12-03T00:00:00","postcodeFull":"WA8 6TG","propertyType":"Terraced","oldOrNew":"Established","duration":"Freehold","paon":"122A","saon":"","street":"PEEL HOUSE LANE","locality":"WIDNES","townOrCity":"WIDNES","district":"HALTON","county":"HALTON","ppdCategoryType":"Standard","recordStatus":"Addition","latitude":53.377077,"longitude":-2.724117,"postcodeStart":"WA8 6","postcode":["WA8","6TG"]}
{"price":23000,"dateOfTransfer":"1995-05-12T00:00:00","postcodeFull":"WA8 6EU","propertyType":"Terraced","oldOrNew":"Established","duration":"Freehold","paon":"38","saon":"","street":"FOSTER STREET","locality":"WIDNES","townOrCity":"WIDNES","district":"HALTON","county":"HALTON","ppdCategoryType":"Standard","recordStatus":"Addition","latitude":53.371507,"longitude":-2.72527,"postcodeStart":"WA8 6","postcode":["WA8","6EU"]}
{"price":18000,"dateOfTransfer":"1995-02-03T00:00:00","postcodeFull":"WA8 6ER","propertyType":"Terraced","oldOrNew":"Established","duration":"Freehold","paon":"85","saon":"","street":"COOPER STREET","locality":"WIDNES","townOrCity":"WIDNES","district":"HALTON","county":"HALTON","ppdCategoryType":"Standard","recordStatus":"Addition","latitude":53.371362,"longitude":-2.726921,"postcodeStart":"WA8 6","postcode":["WA8","6ER"]}
{"price":53000,"dateOfTransfer":"1995-04-28T00:00:00","postcodeFull":"WA8 6HB","propertyType":"Semi-detached","oldOrNew":"Established","duration":"Freehold","paon":"3","saon":"","street":"ELM GROVE","locality":"WIDNES","townOrCity":"WIDNES","district":"HALTON","county":"HALTON","ppdCategoryType":"Standard","recordStatus":"Addition","latitude":53.372531,"longitude":-2.726926,"postcodeStart":"WA8 6","postcode":["WA8","6HB"]}
{"price":27500,"dateOfTransfer":"1995-05-31T00:00:00","postcodeFull":"WA8 6DE","propertyType":"Semi-detached","oldOrNew":"Established","duration":"Leasehold","paon":"1","saon":"","street":"OXFORD STREET","locality":"WIDNES","townOrCity":"WIDNES","district":"HALTON","county":"HALTON","ppdCategoryType":"Standard","recordStatus":"Addition","latitude":53.363534,"longitude":-2.72829,"postcodeStart":"WA8 6","postcode":["WA8","6DE"]}
{"price":41250,"dateOfTransfer":"1995-02-28T00:00:00","postcodeFull":"WA8 6RA","propertyType":"Semi-detached","oldOrNew":"Established","duration":"Freehold","paon":"32","saon":"","street":"FAIRHAVEN ROAD","locality":"WIDNES","townOrCity":"WIDNES","district":"HALTON","county":"HALTON","ppdCategoryType":"Standard","recordStatus":"Addition","latitude":53.37621,"longitude":-2.721983,"postcodeStart":"WA8 6","postcode":["WA8","6RA"]}
{"price":53000,"dateOfTransfer":"1995-08-31T00:00:00","postcodeFull":"WA8 6TB","propertyType":"Terraced","oldOrNew":"Established","duration":"Freehold","paon":"135","saon":"","street":"PEEL HOUSE LANE","locality":"WIDNES","townOrCity":"WIDNES","district":"HALTON","county":"HALTON","ppdCategoryType":"Standard","recordStatus":"Addition","latitude":53.37896,"longitude":-2.725066,"postcodeStart":"WA8 6","postcode":["WA8","6TB"]}
{"price":32000,"dateOfTransfer":"1995-03-31T00:00:00","postcodeFull":"WA8 6HE","propertyType":"Terraced","oldOrNew":"Established","duration":"Freehold","paon":"18","saon":"","street":"GREENWAY ROAD","locality":"WIDNES","townOrCity":"WIDNES","district":"HALTON","county":"HALTON","ppdCategoryType":"Standard","recordStatus":"Addition","latitude":53.371833,"longitude":-2.723367,"postcodeStart":"WA8 6","postcode":["WA8","6HE"]}
{"price":66950,"dateOfTransfer":"1995-01-20T00:00:00","postcodeFull":"WA8 6HA","propertyType":"Detached","oldOrNew":"Established","duration":"Freehold","paon":"183","saon":"","street":"GREENWAY ROAD","locality":"WIDNES","townOrCity":"WIDNES","district":"HALTON","county":"HALTON","ppdCategoryType":"Standard","recordStatus":"Addition","latitude":53.372969,"longitude":-2.727084,"postcodeStart":"WA8 6","postcode":["WA8","6HA"]}
{"price":40000,"dateOfTransfer":"1995-03-31T00:00:00","postcodeFull":"WA8 6LA","propertyType":"Terraced","oldOrNew":"Established","duration":"Freehold","paon":"21","saon":"","street":"CHESTER STREET","locality":"WIDNES","townOrCity":"WIDNES","district":"HALTON","county":"HALTON","ppdCategoryType":"Standard","recordStatus":"Addition","latitude":53.37077,"longitude":-2.726776,"postcodeStart":"WA8 6","postcode":["WA8","6LA"]}
{"price":36000,"dateOfTransfer":"1995-10-12T00:00:00","postcodeFull":"WA8 6RU","propertyType":"Terraced","oldOrNew":"Established","duration":"Freehold","paon":"2","saon":"","street":"ELAINE CLOSE","locality":"WIDNES","townOrCity":"WIDNES","district":"HALTON","county":"HALTON","ppdCategoryType":"Standard","recordStatus":"Addition","latitude":53.373252,"longitude":-2.719197,"postcodeStart":"WA8 6","postcode":["WA8","6RU"]}
{"price":30000,"dateOfTransfer":"1995-06-30T00:00:00","postcodeFull":"WA8 6BU","propertyType":"Terraced","oldOrNew":"Established","duration":"Freehold","paon":"7","saon":"","street":"ALFRED STREET","locality":"WIDNES","townOrCity":"WIDNES","district":"HALTON","county":"HALTON","ppdCategoryType":"Standard","recordStatus":"Addition","latitude":53.364863,"longitude":-2.726631,"postcodeStart":"WA8 6","postcode":["WA8","6BU"]}
{"price":45000,"dateOfTransfer":"1995-06-28T00:00:00","postcodeFull":"WA8 6TG","propertyType":"Semi-detached","oldOrNew":"Established","duration":"Freehold","paon":"148","saon":"","street":"PEEL HOUSE LANE","locality":"WIDNES","townOrCity":"WIDNES","district":"HALTON","county":"HALTON","ppdCategoryType":"Standard","recordStatus":"Addition","latitude":53.377077,"longitude":-2.724117,"postcodeStart":"WA8 6","postcode":["WA8","6TG"]}
{"price":49500,"dateOfTransfer":"1995-06-30T00:00:00","postcodeFull":"WA8 6RD","propertyType":"Semi-detached","oldOrNew":"Established","duration":"Freehold","paon":"16","saon":"","street":"LYTHAM ROAD","locality":"WIDNES","townOrCity":"WIDNES","district":"HALTON","county":"HALTON","ppdCategoryType":"Standard","recordStatus":"Addition","latitude":53.377282,"longitude":-2.721595,"postcodeStart":"WA8 6","postcode":["WA8","6RD"]}
{"price":31250,"dateOfTransfer":"1995-06-01T00:00:00","postcodeFull":"WA8 6HE","propertyType":"Terraced","oldOrNew":"Established","duration":"Freehold","paon":"14","saon":"","street":"GREENWAY ROAD","locality":"WIDNES","townOrCity":"WIDNES","district":"HALTON","county":"HALTON","ppdCategoryType":"Standard","recordStatus":"Addition","latitude":53.371833,"longitude":-2.723367,"postcodeStart":"WA8 6","postcode":["WA8","6HE"]}
{"price":10000,"dateOfTransfer":"1995-09-08T00:00:00","postcodeFull":"WA8 6QS","propertyType":"Terraced","oldOrNew":"Established","duration":"Freehold","paon":"75","saon":"","street":"MILLFIELD ROAD","locality":"WIDNES","townOrCity":"WIDNES","district":"HALTON","county":"HALTON","ppdCategoryType":"Standard","recordStatus":"Addition","latitude":53.374062,"longitude":-2.720474,"postcodeStart":"WA8 6","postcode":["WA8","6QS"]}
{"price":50000,"dateOfTransfer":"1995-10-12T00:00:00","postcodeFull":"WA8 6SX","propertyType":"Semi-detached","oldOrNew":"Established","duration":"Freehold","paon":"16","saon":"","street":"LILAC AVENUE","locality":"WIDNES","townOrCity":"WIDNES","district":"HALTON","county":"HALTON","ppdCategoryType":"Standard","recordStatus":"Addition","latitude":53.375348,"longitude":-2.726372,"postcodeStart":"WA8 6","postcode":["WA8","6SX"]}
{"price":40000,"dateOfTransfer":"1995-05-12T00:00:00","postcodeFull":"WA8 6EF","propertyType":"Terraced","oldOrNew":"Established","duration":"Freehold","paon":"47","saon":"","street":"DEACON ROAD","locality":"WIDNES","townOrCity":"WIDNES","district":"HALTON","county":"HALTON","ppdCategoryType":"Standard","recordStatus":"Addition","latitude":53.369888,"longitude":-2.728414,"postcodeStart":"WA8 6","postcode":["WA8","6EF"]}
{"price":29000,"dateOfTransfer":"1995-01-27T00:00:00","postcodeFull":"WA8 6QJ","propertyType":"Terraced","oldOrNew":"Established","duration":"Freehold","paon":"5","saon":"","street":"EDWIN STREET","locality":"WIDNES","townOrCity":"WIDNES","district":"HALTON","county":"HALTON","ppdCategoryType":"Standard","recordStatus":"Addition","latitude":53.372362,"longitude":-2.720789,"postcodeStart":"WA8 6","postcode":["WA8","6QJ"]}
{"price":32000,"dateOfTransfer":"1995-02-28T00:00:00","postcodeFull":"WA8 6QJ","propertyType":"Terraced","oldOrNew":"Established","duration":"Freehold","paon":"40","saon":"","street":"EDWIN STREET","locality":"WIDNES","townOrCity":"WIDNES","district":"HALTON","county":"HALTON","ppdCategoryType":"Standard","recordStatus":"Addition","latitude":53.372362,"longitude":-2.720789,"postcodeStart":"WA8 6","postcode":["WA8","6QJ"]}
{"price":28500,"dateOfTransfer":"1995-11-17T00:00:00","postcodeFull":"WA8 6ES","propertyType":"Terraced","oldOrNew":"Established","duration":"Freehold","paon":"84","saon":"","street":"COOPER STREET","locality":"WIDNES","townOrCity":"WIDNES","district":"HALTON","county":"HALTON","ppdCategoryType":"Standard","recordStatus":"Addition","latitude":53.371154,"longitude":-2.72567,"postcodeStart":"WA8 6","postcode":["WA8","6ES"]}
{"price":25000,"dateOfTransfer":"1995-10-13T00:00:00","postcodeFull":"WA8 6LN","propertyType":"Terraced","oldOrNew":"Established","duration":"Freehold","paon":"10","saon":"","street":"SADLER STREET","locality":"WIDNES","townOrCity":"WIDNES","district":"HALTON","county":"HALTON","ppdCategoryType":"Standard","recordStatus":"Addition","latitude":53.371117,"longitude":-2.719913,"postcodeStart":"WA8 6","postcode":["WA8","6LN"]}
{"price":35000,"dateOfTransfer":"1995-01-27T00:00:00","postcodeFull":"WA8 6EU","propertyType":"Terraced","oldOrNew":"Established","duration":"Freehold","paon":"58","saon":"","street":"FOSTER STREET","locality":"WIDNES","townOrCity":"WIDNES","district":"HALTON","county":"HALTON","ppdCategoryType":"Standard","recordStatus":"Addition","latitude":53.371507,"longitude":-2.72527,"postcodeStart":"WA8 6","postcode":["WA8","6EU"]}
{"price":34500,"dateOfTransfer":"1995-07-28T00:00:00","postcodeFull":"WA8 6QP","propertyType":"Terraced","oldOrNew":"Established","duration":"Freehold","paon":"7","saon":"","street":"ERIC STREET","locality":"WIDNES","townOrCity":"WIDNES","district":"HALTON","county":"HALTON","ppdCategoryType":"Standard","recordStatus":"Addition","latitude":53.37338,"longitude":-2.721875,"postcodeStart":"WA8 6","postcode":["WA8","6QP"]}
{"price":18640,"dateOfTransfer":"1995-02-20T00:00:00","postcodeFull":"WA8 6DQ","propertyType":"Semi-detached","oldOrNew":"Established","duration":"Freehold","paon":"2","saon":"","street":"TRINITY PLACE","locality":"WIDNES","townOrCity":"WIDNES","district":"HALTON","county":"HALTON","ppdCategoryType":"Standard","recordStatus":"Addition","latitude":53.362841,"longitude":-2.729796,"postcodeStart":"WA8 6","postcode":["WA8","6DQ"]}
{"price":25000,"dateOfTransfer":"1995-11-30T00:00:00","postcodeFull":"WA8 6QZ","propertyType":"Terraced","oldOrNew":"Established","duration":"Freehold","paon":"23","saon":"","street":"FIR STREET","locality":"WIDNES","townOrCity":"WIDNES","district":"HALTON","county":"HALTON","ppdCategoryType":"Standard","recordStatus":"Addition","latitude":53.374793,"longitude":-2.721478,"postcodeStart":"WA8 6","postcode":["WA8","6QZ"]}
{"price":34000,"dateOfTransfer":"1995-04-24T00:00:00","postcodeFull":"WA8 6HP","propertyType":"Terraced","oldOrNew":"Established","duration":"Freehold","paon":"38","saon":"","street":"ALLERTON ROAD","locality":"WIDNES","townOrCity":"WIDNES","district":"HALTON","county":"HALTON","ppdCategoryType":"Standard","recordStatus":"Addition","latitude":53.37282,"longitude":-2.723804,"postcodeStart":"WA8 6","postcode":["WA8","6HP"]}
{"price":45950,"dateOfTransfer":"1995-12-08T00:00:00","postcodeFull":"WA8 6EX","propertyType":"Terraced","oldOrNew":"Established","duration":"Freehold","paon":"42","saon":"","street":"APPLETON ROAD","locality":"WIDNES","townOrCity":"WIDNES","district":"HALTON","county":"HALTON","ppdCategoryType":"Standard","recordStatus":"Addition","latitude":53.371968,"longitude":-2.727878,"postcodeStart":"WA8 6","postcode":["WA8","6EX"]}
{"price":52000,"dateOfTransfer":"1995-02-24T00:00:00","postcodeFull":"WA8 6ST","propertyType":"Terraced","oldOrNew":"Established","duration":"Freehold","paon":"6","saon":"","street":"HAWTHORN AVENUE","locality":"WIDNES","townOrCity":"WIDNES","district":"HALTON","county":"HALTON","ppdCategoryType":"Standard","recordStatus":"Addition","latitude":53.376114,"longitude":-2.724507,"postcodeStart":"WA8 6","postcode":["WA8","6ST"]}
{"price":28000,"dateOfTransfer":"1995-08-01T00:00:00","postcodeFull":"WA8 6EX","propertyType":"Terraced","oldOrNew":"Established","duration":"Freehold","paon":"25","saon":"","street":"APPLETON ROAD","locality":"WIDNES","townOrCity":"WIDNES","district":"HALTON","county":"HALTON","ppdCategoryType":"Standard","recordStatus":"Addition","latitude":53.371968,"longitude":-2.727878,"postcodeStart":"WA8 6","postcode":["WA8","6EX"]}
{"price":35540,"dateOfTransfer":"1995-08-18T00:00:00","postcodeFull":"WA8 6EP","propertyType":"Terraced","oldOrNew":"Established","duration":"Freehold","paon":"14","saon":"","street":"REGENT ROAD","locality":"WIDNES","townOrCity":"WIDNES","district":"HALTON","county":"HALTON","ppdCategoryType":"Standard","recordStatus":"Addition","latitude":53.371695,"longitude":-2.7284,"postcodeStart":"WA8 6","postcode":["WA8","6EP"]}
{"price":38000,"dateOfTransfer":"1995-02-28T00:00:00","postcodeFull":"WA8 6QZ","propertyType":"Terraced","oldOrNew":"Established","duration":"Freehold","paon":"29","saon":"","street":"FIR STREET","locality":"WIDNES","townOrCity":"WIDNES","district":"HALTON","county":"HALTON","ppdCategoryType":"Standard","recordStatus":"Addition","latitude":53.374793,"longitude":-2.721478,"postcodeStart":"WA8 6","postcode":["WA8","6QZ"]}
{"price":38000,"dateOfTransfer":"1995-06-02T00:00:00","postcodeFull":"WA8 6QR","propertyType":"Terraced","oldOrNew":"Established","duration":"Freehold","paon":"19","saon":"","street":"MILLFIELD ROAD","locality":"WIDNES","townOrCity":"WIDNES","district":"HALTON","county":"HALTON","ppdCategoryType":"Standard","recordStatus":"Addition","latitude":53.373666,"longitude":-2.72212,"postcodeStart":"WA8 6","postcode":["WA8","6QR"]}
{"price":41000,"dateOfTransfer":"1995-05-26T00:00:00","postcodeFull":"WA8 6HG","propertyType":"Terraced","oldOrNew":"Established","duration":"Freehold","paon":"81","saon":"","street":"PARK ROAD","locality":"WIDNES","townOrCity":"WIDNES","district":"HALTON","county":"HALTON","ppdCategoryType":"Standard","recordStatus":"Addition","latitude":53.371821,"longitude":-2.725381,"postcodeStart":"WA8 6","postcode":["WA8","6HG"]}
{"price":42000,"dateOfTransfer":"1995-02-10T00:00:00","postcodeFull":"WA8 6QS","propertyType":"Terraced","oldOrNew":"Established","duration":"Freehold","paon":"42","saon":"","street":"MILLFIELD ROAD","locality":"WIDNES","townOrCity":"WIDNES","district":"HALTON","county":"HALTON","ppdCategoryType":"Standard","recordStatus":"Addition","latitude":53.374062,"longitude":-2.720474,"postcodeStart":"WA8 6","postcode":["WA8","6QS"]}
{"price":22000,"dateOfTransfer":"1995-06-09T00:00:00","postcodeFull":"WA8 6TJ","propertyType":"Terraced","oldOrNew":"Established","duration":"Freehold","paon":"60","saon":"","street":"PEEL HOUSE LANE","locality":"WIDNES","townOrCity":"WIDNES","district":"HALTON","county":"HALTON","ppdCategoryType":"Standard","recordStatus":"Addition","latitude":53.372594,"longitude":-2.722238,"postcodeStart":"WA8 6","postcode":["WA8","6TJ"]}
{"price":35000,"dateOfTransfer":"1995-11-15T00:00:00","postcodeFull":"WA8 6EP","propertyType":"Terraced","oldOrNew":"Established","duration":"Freehold","paon":"29","saon":"","street":"REGENT ROAD","locality":"WIDNES","townOrCity":"WIDNES","district":"HALTON","county":"HALTON","ppdCategoryType":"Standard","recordStatus":"Addition","latitude":53.371695,"longitude":-2.7284,"postcodeStart":"WA8 6","postcode":["WA8","6EP"]}
{"price":40000,"dateOfTransfer":"1995-05-05T00:00:00","postcodeFull":"WA8 6QG","propertyType":"Terraced","oldOrNew":"Established","duration":"Freehold","paon":"28","saon":"","street":"ALDER AVENUE","locality":"WIDNES","townOrCity":"WIDNES","district":"HALTON","county":"HALTON","ppdCategoryType":"Standard","recordStatus":"Addition","latitude":53.379244,"longitude":-2.727191,"postcodeStart":"WA8 6","postcode":["WA8","6QG"]}
{"price":35995,"dateOfTransfer":"1995-12-08T00:00:00","postcodeFull":"WA8 6QP","propertyType":"Terraced","oldOrNew":"Established","duration":"Freehold","paon":"24","saon":"","street":"ERIC STREET","locality":"WIDNES","townOrCity":"WIDNES","district":"HALTON","county":"HALTON","ppdCategoryType":"Standard","recordStatus":"Addition","latitude":53.37338,"longitude":-2.721875,"postcodeStart":"WA8 6","postcode":["WA8","6QP"]}
{"price":23000,"dateOfTransfer":"1995-10-11T00:00:00","postcodeFull":"WA8 6LH","propertyType":"Terraced","oldOrNew":"Established","duration":"Freehold","paon":"173","saon":"","street":"ALBERT ROAD","locality":"WIDNES","townOrCity":"WIDNES","district":"HALTON","county":"HALTON","ppdCategoryType":"Standard","recordStatus":"Addition","latitude":53.372179,"longitude":-2.719796,"postcodeStart":"WA8 6","postcode":["WA8","6LH"]}
{"price":65000,"dateOfTransfer":"1995-09-15T00:00:00","postcodeFull":"WA8 6QT","propertyType":"Semi-detached","oldOrNew":"Established","duration":"Freehold","paon":"7","saon":"","street":"MILL BROW","locality":"WIDNES","townOrCity":"WIDNES","district":"HALTON","county":"HALTON","ppdCategoryType":"Standard","recordStatus":"Addition","latitude":53.374163,"longitude":-2.718612,"postcodeStart":"WA8 6","postcode":["WA8","6QT"]}
{"price":13500,"dateOfTransfer":"1995-11-24T00:00:00","postcodeFull":"WA8 6DH","propertyType":"Terraced","oldOrNew":"Established","duration":"Leasehold","paon":"12","saon":"","street":"LUGSDALE ROAD","locality":"WIDNES","townOrCity":"WIDNES","district":"HALTON","county":"HALTON","ppdCategoryType":"Standard","recordStatus":"Addition","latitude":53.361918,"longitude":-2.729165,"postcodeStart":"WA8 6","postcode":["WA8","6DH"]}
{"price":37500,"dateOfTransfer":"1995-08-10T00:00:00","postcodeFull":"WA8 6LA","propertyType":"Terraced","oldOrNew":"Established","duration":"Freehold","paon":"17","saon":"","street":"CHESTER STREET","locality":"WIDNES","townOrCity":"WIDNES","district":"HALTON","county":"HALTON","ppdCategoryType":"Standard","recordStatus":"Addition","latitude":53.37077,"longitude":-2.726776,"postcodeStart":"WA8 6","postcode":["WA8","6LA"]}
{"price":42950,"dateOfTransfer":"1995-05-31T00:00:00","postcodeFull":"WA8 6RA","propertyType":"Semi-detached","oldOrNew":"Established","duration":"Freehold","paon":"7","saon":"","street":"FAIRHAVEN ROAD","locality":"WIDNES","townOrCity":"WIDNES","district":"HALTON","county":"HALTON","ppdCategoryType":"Standard","recordStatus":"Addition","latitude":53.37621,"longitude":-2.721983,"postcodeStart":"WA8 6","postcode":["WA8","6RA"]}
{"price":67000,"dateOfTransfer":"1995-01-27T00:00:00","postcodeFull":"WA8 6SG","propertyType":"Semi-detached","oldOrNew":"Established","duration":"Freehold","paon":"14","saon":"","street":"FAIRFIELD ROAD","locality":"WIDNES","townOrCity":"WIDNES","district":"HALTON","county":"HALTON","ppdCategoryType":"Standard","recordStatus":"Addition","latitude":53.372966,"longitude":-2.729308,"postcodeStart":"WA8 6","postcode":["WA8","6SG"]}
{"price":33950,"dateOfTransfer":"1995-05-26T00:00:00","postcodeFull":"WA8 6EU","propertyType":"Terraced","oldOrNew":"Established","duration":"Freehold","paon":"80","saon":"","street":"FOSTER STREET","locality":"WIDNES","townOrCity":"WIDNES","district":"HALTON","county":"HALTON","ppdCategoryType":"Standard","recordStatus":"Addition","latitude":53.371507,"longitude":-2.72527,"postcodeStart":"WA8 6","postcode":["WA8","6EU"]}
{"price":36500,"dateOfTransfer":"1995-11-30T00:00:00","postcodeFull":"WA8 6RE","propertyType":"Semi-detached","oldOrNew":"Established","duration":"Freehold","paon":"36","saon":"","street":"LYTHAM ROAD","locality":"WIDNES","townOrCity":"WIDNES","district":"HALTON","county":"HALTON","ppdCategoryType":"Standard","recordStatus":"Addition","latitude":53.376357,"longitude":-2.719986,"postcodeStart":"WA8 6","postcode":["WA8","6RE"]}
{"price":42750,"dateOfTransfer":"1995-07-07T00:00:00","postcodeFull":"WA8 6PD","propertyType":"Semi-detached","oldOrNew":"Established","duration":"Leasehold","paon":"31","saon":"","street":"LEIGH AVENUE","locality":"WIDNES","townOrCity":"WIDNES","district":"HALTON","county":"HALTON","ppdCategoryType":"Standard","recordStatus":"Addition","latitude":53.370025,"longitude":-2.730986,"postcodeStart":"WA8 6","postcode":["WA8","6PD"]}
{"price":24000,"dateOfTransfer":"1995-03-27T00:00:00","postcodeFull":"WA8 6RB","propertyType":"Semi-detached","oldOrNew":"Established","duration":"Leasehold","paon":"24","saon":"","street":"ST ANNES ROAD","locality":"WIDNES","townOrCity":"WIDNES","district":"HALTON","county":"HALTON","ppdCategoryType":"Standard","recordStatus":"Addition","latitude":53.376076,"longitude":-2.723334,"postcodeStart":"WA8 6","postcode":["WA8","6RB"]}
{"price":26000,"dateOfTransfer":"1995-08-10T00:00:00","postcodeFull":"WA8 6ES","propertyType":"Terraced","oldOrNew":"Established","duration":"Freehold","paon":"104","saon":"","street":"COOPER STREET","locality":"WIDNES","townOrCity":"WIDNES","district":"HALTON","county":"HALTON","ppdCategoryType":"Standard","recordStatus":"Addition","latitude":53.371154,"longitude":-2.72567,"postcodeStart":"WA8 6","postcode":["WA8","6ES"]}
{"price":25950,"dateOfTransfer":"1995-04-05T00:00:00","postcodeFull":"WA8 6JX","propertyType":"Terraced","oldOrNew":"Established","duration":"Freehold","paon":"12","saon":"","street":"ROSS STREET","locality":"WIDNES","townOrCity":"WIDNES","district":"HALTON","county":"HALTON","ppdCategoryType":"Standard","recordStatus":"Addition","latitude":53.370299,"longitude":-2.725836,"postcodeStart":"WA8 6","postcode":["WA8","6JX"]}
{"price":35500,"dateOfTransfer":"1995-12-21T00:00:00","postcodeFull":"WA8 6PF","propertyType":"Terraced","oldOrNew":"Established","duration":"Leasehold","paon":"19","saon":"","street":"FREDERICK STREET","locality":"WIDNES","townOrCity":"WIDNES","district":"HALTON","county":"HALTON","ppdCategoryType":"Standard","recordStatus":"Addition","latitude":53.367119,"longitude":-2.7299,"postcodeStart":"WA8 6","postcode":["WA8","6PF"]}
{"price":32500,"dateOfTransfer":"1995-05-05T00:00:00","postcodeFull":"WA8 6LA","propertyType":"Terraced","oldOrNew":"Established","duration":"Freehold","paon":"2","saon":"","street":"CHESTER STREET","locality":"WIDNES","townOrCity":"WIDNES","district":"HALTON","county":"HALTON","ppdCategoryType":"Standard","recordStatus":"Addition","latitude":53.37077,"longitude":-2.726776,"postcodeStart":"WA8 6","postcode":["WA8","6LA"]}
{"price":20000,"dateOfTransfer":"1995-11-07T00:00:00","postcodeFull":"WA8 6QP","propertyType":"Terraced","oldOrNew":"Established","duration":"Freehold","paon":"21","saon":"","street":"ERIC STREET","locality":"WIDNES","townOrCity":"WIDNES","district":"HALTON","county":"HALTON","ppdCategoryType":"Standard","recordStatus":"Addition","latitude":53.37338,"longitude":-2.721875,"postcodeStart":"WA8 6","postcode":["WA8","6QP"]}
{"price":12500,"dateOfTransfer":"1995-04-19T00:00:00","postcodeFull":"WA8 6ET","propertyType":"Terraced","oldOrNew":"Established","duration":"Freehold","paon":"31","saon":"","street":"FOSTER STREET","locality":"WIDNES","townOrCity":"WIDNES","district":"HALTON","county":"HALTON","ppdCategoryType":"Standard","recordStatus":"Addition","latitude":53.371336,"longitude":-2.725388,"postcodeStart":"WA8 6","postcode":["WA8","6ET"]}
{"price":32500,"dateOfTransfer":"1995-06-16T00:00:00","postcodeFull":"WA8 6HR","propertyType":"Terraced","oldOrNew":"Established","duration":"Freehold","paon":"67","saon":"","street":"BELVOIR ROAD","locality":"WIDNES","townOrCity":"WIDNES","district":"HALTON","county":"HALTON","ppdCategoryType":"Standard","recordStatus":"Addition","latitude":53.37236,"longitude":-2.723992,"postcodeStart":"WA8 6","postcode":["WA8","6HR"]}
{"price":33000,"dateOfTransfer":"1995-12-08T00:00:00","postcodeFull":"WA8 6QL","propertyType":"Terraced","oldOrNew":"Established","duration":"Freehold","paon":"15","saon":"","street":"RICHMOND STREET","locality":"WIDNES","townOrCity":"WIDNES","district":"HALTON","county":"HALTON","ppdCategoryType":"Standard","recordStatus":"Addition","latitude":53.372717,"longitude":-2.721398,"postcodeStart":"WA8 6","postcode":["WA8","6QL"]}
{"price":33500,"dateOfTransfer":"1995-03-30T00:00:00","postcodeFull":"WA8 6HR","propertyType":"Terraced","oldOrNew":"Established","duration":"Freehold","paon":"73","saon":"","street":"BELVOIR ROAD","locality":"WIDNES","townOrCity":"WIDNES","district":"HALTON","county":"HALTON","ppdCategoryType":"Standard","recordStatus":"Addition","latitude":53.37236,"longitude":-2.723992,"postcodeStart":"WA8 6","postcode":["WA8","6HR"]}
{"price":45000,"dateOfTransfer":"1995-08-11T00:00:00","postcodeFull":"WA8 6HL","propertyType":"Terraced","oldOrNew":"Established","duration":"Freehold","paon":"34","saon":"","street":"SYCAMORE AVENUE","locality":"WIDNES","townOrCity":"WIDNES","district":"HALTON","county":"HALTON","ppdCategoryType":"Standard","recordStatus":"Addition","latitude":53.373754,"longitude":-2.726872,"postcodeStart":"WA8 6","postcode":["WA8","6HL"]}
{"price":30000,"dateOfTransfer":"1995-12-20T00:00:00","postcodeFull":"WA8 6HR","propertyType":"Terraced","oldOrNew":"Established","duration":"Freehold","paon":"57","saon":"","street":"BELVOIR ROAD","locality":"WIDNES","townOrCity":"WIDNES","district":"HALTON","county":"HALTON","ppdCategoryType":"Standard","recordStatus":"Addition","latitude":53.37236,"longitude":-2.723992,"postcodeStart":"WA8 6","postcode":["WA8","6HR"]}
{"price":26000,"dateOfTransfer":"1995-09-01T00:00:00","postcodeFull":"WA8 6HG","propertyType":"Terraced","oldOrNew":"Established","duration":"Freehold","paon":"33","saon":"","street":"PARK ROAD","locality":"WIDNES","townOrCity":"WIDNES","district":"HALTON","county":"HALTON","ppdCategoryType":"Standard","recordStatus":"Addition","latitude":53.371821,"longitude":-2.725381,"postcodeStart":"WA8 6","postcode":["WA8","6HG"]}
{"price":44000,"dateOfTransfer":"1995-03-03T00:00:00","postcodeFull":"WA8 6PA","propertyType":"Semi-detached","oldOrNew":"Established","duration":"Freehold","paon":"17","saon":"","street":"DEIRDRE AVENUE","locality":"WIDNES","townOrCity":"WIDNES","district":"HALTON","county":"HALTON","ppdCategoryType":"Standard","recordStatus":"Addition","latitude":53.369207,"longitude":-2.730957,"postcodeStart":"WA8 6","postcode":["WA8","6PA"]}
{"price":45500,"dateOfTransfer":"1995-12-21T00:00:00","postcodeFull":"WA8 6PE","propertyType":"Semi-detached","oldOrNew":"Established","duration":"Leasehold","paon":"105","saon":"","street":"FREDERICK STREET","locality":"WIDNES","townOrCity":"WIDNES","district":"HALTON","county":"HALTON","ppdCategoryType":"Standard","recordStatus":"Addition","latitude":53.369055,"longitude":-2.729347,"postcodeStart":"WA8 6","postcode":["WA8","6PE"]}
{"price":10000,"dateOfTransfer":"1995-11-28T00:00:00","postcodeFull":"WA8 6HD","propertyType":"Terraced","oldOrNew":"Established","duration":"Freehold","paon":"70","saon":"","street":"GREENWAY ROAD","locality":"WIDNES","townOrCity":"WIDNES","district":"HALTON","county":"HALTON","ppdCategoryType":"Standard","recordStatus":"Addition","latitude":53.372157,"longitude":-2.72483,"postcodeStart":"WA8 6","postcode":["WA8","6HD"]}
{"price":55000,"dateOfTransfer":"1995-04-03T00:00:00","postcodeFull":"WA8 6AZ","propertyType":"Terraced","oldOrNew":"Established","duration":"Freehold","paon":"65","saon":"","street":"WIDNES ROAD","locality":"","townOrCity":"WIDNES","district":"HALTON","county":"HALTON","ppdCategoryType":"Standard","recordStatus":"Addition","latitude":53.366885,"longitude":-2.728183,"postcodeStart":"WA8 6","postcode":["WA8","6AZ"]}
{"price":51000,"dateOfTransfer":"1995-06-22T00:00:00","postcodeFull":"WA8 6PE","propertyType":"Semi-detached","oldOrNew":"Established","duration":"Leasehold","paon":"117","saon":"","street":"FREDERICK STREET","locality":"WIDNES","townOrCity":"WIDNES","district":"HALTON","county":"HALTON","ppdCategoryType":"Standard","recordStatus":"Addition","latitude":53.369055,"longitude":-2.729347,"postcodeStart":"WA8 6","postcode":["WA8","6PE"]}
{"price":38000,"dateOfTransfer":"1995-11-06T00:00:00","postcodeFull":"WA8 6SP","propertyType":"Terraced","oldOrNew":"Established","duration":"Freehold","paon":"23","saon":"","street":"CYPRESS AVENUE","locality":"WIDNES","townOrCity":"WIDNES","district":"HALTON","county":"HALTON","ppdCategoryType":"Standard","recordStatus":"Addition","latitude":53.377106,"longitude":-2.725425,"postcodeStart":"WA8 6","postcode":["WA8","6SP"]}
{"price":46950,"dateOfTransfer":"1995-03-31T00:00:00","postcodeFull":"WA8 6TQ","propertyType":"Terraced","oldOrNew":"Established","duration":"Freehold","paon":"118","saon":"","street":"PEEL HOUSE LANE","locality":"WIDNES","townOrCity":"WIDNES","district":"HALTON","county":"HALTON","ppdCategoryType":"Standard","recordStatus":"Addition","latitude":53.374279,"longitude":-2.723273,"postcodeStart":"WA8 6","postcode":["WA8","6TQ"]}
{"price":101500,"dateOfTransfer":"1995-03-24T00:00:00","postcodeFull":"WA8 6SJ","propertyType":"Detached","oldOrNew":"Established","duration":"Freehold","paon":"116","saon":"","street":"FAIRFIELD ROAD","locality":"WIDNES","townOrCity":"WIDNES","district":"HALTON","county":"HALTON","ppdCategoryType":"Standard","recordStatus":"Addition","latitude":53.376827,"longitude":-2.728517,"postcodeStart":"WA8 6","postcode":["WA8","6SJ"]}
{"price":32000,"dateOfTransfer":"1995-06-29T00:00:00","postcodeFull":"WA8 6HR","propertyType":"Terraced","oldOrNew":"Established","duration":"Freehold","paon":"66","saon":"","street":"BELVOIR ROAD","locality":"WIDNES","townOrCity":"WIDNES","district":"HALTON","county":"HALTON","ppdCategoryType":"Standard","recordStatus":"Addition","latitude":53.37236,"longitude":-2.723992,"postcodeStart":"WA8 6","postcode":["WA8","6HR"]}
{"price":21000,"dateOfTransfer":"1995-12-08T00:00:00","postcodeFull":"WA8 6HD","propertyType":"Terraced","oldOrNew":"Established","duration":"Freehold","paon":"58","saon":"","street":"GREENWAY ROAD","locality":"WIDNES","townOrCity":"WIDNES","district":"HALTON","county":"HALTON","ppdCategoryType":"Standard","recordStatus":"Addition","latitude":53.372157,"longitude":-2.72483,"postcodeStart":"WA8 6","postcode":["WA8","6HD"]}
{"price":33000,"dateOfTransfer":"1995-06-20T00:00:00","postcodeFull":"WA8 6RA","propertyType":"Semi-detached","oldOrNew":"Established","duration":"Freehold","paon":"30","saon":"","street":"FAIRHAVEN ROAD","locality":"WIDNES","townOrCity":"WIDNES","district":"HALTON","county":"HALTON","ppdCategoryType":"Standard","recordStatus":"Addition","latitude":53.37621,"longitude":-2.721983,"postcodeStart":"WA8 6","postcode":["WA8","6RA"]}
{"price":53000,"dateOfTransfer":"1995-05-12T00:00:00","postcodeFull":"WA8 6SX","propertyType":"Semi-detached","oldOrNew":"Established","duration":"Freehold","paon":"27","saon":"","street":"LILAC AVENUE","locality":"WIDNES","townOrCity":"WIDNES","district":"HALTON","county":"HALTON","ppdCategoryType":"Standard","recordStatus":"Addition","latitude":53.375348,"longitude":-2.726372,"postcodeStart":"WA8 6","postcode":["WA8","6SX"]}
{"price":48000,"dateOfTransfer":"1995-12-13T00:00:00","postcodeFull":"WA8 6RD","propertyType":"Semi-detached","oldOrNew":"Established","duration":"Freehold","paon":"6","saon":"","street":"LYTHAM ROAD","locality":"WIDNES","townOrCity":"WIDNES","district":"HALTON","county":"HALTON","ppdCategoryType":"Standard","recordStatus":"Addition","latitude":53.377282,"longitude":-2.721595,"postcodeStart":"WA8 6","postcode":["WA8","6RD"]}
{"price":31500,"dateOfTransfer":"1995-04-13T00:00:00","postcodeFull":"WA8 6JY","propertyType":"Terraced","oldOrNew":"Established","duration":"Freehold","paon":"16","saon":"","street":"SAXON TERRACE","locality":"WIDNES","townOrCity":"WIDNES","district":"HALTON","county":"HALTON","ppdCategoryType":"Standard","recordStatus":"Addition","latitude":53.369893,"longitude":-2.725692,"postcodeStart":"WA8 6","postcode":["WA8","6JY"]}
{"price":30000,"dateOfTransfer":"1995-05-12T00:00:00","postcodeFull":"WA8 6NT","propertyType":"Terraced","oldOrNew":"Established","duration":"Leasehold","paon":"38","saon":"","street":"PRINCES STREET","locality":"WIDNES","townOrCity":"WIDNES","district":"HALTON","county":"HALTON","ppdCategoryType":"Standard","recordStatus":"Addition","latitude":53.367294,"longitude":-2.730744,"postcodeStart":"WA8 6","postcode":["WA8","6NT"]}
{"price":27950,"dateOfTransfer":"1995-12-19T00:00:00","postcodeFull":"WA8 6HP","propertyType":"Terraced","oldOrNew":"Established","duration":"Freehold","paon":"65","saon":"","street":"ALLERTON ROAD","locality":"WIDNES","townOrCity":"WIDNES","district":"HALTON","county":"HALTON","ppdCategoryType":"Standard","recordStatus":"Addition","latitude":53.37282,"longitude":-2.723804,"postcodeStart":"WA8 6","postcode":["WA8","6HP"]}
{"price":33500,"dateOfTransfer":"1995-05-26T00:00:00","postcodeFull":"WA8 6LN","propertyType":"Terraced","oldOrNew":"Established","duration":"Freehold","paon":"2","saon":"","street":"SADLER STREET","locality":"WIDNES","townOrCity":"WIDNES","district":"HALTON","county":"HALTON","ppdCategoryType":"Standard","recordStatus":"Addition","latitude":53.371117,"longitude":-2.719913,"postcodeStart":"WA8 6","postcode":["WA8","6LN"]}
{"price":25500,"dateOfTransfer":"1995-12-15T00:00:00","postcodeFull":"WA8 6LA","propertyType":"Terraced","oldOrNew":"Established","duration":"Freehold","paon":"31","saon":"","street":"CHESTER STREET","locality":"WIDNES","townOrCity":"WIDNES","district":"HALTON","county":"HALTON","ppdCategoryType":"Standard","recordStatus":"Addition","latitude":53.37077,"longitude":-2.726776,"postcodeStart":"WA8 6","postcode":["WA8","6LA"]}
{"price":40000,"dateOfTransfer":"1995-05-26T00:00:00","postcodeFull":"WA8 6TJ","propertyType":"Terraced","oldOrNew":"Established","duration":"Freehold","paon":"38","saon":"","street":"PEEL HOUSE LANE","locality":"WIDNES","townOrCity":"WIDNES","district":"HALTON","county":"HALTON","ppdCategoryType":"Standard","recordStatus":"Addition","latitude":53.372594,"longitude":-2.722238,"postcodeStart":"WA8 6","postcode":["WA8","6TJ"]}
{"price":37500,"dateOfTransfer":"1995-11-21T00:00:00","postcodeFull":"WA8 6HG","propertyType":"Terraced","oldOrNew":"Established","duration":"Freehold","paon":"64","saon":"","street":"PARK ROAD","locality":"WIDNES","townOrCity":"WIDNES","district":"HALTON","county":"HALTON","ppdCategoryType":"Standard","recordStatus":"Addition","latitude":53.371821,"longitude":-2.725381,"postcodeStart":"WA8 6","postcode":["WA8","6HG"]}
{"price":15000,"dateOfTransfer":"1995-04-06T00:00:00","postcodeFull":"WA8 6DW","propertyType":"Terraced","oldOrNew":"Established","duration":"Leasehold","paon":"23","saon":"","street":"VINE STREET","locality":"WIDNES","townOrCity":"WIDNES","district":"HALTON","county":"HALTON","ppdCategoryType":"Standard","recordStatus":"Addition","latitude":53.36292,"longitude":-2.730249,"postcodeStart":"WA8 6","postcode":["WA8","6DW"]}
{"price":29950,"dateOfTransfer":"1995-06-29T00:00:00","postcodeFull":"WA8 6HL","propertyType":"Flat/Maisonette/Townhouse","oldOrNew":"Established","duration":"Leasehold","paon":"48A","saon":"","street":"SYCAMORE AVENUE","locality":"WIDNES","townOrCity":"WIDNES","district":"HALTON","county":"HALTON","ppdCategoryType":"Standard","recordStatus":"Addition","latitude":53.373754,"longitude":-2.726872,"postcodeStart":"WA8 6","postcode":["WA8","6HL"]}
{"price":32000,"dateOfTransfer":"1995-05-05T00:00:00","postcodeFull":"WA8 6EU","propertyType":"Terraced","oldOrNew":"Established","duration":"Freehold","paon":"80","saon":"","street":"FOSTER STREET","locality":"WIDNES","townOrCity":"WIDNES","district":"HALTON","county":"HALTON","ppdCategoryType":"Standard","recordStatus":"Addition","latitude":53.371507,"longitude":-2.72527,"postcodeStart":"WA8 6","postcode":["WA8","6EU"]}
{"price":32500,"dateOfTransfer":"1995-09-13T00:00:00","postcodeFull":"WA8 6QU","propertyType":"Terraced","oldOrNew":"Established","duration":"Freehold","paon":"50","saon":"","street":"DOWARD STREET","locality":"WIDNES","townOrCity":"WIDNES","district":"HALTON","county":"HALTON","ppdCategoryType":"Standard","recordStatus":"Addition","latitude":53.37462,"longitude":-2.720423,"postcodeStart":"WA8 6","postcode":["WA8","6QU"]}
{"price":31000,"dateOfTransfer":"1995-07-31T00:00:00","postcodeFull":"WA8 6HQ","propertyType":"Terraced","oldOrNew":"Established","duration":"Freehold","paon":"9","saon":"","street":"LOWER APPLETON ROAD","locality":"WIDNES","townOrCity":"WIDNES","district":"HALTON","county":"HALTON","ppdCategoryType":"Standard","recordStatus":"Addition","latitude":53.372417,"longitude":-2.726368,"postcodeStart":"WA8 6","postcode":["WA8","6HQ"]}
{"price":14250,"dateOfTransfer":"1996-01-05T00:00:00","postcodeFull":"WA8 6DW","propertyType":"Terraced","oldOrNew":"Established","duration":"Freehold","paon":"3","saon":"","street":"VINE STREET","locality":"WIDNES","townOrCity":"WIDNES","district":"HALTON","county":"HALTON","ppdCategoryType":"Standard","recordStatus":"Addition","latitude":53.36292,"longitude":-2.730249,"postcodeStart":"WA8 6","postcode":["WA8","6DW"]}
{"price":38000,"dateOfTransfer":"1996-11-08T00:00:00","postcodeFull":"WA8 6HF","propertyType":"Terraced","oldOrNew":"Established","duration":"Freehold","paon":"38","saon":"","street":"PARK ROAD","locality":"WIDNES","townOrCity":"WIDNES","district":"HALTON","county":"HALTON","ppdCategoryType":"Standard","recordStatus":"Addition","latitude":53.371463,"longitude":-2.723721,"postcodeStart":"WA8 6","postcode":["WA8","6HF"]}
{"price":36000,"dateOfTransfer":"1996-05-10T00:00:00","postcodeFull":"WA8 6EP","propertyType":"Terraced","oldOrNew":"Established","duration":"Freehold","paon":"24","saon":"","street":"REGENT ROAD","locality":"WIDNES","townOrCity":"WIDNES","district":"HALTON","county":"HALTON","ppdCategoryType":"Standard","recordStatus":"Addition","latitude":53.371695,"longitude":-2.7284,"postcodeStart":"WA8 6","postcode":["WA8","6EP"]}
{"price":3000,"dateOfTransfer":"1996-01-10T00:00:00","postcodeFull":"WA8 6ET","propertyType":"Terraced","oldOrNew":"Established","duration":"Freehold","paon":"67","saon":"","street":"FOSTER STREET","locality":"","townOrCity":"WIDNES","district":"HALTON","county":"HALTON","ppdCategoryType":"Standard","recordStatus":"Addition","latitude":53.371336,"longitude":-2.725388,"postcodeStart":"WA8 6","postcode":["WA8","6ET"]}
{"price":15000,"dateOfTransfer":"1996-03-06T00:00:00","postcodeFull":"WA8 6LG","propertyType":"Terraced","oldOrNew":"Established","duration":"Freehold","paon":"132","saon":"","street":"ALBERT ROAD","locality":"","townOrCity":"WIDNES","district":"HALTON","county":"HALTON","ppdCategoryType":"Standard","recordStatus":"Addition","latitude":53.37123,"longitude":-2.722124,"postcodeStart":"WA8 6","postcode":["WA8","6LG"]}
{"price":30000,"dateOfTransfer":"1996-12-23T00:00:00","postcodeFull":"WA8 6JT","propertyType":"Terraced","oldOrNew":"Established","duration":"Freehold","paon":"84","saon":"","street":"ALBERT ROAD","locality":"","townOrCity":"WIDNES","district":"HALTON","county":"HALTON","ppdCategoryType":"Standard","recordStatus":"Addition","latitude":53.36963,"longitude":-2.724698,"postcodeStart":"WA8 6","postcode":["WA8","6JT"]}
{"price":60000,"dateOfTransfer":"1996-11-14T00:00:00","postcodeFull":"WA8 6AD","propertyType":"Terraced","oldOrNew":"Established","duration":"Freehold","paon":"VINE COTTAGE, 30","saon":"","street":"WIDNES ROAD","locality":"","townOrCity":"WIDNES","district":"HALTON","county":"HALTON","ppdCategoryType":"Standard","recordStatus":"Addition","latitude":53.363292,"longitude":-2.730811,"postcodeStart":"WA8 6","postcode":["WA8","6AD"]}
{"price":60000,"dateOfTransfer":"1996-02-01T00:00:00","postcodeFull":"WA8 6LB","propertyType":"Terraced","oldOrNew":"Established","duration":"Freehold","paon":"135","saon":"","street":"ALBERT ROAD","locality":"","townOrCity":"WIDNES","district":"HALTON","county":"HALTON","ppdCategoryType":"Standard","recordStatus":"Addition","latitude":53.370968,"longitude":-2.723458,"postcodeStart":"WA8 6","postcode":["WA8","6LB"]}
{"price":30000,"dateOfTransfer":"1996-10-09T00:00:00","postcodeFull":"WA8 6JW","propertyType":"Terraced","oldOrNew":"Established","duration":"Leasehold","paon":"22 - 24","saon":"","street":"ALBERT SQUARE","locality":"","townOrCity":"WIDNES","district":"HALTON","county":"HALTON","ppdCategoryType":"Standard","recordStatus":"Addition","latitude":53.368514,"longitude":-2.726692,"postcodeStart":"WA8 6","postcode":["WA8","6JW"]}
{"price":36000,"dateOfTransfer":"1996-04-30T00:00:00","postcodeFull":"WA8 6TA","propertyType":"Semi-detached","oldOrNew":"Established","duration":"Freehold","paon":"52","saon":"","street":"LOCKETT ROAD","locality":"WIDNES","townOrCity":"WIDNES","district":"HALTON","county":"HALTON","ppdCategoryType":"Standard","recordStatus":"Addition","latitude":53.377773,"longitude":-2.731119,"postcodeStart":"WA8 6","postcode":["WA8","6TA"]}
{"price":25000,"dateOfTransfer":"1996-12-13T00:00:00","postcodeFull":"WA8 6DJ","propertyType":"Terraced","oldOrNew":"Established","duration":"Freehold","paon":"1","saon":"","street":"LUGSDALE ROAD","locality":"WIDNES","townOrCity":"WIDNES","district":"HALTON","county":"HALTON","ppdCategoryType":"Standard","recordStatus":"Addition","latitude":53.362265,"longitude":-2.729757,"postcodeStart":"WA8 6","postcode":["WA8","6DJ"]}
{"price":25000,"dateOfTransfer":"1996-10-28T00:00:00","postcodeFull":"WA8 6DW","propertyType":"Terraced","oldOrNew":"Established","duration":"Leasehold","paon":"15","saon":"","street":"VINE STREET","locality":"WIDNES","townOrCity":"WIDNES","district":"HALTON","county":"HALTON","ppdCategoryType":"Standard","recordStatus":"Addition","latitude":53.36292,"longitude":-2.730249,"postcodeStart":"WA8 6","postcode":["WA8","6DW"]}
{"price":38500,"dateOfTransfer":"1996-03-29T00:00:00","postcodeFull":"WA8 6RN","propertyType":"Semi-detached","oldOrNew":"Established","duration":"Freehold","paon":"5","saon":"","street":"WILLIAM STREET","locality":"WIDNES","townOrCity":"WIDNES","district":"HALTON","county":"HALTON","ppdCategoryType":"Standard","recordStatus":"Addition","latitude":53.372768,"longitude":-2.720197,"postcodeStart":"WA8 6","postcode":["WA8","6RN"]}
{"price":40000,"dateOfTransfer":"1996-03-13T00:00:00","postcodeFull":"WA8 6EX","propertyType":"Terraced","oldOrNew":"Established","duration":"Freehold","paon":"8","saon":"","street":"APPLETON ROAD","locality":"WIDNES","townOrCity":"WIDNES","district":"HALTON","county":"HALTON","ppdCategoryType":"Standard","recordStatus":"Addition","latitude":53.371968,"longitude":-2.727878,"postcodeStart":"WA8 6","postcode":["WA8","6EX"]}
{"price":15000,"dateOfTransfer":"1996-01-19T00:00:00","postcodeFull":"WA8 6LP","propertyType":"Terraced","oldOrNew":"Established","duration":"Freehold","paon":"22","saon":"","street":"BOWER STREET","locality":"WIDNES","townOrCity":"WIDNES","district":"HALTON","county":"HALTON","ppdCategoryType":"Standard","recordStatus":"Addition","latitude":53.370688,"longitude":-2.720958,"postcodeStart":"WA8 6","postcode":["WA8","6LP"]}
{"price":29500,"dateOfTransfer":"1996-06-14T00:00:00","postcodeFull":"WA8 6HQ","propertyType":"Terraced","oldOrNew":"Established","duration":"Freehold","paon":"12A","saon":"","street":"LOWER APPLETON ROAD","locality":"WIDNES","townOrCity":"WIDNES","district":"HALTON","county":"HALTON","ppdCategoryType":"Standard","recordStatus":"Addition","latitude":53.372417,"longitude":-2.726368,"postcodeStart":"WA8 6","postcode":["WA8","6HQ"]}
{"price":45000,"dateOfTransfer":"1996-09-06T00:00:00","postcodeFull":"WA8 6QP","propertyType":"Terraced","oldOrNew":"Established","duration":"Freehold","paon":"11","saon":"","street":"ERIC STREET","locality":"WIDNES","townOrCity":"WIDNES","district":"HALTON","county":"HALTON","ppdCategoryType":"Standard","recordStatus":"Addition","latitude":53.37338,"longitude":-2.721875,"postcodeStart":"WA8 6","postcode":["WA8","6QP"]}
{"price":18000,"dateOfTransfer":"1996-07-26T00:00:00","postcodeFull":"WA8 6JY","propertyType":"Terraced","oldOrNew":"Established","duration":"Freehold","paon":"6","saon":"","street":"SAXON TERRACE","locality":"WIDNES","townOrCity":"WIDNES","district":"HALTON","county":"HALTON","ppdCategoryType":"Standard","recordStatus":"Addition","latitude":53.369893,"longitude":-2.725692,"postcodeStart":"WA8 6","postcode":["WA8","6JY"]}
{"price":37500,"dateOfTransfer":"1996-10-02T00:00:00","postcodeFull":"WA8 6ES","propertyType":"Terraced","oldOrNew":"Established","duration":"Leasehold","paon":"3","saon":"","street":"COOPER STREET","locality":"WIDNES","townOrCity":"WIDNES","district":"HALTON","county":"HALTON","ppdCategoryType":"Standard","recordStatus":"Addition","latitude":53.371154,"longitude":-2.72567,"postcodeStart":"WA8 6","postcode":["WA8","6ES"]}
{"price":31500,"dateOfTransfer":"1996-10-25T00:00:00","postcodeFull":"WA8 6ES","propertyType":"Terraced","oldOrNew":"Established","duration":"Freehold","paon":"72","saon":"","street":"COOPER STREET","locality":"WIDNES","townOrCity":"WIDNES","district":"HALTON","county":"HALTON","ppdCategoryType":"Standard","recordStatus":"Addition","latitude":53.371154,"longitude":-2.72567,"postcodeStart":"WA8 6","postcode":["WA8","6ES"]}
{"price":29500,"dateOfTransfer":"1996-04-26T00:00:00","postcodeFull":"WA8 6LA","propertyType":"Terraced","oldOrNew":"Established","duration":"Freehold","paon":"13","saon":"","street":"CHESTER STREET","locality":"WIDNES","townOrCity":"WIDNES","district":"HALTON","county":"HALTON","ppdCategoryType":"Standard","recordStatus":"Addition","latitude":53.37077,"longitude":-2.726776,"postcodeStart":"WA8 6","postcode":["WA8","6LA"]}
{"price":22000,"dateOfTransfer":"1996-09-12T00:00:00","postcodeFull":"WA8 6TQ","propertyType":"Terraced","oldOrNew":"Established","duration":"Freehold","paon":"102","saon":"","street":"PEEL HOUSE LANE","locality":"WIDNES","townOrCity":"WIDNES","district":"HALTON","county":"HALTON","ppdCategoryType":"Standard","recordStatus":"Addition","latitude":53.374279,"longitude":-2.723273,"postcodeStart":"WA8 6","postcode":["WA8","6TQ"]}
{"price":29500,"dateOfTransfer":"1996-03-29T00:00:00","postcodeFull":"WA8 6TG","propertyType":"Semi-detached","oldOrNew":"Established","duration":"Freehold","paon":"138","saon":"","street":"PEEL HOUSE LANE","locality":"WIDNES","townOrCity":"WIDNES","district":"HALTON","county":"HALTON","ppdCategoryType":"Standard","recordStatus":"Addition","latitude":53.377077,"longitude":-2.724117,"postcodeStart":"WA8 6","postcode":["WA8","6TG"]}
{"price":31500,"dateOfTransfer":"1996-07-15T00:00:00","postcodeFull":"WA8 6HR","propertyType":"Terraced","oldOrNew":"Established","duration":"Freehold","paon":"37","saon":"","street":"BELVOIR ROAD","locality":"WIDNES","townOrCity":"WIDNES","district":"HALTON","county":"HALTON","ppdCategoryType":"Standard","recordStatus":"Addition","latitude":53.37236,"longitude":-2.723992,"postcodeStart":"WA8 6","postcode":["WA8","6HR"]}
{"price":19500,"dateOfTransfer":"1996-05-31T00:00:00","postcodeFull":"WA8 6HR","propertyType":"Terraced","oldOrNew":"Established","duration":"Freehold","paon":"15","saon":"","street":"BELVOIR ROAD","locality":"WIDNES","townOrCity":"WIDNES","district":"HALTON","county":"HALTON","ppdCategoryType":"Standard","recordStatus":"Addition","latitude":53.37236,"longitude":-2.723992,"postcodeStart":"WA8 6","postcode":["WA8","6HR"]}
{"price":31250,"dateOfTransfer":"1996-12-13T00:00:00","postcodeFull":"WA8 6JY","propertyType":"Terraced","oldOrNew":"Established","duration":"Freehold","paon":"17","saon":"","street":"SAXON TERRACE","locality":"WIDNES","townOrCity":"WIDNES","district":"HALTON","county":"HALTON","ppdCategoryType":"Standard","recordStatus":"Addition","latitude":53.369893,"longitude":-2.725692,"postcodeStart":"WA8 6","postcode":["WA8","6JY"]}
{"price":38000,"dateOfTransfer":"1996-09-27T00:00:00","postcodeFull":"WA8 6PA","propertyType":"Semi-detached","oldOrNew":"Established","duration":"Leasehold","paon":"23","saon":"","street":"DEIRDRE AVENUE","locality":"WIDNES","townOrCity":"WIDNES","district":"HALTON","county":"HALTON","ppdCategoryType":"Standard","recordStatus":"Addition","latitude":53.369207,"longitude":-2.730957,"postcodeStart":"WA8 6","postcode":["WA8","6PA"]}
{"price":33000,"dateOfTransfer":"1996-05-17T00:00:00","postcodeFull":"WA8 6RW","propertyType":"Semi-detached","oldOrNew":"Established","duration":"Freehold","paon":"8","saon":"","street":"SUSAN STREET","locality":"WIDNES","townOrCity":"WIDNES","district":"HALTON","county":"HALTON","ppdCategoryType":"Standard","recordStatus":"Addition","latitude":53.373599,"longitude":-2.719789,"postcodeStart":"WA8 6","postcode":["WA8","6RW"]}
{"price":29950,"dateOfTransfer":"1996-11-22T00:00:00","postcodeFull":"WA8 6JY","propertyType":"Terraced","oldOrNew":"Established","duration":"Freehold","paon":"6","saon":"","street":"SAXON TERRACE","locality":"WIDNES","townOrCity":"WIDNES","district":"HALTON","county":"HALTON","ppdCategoryType":"Standard","recordStatus":"Addition","latitude":53.369893,"longitude":-2.725692,"postcodeStart":"WA8 6","postcode":["WA8","6JY"]}
{"price":22000,"dateOfTransfer":"1996-10-31T00:00:00","postcodeFull":"WA8 6NF","propertyType":"Terraced","oldOrNew":"Established","duration":"Leasehold","paon":"14","saon":"","street":"DICKSON CLOSE","locality":"WIDNES","townOrCity":"WIDNES","district":"HALTON","county":"HALTON","ppdCategoryType":"Standard","recordStatus":"Addition","latitude":53.368149,"longitude":-2.729091,"postcodeStart":"WA8 6","postcode":["WA8","6NF"]}
{"price":38000,"dateOfTransfer":"1996-10-30T00:00:00","postcodeFull":"WA8 6TG","propertyType":"Semi-detached","oldOrNew":"Established","duration":"Freehold","paon":"136","saon":"","street":"PEEL HOUSE LANE","locality":"WIDNES","townOrCity":"WIDNES","district":"HALTON","county":"HALTON","ppdCategoryType":"Standard","recordStatus":"Addition","latitude":53.377077,"longitude":-2.724117,"postcodeStart":"WA8 6","postcode":["WA8","6TG"]}
{"price":25950,"dateOfTransfer":"1996-04-19T00:00:00","postcodeFull":"WA8 6DW","propertyType":"Terraced","oldOrNew":"Established","duration":"Leasehold","paon":"33","saon":"","street":"VINE STREET","locality":"WIDNES","townOrCity":"WIDNES","district":"HALTON","county":"HALTON","ppdCategoryType":"Standard","recordStatus":"Addition","latitude":53.36292,"longitude":-2.730249,"postcodeStart":"WA8 6","postcode":["WA8","6DW"]}
{"price":59000,"dateOfTransfer":"1996-12-06T00:00:00","postcodeFull":"WA8 6SX","propertyType":"Semi-detached","oldOrNew":"Established","duration":"Freehold","paon":"36","saon":"","street":"LILAC AVENUE","locality":"WIDNES","townOrCity":"WIDNES","district":"HALTON","county":"HALTON","ppdCategoryType":"Standard","recordStatus":"Addition","latitude":53.375348,"longitude":-2.726372,"postcodeStart":"WA8 6","postcode":["WA8","6SX"]}
{"price":32000,"dateOfTransfer":"1996-09-27T00:00:00","postcodeFull":"WA8 6HD","propertyType":"Terraced","oldOrNew":"Established","duration":"Freehold","paon":"50","saon":"","street":"GREENWAY ROAD","locality":"WIDNES","townOrCity":"WIDNES","district":"HALTON","county":"HALTON","ppdCategoryType":"Standard","recordStatus":"Addition","latitude":53.372157,"longitude":-2.72483,"postcodeStart":"WA8 6","postcode":["WA8","6HD"]}
{"price":31000,"dateOfTransfer":"1996-02-08T00:00:00","postcodeFull":"WA8 6HQ","propertyType":"Terraced","oldOrNew":"Established","duration":"Freehold","paon":"29","saon":"","street":"LOWER APPLETON ROAD","locality":"WIDNES","townOrCity":"WIDNES","district":"HALTON","county":"HALTON","ppdCategoryType":"Standard","recordStatus":"Addition","latitude":53.372417,"longitude":-2.726368,"postcodeStart":"WA8 6","postcode":["WA8","6HQ"]}
{"price":32000,"dateOfTransfer":"1996-04-17T00:00:00","postcodeFull":"WA8 6ET","propertyType":"Terraced","oldOrNew":"Established","duration":"Freehold","paon":"63","saon":"","street":"FOSTER STREET","locality":"WIDNES","townOrCity":"WIDNES","district":"HALTON","county":"HALTON","ppdCategoryType":"Standard","recordStatus":"Addition","latitude":53.371336,"longitude":-2.725388,"postcodeStart":"WA8 6","postcode":["WA8","6ET"]}
{"price":14500,"dateOfTransfer":"1996-02-16T00:00:00","postcodeFull":"WA8 6JY","propertyType":"Terraced","oldOrNew":"Established","duration":"Leasehold","paon":"11","saon":"","street":"SAXON TERRACE","locality":"WIDNES","townOrCity":"WIDNES","district":"HALTON","county":"HALTON","ppdCategoryType":"Standard","recordStatus":"Addition","latitude":53.369893,"longitude":-2.725692,"postcodeStart":"WA8 6","postcode":["WA8","6JY"]}
{"price":22500,"dateOfTransfer":"1996-03-19T00:00:00","postcodeFull":"WA8 6QX","propertyType":"Terraced","oldOrNew":"Established","duration":"Freehold","paon":"11","saon":"","street":"KNOWLES STREET","locality":"WIDNES","townOrCity":"WIDNES","district":"HALTON","county":"HALTON","ppdCategoryType":"Standard","recordStatus":"Addition","latitude":53.374243,"longitude":-2.720296,"postcodeStart":"WA8 6","postcode":["WA8","6QX"]}
{"price":16000,"dateOfTransfer":"1996-05-30T00:00:00","postcodeFull":"WA8 6TG","propertyType":"Terraced","oldOrNew":"Established","duration":"Freehold","paon":"122A","saon":"","street":"PEEL HOUSE LANE","locality":"WIDNES","townOrCity":"WIDNES","district":"HALTON","county":"HALTON","ppdCategoryType":"Standard","recordStatus":"Addition","latitude":53.377077,"longitude":-2.724117,"postcodeStart":"WA8 6","postcode":["WA8","6TG"]}
{"price":23000,"dateOfTransfer":"1996-05-01T00:00:00","postcodeFull":"WA8 6PS","propertyType":"Terraced","oldOrNew":"Established","duration":"Freehold","paon":"1","saon":"","street":"DEAN STREET","locality":"WIDNES","townOrCity":"WIDNES","district":"HALTON","county":"HALTON","ppdCategoryType":"Standard","recordStatus":"Addition","latitude":53.367621,"longitude":-2.72839,"postcodeStart":"WA8 6","postcode":["WA8","6PS"]}
{"price":32500,"dateOfTransfer":"1996-07-05T00:00:00","postcodeFull":"WA8 6ET","propertyType":"Terraced","oldOrNew":"Established","duration":"Freehold","paon":"33","saon":"","street":"FOSTER STREET","locality":"WIDNES","townOrCity":"WIDNES","district":"HALTON","county":"HALTON","ppdCategoryType":"Standard","recordStatus":"Addition","latitude":53.371336,"longitude":-2.725388,"postcodeStart":"WA8 6","postcode":["WA8","6ET"]}
{"price":38000,"dateOfTransfer":"1996-01-26T00:00:00","postcodeFull":"WA8 6QR","propertyType":"Terraced","oldOrNew":"Established","duration":"Freehold","paon":"15","saon":"","street":"MILLFIELD ROAD","locality":"WIDNES","townOrCity":"WIDNES","district":"HALTON","county":"HALTON","ppdCategoryType":"Standard","recordStatus":"Addition","latitude":53.373666,"longitude":-2.72212,"postcodeStart":"WA8 6","postcode":["WA8","6QR"]}
{"price":20991,"dateOfTransfer":"1996-03-01T00:00:00","postcodeFull":"WA8 6BG","propertyType":"Detached","oldOrNew":"Established","duration":"Freehold","paon":"67","saon":"","street":"LUGSDALE ROAD","locality":"WIDNES","townOrCity":"WIDNES","district":"HALTON","county":"HALTON","ppdCategoryType":"Standard","recordStatus":"Addition","latitude":53.364813,"longitude":-2.724946,"postcodeStart":"WA8 6","postcode":["WA8","6BG"]}
{"price":34000,"dateOfTransfer":"1996-12-12T00:00:00","postcodeFull":"WA8 6PZ","propertyType":"Terraced","oldOrNew":"Established","duration":"Freehold","paon":"11","saon":"","street":"BRADSHAW STREET","locality":"WIDNES","townOrCity":"WIDNES","district":"HALTON","county":"HALTON","ppdCategoryType":"Standard","recordStatus":"Addition","latitude":53.374402,"longitude":-2.734052,"postcodeStart":"WA8 6","postcode":["WA8","6PZ"]}
{"price":31950,"dateOfTransfer":"1996-09-06T00:00:00","postcodeFull":"WA8 6HE","propertyType":"Terraced","oldOrNew":"Established","duration":"Freehold","paon":"7","saon":"","street":"GREENWAY ROAD","locality":"WIDNES","townOrCity":"WIDNES","district":"HALTON","county":"HALTON","ppdCategoryType":"Standard","recordStatus":"Addition","latitude":53.371833,"longitude":-2.723367,"postcodeStart":"WA8 6","postcode":["WA8","6HE"]}
{"price":29995,"dateOfTransfer":"1996-08-30T00:00:00","postcodeFull":"WA8 6HE","propertyType":"Terraced","oldOrNew":"Established","duration":"Freehold","paon":"42","saon":"","street":"GREENWAY ROAD","locality":"WIDNES","townOrCity":"WIDNES","district":"HALTON","county":"HALTON","ppdCategoryType":"Standard","recordStatus":"Addition","latitude":53.371833,"longitude":-2.723367,"postcodeStart":"WA8 6","postcode":["WA8","6HE"]}
{"price":24000,"dateOfTransfer":"1996-03-08T00:00:00","postcodeFull":"WA8 6LP","propertyType":"Terraced","oldOrNew":"Established","duration":"Freehold","paon":"42","saon":"","street":"BOWER STREET","locality":"WIDNES","townOrCity":"WIDNES","district":"HALTON","county":"HALTON","ppdCategoryType":"Standard","recordStatus":"Addition","latitude":53.370688,"longitude":-2.720958,"postcodeStart":"WA8 6","postcode":["WA8","6LP"]}
{"price":31950,"dateOfTransfer":"1996-06-14T00:00:00","postcodeFull":"WA8 6HR","propertyType":"Terraced","oldOrNew":"Established","duration":"Freehold","paon":"70","saon":"","street":"BELVOIR ROAD","locality":"WIDNES","townOrCity":"WIDNES","district":"HALTON","county":"HALTON","ppdCategoryType":"Standard","recordStatus":"Addition","latitude":53.37236,"longitude":-2.723992,"postcodeStart":"WA8 6","postcode":["WA8","6HR"]}
{"price":29000,"dateOfTransfer":"1996-10-25T00:00:00","postcodeFull":"WA8 6PG","propertyType":"Terraced","oldOrNew":"Established","duration":"Leasehold","paon":"10","saon":"","street":"FREDERICK STREET","locality":"WIDNES","townOrCity":"WIDNES","district":"HALTON","county":"HALTON","ppdCategoryType":"Standard","recordStatus":"Addition","latitude":53.367346,"longitude":-2.729573,"postcodeStart":"WA8 6","postcode":["WA8","6PG"]}
{"price":34000,"dateOfTransfer":"1996-05-01T00:00:00","postcodeFull":"WA8 6NT","propertyType":"Semi-detached","oldOrNew":"Established","duration":"Freehold","paon":"58","saon":"","street":"PRINCES STREET","locality":"WIDNES","townOrCity":"WIDNES","district":"HALTON","county":"HALTON","ppdCategoryType":"Standard","recordStatus":"Addition","latitude":53.367294,"longitude":-2.730744,"postcodeStart":"WA8 6","postcode":["WA8","6NT"]}
{"price":21500,"dateOfTransfer":"1996-11-18T00:00:00","postcodeFull":"WA8 6EP","propertyType":"Terraced","oldOrNew":"Established","duration":"Freehold","paon":"49","saon":"","street":"REGENT ROAD","locality":"WIDNES","townOrCity":"WIDNES","district":"HALTON","county":"HALTON","ppdCategoryType":"Standard","recordStatus":"Addition","latitude":53.371695,"longitude":-2.7284,"postcodeStart":"WA8 6","postcode":["WA8","6EP"]}
{"price":12750,"dateOfTransfer":"1996-09-30T00:00:00","postcodeFull":"WA8 6QZ","propertyType":"Terraced","oldOrNew":"Established","duration":"Freehold","paon":"1","saon":"","street":"FIR STREET","locality":"WIDNES","townOrCity":"WIDNES","district":"HALTON","county":"HALTON","ppdCategoryType":"Standard","recordStatus":"Addition","latitude":53.374793,"longitude":-2.721478,"postcodeStart":"WA8 6","postcode":["WA8","6QZ"]}
{"price":32950,"dateOfTransfer":"1996-07-19T00:00:00","postcodeFull":"WA8 6ET","propertyType":"Terraced","oldOrNew":"Established","duration":"Freehold","paon":"45","saon":"","street":"FOSTER STREET","locality":"WIDNES","townOrCity":"WIDNES","district":"HALTON","county":"HALTON","ppdCategoryType":"Standard","recordStatus":"Addition","latitude":53.371336,"longitude":-2.725388,"postcodeStart":"WA8 6","postcode":["WA8","6ET"]}
{"price":26000,"dateOfTransfer":"1996-01-25T00:00:00","postcodeFull":"WA8 6HP","propertyType":"Terraced","oldOrNew":"Established","duration":"Freehold","paon":"48","saon":"","street":"ALLERTON ROAD","locality":"WIDNES","townOrCity":"WIDNES","district":"HALTON","county":"HALTON","ppdCategoryType":"Standard","recordStatus":"Addition","latitude":53.37282,"longitude":-2.723804,"postcodeStart":"WA8 6","postcode":["WA8","6HP"]}
{"price":27500,"dateOfTransfer":"1996-11-22T00:00:00","postcodeFull":"WA8 6PG","propertyType":"Terraced","oldOrNew":"Established","duration":"Leasehold","paon":"64","saon":"","street":"FREDERICK STREET","locality":"WIDNES","townOrCity":"WIDNES","district":"HALTON","county":"HALTON","ppdCategoryType":"Standard","recordStatus":"Addition","latitude":53.367346,"longitude":-2.729573,"postcodeStart":"WA8 6","postcode":["WA8","6PG"]}
{"price":29000,"dateOfTransfer":"1996-07-19T00:00:00","postcodeFull":"WA8 6ES","propertyType":"Terraced","oldOrNew":"Established","duration":"Freehold","paon":"10","saon":"","street":"COOPER STREET","locality":"WIDNES","townOrCity":"WIDNES","district":"HALTON","county":"HALTON","ppdCategoryType":"Standard","recordStatus":"Addition","latitude":53.371154,"longitude":-2.72567,"postcodeStart":"WA8 6","postcode":["WA8","6ES"]}
{"price":18950,"dateOfTransfer":"1996-01-31T00:00:00","postcodeFull":"WA8 6HP","propertyType":"Terraced","oldOrNew":"Established","duration":"Freehold","paon":"46","saon":"","street":"ALLERTON ROAD","locality":"WIDNES","townOrCity":"WIDNES","district":"HALTON","county":"HALTON","ppdCategoryType":"Standard","recordStatus":"Addition","latitude":53.37282,"longitude":-2.723804,"postcodeStart":"WA8 6","postcode":["WA8","6HP"]}
{"price":38000,"dateOfTransfer":"1996-08-05T00:00:00","postcodeFull":"WA8 6JZ","propertyType":"Terraced","oldOrNew":"Established","duration":"Leasehold","paon":"24","saon":"","street":"MIDLAND STREET","locality":"WIDNES","townOrCity":"WIDNES","district":"HALTON","county":"HALTON","ppdCategoryType":"Standard","recordStatus":"Addition","latitude":53.370444,"longitude":-2.725628,"postcodeStart":"WA8 6","postcode":["WA8","6JZ"]}
{"price":38000,"dateOfTransfer":"1996-04-26T00:00:00","postcodeFull":"WA8 6HF","propertyType":"Terraced","oldOrNew":"Established","duration":"Freehold","paon":"24","saon":"","street":"PARK ROAD","locality":"WIDNES","townOrCity":"WIDNES","district":"HALTON","county":"HALTON","ppdCategoryType":"Standard","recordStatus":"Addition","latitude":53.371463,"longitude":-2.723721,"postcodeStart":"WA8 6","postcode":["WA8","6HF"]}
{"price":38950,"dateOfTransfer":"1996-05-17T00:00:00","postcodeFull":"WA8 6QP","propertyType":"Terraced","oldOrNew":"Established","duration":"Freehold","paon":"7","saon":"","street":"ERIC STREET","locality":"WIDNES","townOrCity":"WIDNES","district":"HALTON","county":"HALTON","ppdCategoryType":"Standard","recordStatus":"Addition","latitude":53.37338,"longitude":-2.721875,"postcodeStart":"WA8 6","postcode":["WA8","6QP"]}
{"price":29000,"dateOfTransfer":"1996-09-11T00:00:00","postcodeFull":"WA8 6QS","propertyType":"Terraced","oldOrNew":"Established","duration":"Freehold","paon":"75","saon":"","street":"MILLFIELD ROAD","locality":"WIDNES","townOrCity":"WIDNES","district":"HALTON","county":"HALTON","ppdCategoryType":"Standard","recordStatus":"Addition","latitude":53.374062,"longitude":-2.720474,"postcodeStart":"WA8 6","postcode":["WA8","6QS"]}
{"price":30000,"dateOfTransfer":"1996-02-15T00:00:00","postcodeFull":"WA8 6QP","propertyType":"Terraced","oldOrNew":"Established","duration":"Freehold","paon":"3","saon":"","street":"ERIC STREET","locality":"WIDNES","townOrCity":"WIDNES","district":"HALTON","county":"HALTON","ppdCategoryType":"Standard","recordStatus":"Addition","latitude":53.37338,"longitude":-2.721875,"postcodeStart":"WA8 6","postcode":["WA8","6QP"]}
{"price":31950,"dateOfTransfer":"1996-06-21T00:00:00","postcodeFull":"WA8 6HF","propertyType":"Terraced","oldOrNew":"Established","duration":"Freehold","paon":"4","saon":"","street":"PARK ROAD","locality":"WIDNES","townOrCity":"WIDNES","district":"HALTON","county":"HALTON","ppdCategoryType":"Standard","recordStatus":"Addition","latitude":53.371463,"longitude":-2.723721,"postcodeStart":"WA8 6","postcode":["WA8","6HF"]}
{"price":22000,"dateOfTransfer":"1996-02-06T00:00:00","postcodeFull":"WA8 6QR","propertyType":"Terraced","oldOrNew":"Established","duration":"Freehold","paon":"21","saon":"","street":"MILLFIELD ROAD","locality":"WIDNES","townOrCity":"WIDNES","district":"HALTON","county":"HALTON","ppdCategoryType":"Standard","recordStatus":"Addition","latitude":53.373666,"longitude":-2.72212,"postcodeStart":"WA8 6","postcode":["WA8","6QR"]}
{"price":26500,"dateOfTransfer":"1996-05-03T00:00:00","postcodeFull":"WA8 6SS","propertyType":"Terraced","oldOrNew":"Established","duration":"Freehold","paon":"3","saon":"","street":"LARCH AVENUE","locality":"WIDNES","townOrCity":"WIDNES","district":"HALTON","county":"HALTON","ppdCategoryType":"Standard","recordStatus":"Addition","latitude":53.376317,"longitude":-2.725081,"postcodeStart":"WA8 6","postcode":["WA8","6SS"]}
{"price":30500,"dateOfTransfer":"1996-11-26T00:00:00","postcodeFull":"WA8 6HR","propertyType":"Terraced","oldOrNew":"Established","duration":"Freehold","paon":"7","saon":"","street":"BELVOIR ROAD","locality":"WIDNES","townOrCity":"WIDNES","district":"HALTON","county":"HALTON","ppdCategoryType":"Standard","recordStatus":"Addition","latitude":53.37236,"longitude":-2.723992,"postcodeStart":"WA8 6","postcode":["WA8","6HR"]}
{"price":27000,"dateOfTransfer":"1996-08-28T00:00:00","postcodeFull":"WA8 6LW","propertyType":"Semi-detached","oldOrNew":"Established","duration":"Freehold","paon":"14","saon":"","street":"WOOD STREET","locality":"WIDNES","townOrCity":"WIDNES","district":"HALTON","county":"HALTON","ppdCategoryType":"Standard","recordStatus":"Addition","latitude":53.370952,"longitude":-2.720496,"postcodeStart":"WA8 6","postcode":["WA8","6LW"]}
{"price":35000,"dateOfTransfer":"1996-03-08T00:00:00","postcodeFull":"WA8 6PG","propertyType":"Terraced","oldOrNew":"Established","duration":"Leasehold","paon":"18","saon":"","street":"FREDERICK STREET","locality":"WIDNES","townOrCity":"WIDNES","district":"HALTON","county":"HALTON","ppdCategoryType":"Standard","recordStatus":"Addition","latitude":53.367346,"longitude":-2.729573,"postcodeStart":"WA8 6","postcode":["WA8","6PG"]}
{"price":48650,"dateOfTransfer":"1996-11-26T00:00:00","postcodeFull":"WA8 6SL","propertyType":"Terraced","oldOrNew":"Established","duration":"Freehold","paon":"17","saon":"","street":"LOCKETT ROAD","locality":"WIDNES","townOrCity":"WIDNES","district":"HALTON","county":"HALTON","ppdCategoryType":"Standard","recordStatus":"Addition","latitude":53.377897,"longitude":-2.726837,"postcodeStart":"WA8 6","postcode":["WA8","6SL"]}
{"price":30000,"dateOfTransfer":"1996-02-29T00:00:00","postcodeFull":"WA8 6QD","propertyType":"Semi-detached","oldOrNew":"Established","duration":"Freehold","paon":"122","saon":"","street":"ALDER AVENUE","locality":"WIDNES","townOrCity":"WIDNES","district":"HALTON","county":"HALTON","ppdCategoryType":"Standard","recordStatus":"Addition","latitude":53.378456,"longitude":-2.731026,"postcodeStart":"WA8 6","postcode":["WA8","6QD"]}
{"price":30000,"dateOfTransfer":"1996-05-07T00:00:00","postcodeFull":"WA8 6HD","propertyType":"Terraced","oldOrNew":"Established","duration":"Freehold","paon":"77","saon":"","street":"GREENWAY ROAD","locality":"WIDNES","townOrCity":"WIDNES","district":"HALTON","county":"HALTON","ppdCategoryType":"Standard","recordStatus":"Addition","latitude":53.372157,"longitude":-2.72483,"postcodeStart":"WA8 6","postcode":["WA8","6HD"]}
{"price":50000,"dateOfTransfer":"1996-08-23T00:00:00","postcodeFull":"WA8 6PB","propertyType":"Semi-detached","oldOrNew":"Established","duration":"Leasehold","paon":"29","saon":"","street":"SHELAGH AVENUE","locality":"WIDNES","townOrCity":"WIDNES","district":"HALTON","county":"HALTON","ppdCategoryType":"Standard","recordStatus":"Addition","latitude":53.36922,"longitude":-2.731874,"postcodeStart":"WA8 6","postcode":["WA8","6PB"]}
{"price":24000,"dateOfTransfer":"1996-07-12T00:00:00","postcodeFull":"WA8 6ES","propertyType":"Terraced","oldOrNew":"Established","duration":"Freehold","paon":"38","saon":"","street":"COOPER STREET","locality":"WIDNES","townOrCity":"WIDNES","district":"HALTON","county":"HALTON","ppdCategoryType":"Standard","recordStatus":"Addition","latitude":53.371154,"longitude":-2.72567,"postcodeStart":"WA8 6","postcode":["WA8","6ES"]}
{"price":23500,"dateOfTransfer":"1996-11-29T00:00:00","postcodeFull":"WA8 6DW","propertyType":"Terraced","oldOrNew":"Established","duration":"Freehold","paon":"10","saon":"","street":"VINE STREET","locality":"WIDNES","townOrCity":"WIDNES","district":"HALTON","county":"HALTON","ppdCategoryType":"Standard","recordStatus":"Addition","latitude":53.36292,"longitude":-2.730249,"postcodeStart":"WA8 6","postcode":["WA8","6DW"]}
{"price":20500,"dateOfTransfer":"1996-08-30T00:00:00","postcodeFull":"WA8 6RH","propertyType":"Terraced","oldOrNew":"Established","duration":"Freehold","paon":"4","saon":"","street":"NEIL STREET","locality":"WIDNES","townOrCity":"WIDNES","district":"HALTON","county":"HALTON","ppdCategoryType":"Standard","recordStatus":"Addition","latitude":53.374759,"longitude":-2.722695,"postcodeStart":"WA8 6","postcode":["WA8","6RH"]}
{"price":32000,"dateOfTransfer":"1996-03-22T00:00:00","postcodeFull":"WA8 6JY","propertyType":"Terraced","oldOrNew":"Established","duration":"Freehold","paon":"22","saon":"","street":"SAXON TERRACE","locality":"WIDNES","townOrCity":"WIDNES","district":"HALTON","county":"HALTON","ppdCategoryType":"Standard","recordStatus":"Addition","latitude":53.369893,"longitude":-2.725692,"postcodeStart":"WA8 6","postcode":["WA8","6JY"]}
{"price":27000,"dateOfTransfer":"1996-11-08T00:00:00","postcodeFull":"WA8 6EP","propertyType":"Terraced","oldOrNew":"Established","duration":"Freehold","paon":"10","saon":"","street":"REGENT ROAD","locality":"WIDNES","townOrCity":"WIDNES","district":"HALTON","county":"HALTON","ppdCategoryType":"Standard","recordStatus":"Addition","latitude":53.371695,"longitude":-2.7284,"postcodeStart":"WA8 6","postcode":["WA8","6EP"]}
{"price":15500,"dateOfTransfer":"1996-03-20T00:00:00","postcodeFull":"WA8 6EU","propertyType":"Terraced","oldOrNew":"Established","duration":"Freehold","paon":"96","saon":"","street":"FOSTER STREET","locality":"WIDNES","townOrCity":"WIDNES","district":"HALTON","county":"HALTON","ppdCategoryType":"Standard","recordStatus":"Addition","latitude":53.371507,"longitude":-2.72527,"postcodeStart":"WA8 6","postcode":["WA8","6EU"]}
{"price":22750,"dateOfTransfer":"1996-07-05T00:00:00","postcodeFull":"WA8 6HP","propertyType":"Terraced","oldOrNew":"Established","duration":"Freehold","paon":"30","saon":"","street":"ALLERTON ROAD","locality":"WIDNES","townOrCity":"WIDNES","district":"HALTON","county":"HALTON","ppdCategoryType":"Standard","recordStatus":"Addition","latitude":53.37282,"longitude":-2.723804,"postcodeStart":"WA8 6","postcode":["WA8","6HP"]}
{"price":15750,"dateOfTransfer":"1996-05-02T00:00:00","postcodeFull":"WA8 6TL","propertyType":"Terraced","oldOrNew":"Established","duration":"Freehold","paon":"5","saon":"","street":"MOUNT STREET","locality":"WIDNES","townOrCity":"WIDNES","district":"HALTON","county":"HALTON","ppdCategoryType":"Standard","recordStatus":"Addition","latitude":53.373066,"longitude":-2.723222,"postcodeStart":"WA8 6","postcode":["WA8","6TL"]}
{"price":29500,"dateOfTransfer":"1996-10-31T00:00:00","postcodeFull":"WA8 6SW","propertyType":"Terraced","oldOrNew":"Established","duration":"Freehold","paon":"10","saon":"","street":"CHESTNUT AVENUE","locality":"WIDNES","townOrCity":"WIDNES","district":"HALTON","county":"HALTON","ppdCategoryType":"Standard","recordStatus":"Addition","latitude":53.376111,"longitude":-2.726491,"postcodeStart":"WA8 6","postcode":["WA8","6SW"]}
{"price":26500,"dateOfTransfer":"1996-09-20T00:00:00","postcodeFull":"WA8 6HP","propertyType":"Terraced","oldOrNew":"Established","duration":"Freehold","paon":"52","saon":"","street":"ALLERTON ROAD","locality":"WIDNES","townOrCity":"WIDNES","district":"HALTON","county":"HALTON","ppdCategoryType":"Standard","recordStatus":"Addition","latitude":53.37282,"longitude":-2.723804,"postcodeStart":"WA8 6","postcode":["WA8","6HP"]}
{"price":32500,"dateOfTransfer":"1996-04-04T00:00:00","postcodeFull":"WA8 6HP","propertyType":"Terraced","oldOrNew":"Established","duration":"Freehold","paon":"37","saon":"","street":"ALLERTON ROAD","locality":"WIDNES","townOrCity":"WIDNES","district":"HALTON","county":"HALTON","ppdCategoryType":"Standard","recordStatus":"Addition","latitude":53.37282,"longitude":-2.723804,"postcodeStart":"WA8 6","postcode":["WA8","6HP"]}
{"price":27000,"dateOfTransfer":"1996-12-19T00:00:00","postcodeFull":"WA8 6EU","propertyType":"Terraced","oldOrNew":"Established","duration":"Freehold","paon":"64","saon":"","street":"FOSTER STREET","locality":"WIDNES","townOrCity":"WIDNES","district":"HALTON","county":"HALTON","ppdCategoryType":"Standard","recordStatus":"Addition","latitude":53.371507,"longitude":-2.72527,"postcodeStart":"WA8 6","postcode":["WA8","6EU"]}
{"price":37500,"dateOfTransfer":"1996-01-31T00:00:00","postcodeFull":"WA8 6QD","propertyType":"Terraced","oldOrNew":"Established","duration":"Freehold","paon":"71","saon":"","street":"ALDER AVENUE","locality":"WIDNES","townOrCity":"WIDNES","district":"HALTON","county":"HALTON","ppdCategoryType":"Standard","recordStatus":"Addition","latitude":53.378456,"longitude":-2.731026,"postcodeStart":"WA8 6","postcode":["WA8","6QD"]}
{"price":50000,"dateOfTransfer":"1996-12-04T00:00:00","postcodeFull":"WA8 6EE","propertyType":"Semi-detached","oldOrNew":"Established","duration":"Freehold","paon":"19","saon":"","street":"SAYCE STREET","locality":"WIDNES","townOrCity":"WIDNES","district":"HALTON","county":"HALTON","ppdCategoryType":"Standard","recordStatus":"Addition","latitude":53.370632,"longitude":-2.727359,"postcodeStart":"WA8 6","postcode":["WA8","6EE"]}
{"price":27000,"dateOfTransfer":"1996-12-20T00:00:00","postcodeFull":"WA8 6EX","propertyType":"Terraced","oldOrNew":"Established","duration":"Freehold","paon":"17","saon":"","street":"APPLETON ROAD","locality":"WIDNES","townOrCity":"WIDNES","district":"HALTON","county":"HALTON","ppdCategoryType":"Standard","recordStatus":"Addition","latitude":53.371968,"longitude":-2.727878,"postcodeStart":"WA8 6","postcode":["WA8","6EX"]}
{"price":31500,"dateOfTransfer":"1996-01-09T00:00:00","postcodeFull":"WA8 6LW","propertyType":"Terraced","oldOrNew":"Established","duration":"Freehold","paon":"21","saon":"","street":"WOOD STREET","locality":"WIDNES","townOrCity":"WIDNES","district":"HALTON","county":"HALTON","ppdCategoryType":"Standard","recordStatus":"Addition","latitude":53.370952,"longitude":-2.720496,"postcodeStart":"WA8 6","postcode":["WA8","6LW"]}
{"price":31000,"dateOfTransfer":"1996-06-19T00:00:00","postcodeFull":"WA8 6ES","propertyType":"Semi-detached","oldOrNew":"Established","duration":"Freehold","paon":"64","saon":"","street":"COOPER STREET","locality":"WIDNES","townOrCity":"WIDNES","district":"HALTON","county":"HALTON","ppdCategoryType":"Standard","recordStatus":"Addition","latitude":53.371154,"longitude":-2.72567,"postcodeStart":"WA8 6","postcode":["WA8","6ES"]}
{"price":25000,"dateOfTransfer":"1996-11-28T00:00:00","postcodeFull":"WA8 6NL","propertyType":"Terraced","oldOrNew":"Established","duration":"Freehold","paon":"28","saon":"","street":"MILTON ROAD","locality":"WIDNES","townOrCity":"WIDNES","district":"HALTON","county":"HALTON","ppdCategoryType":"Standard","recordStatus":"Addition","latitude":53.36558,"longitude":-2.731737,"postcodeStart":"WA8 6","postcode":["WA8","6NL"]}
{"price":26000,"dateOfTransfer":"1996-02-09T00:00:00","postcodeFull":"WA8 6RA","propertyType":"Semi-detached","oldOrNew":"Established","duration":"Freehold","paon":"31","saon":"","street":"FAIRHAVEN ROAD","locality":"WIDNES","townOrCity":"WIDNES","district":"HALTON","county":"HALTON","ppdCategoryType":"Standard","recordStatus":"Addition","latitude":53.37621,"longitude":-2.721983,"postcodeStart":"WA8 6","postcode":["WA8","6RA"]}
{"price":26210,"dateOfTransfer":"1996-10-25T00:00:00","postcodeFull":"WA8 6LR","propertyType":"Semi-detached","oldOrNew":"Established","duration":"Freehold","paon":"21","saon":"","street":"DENTON STREET","locality":"WIDNES","townOrCity":"WIDNES","district":"HALTON","county":"HALTON","ppdCategoryType":"Standard","recordStatus":"Addition","latitude":53.37057,"longitude":-2.721256,"postcodeStart":"WA8 6","postcode":["WA8","6LR"]}
{"price":49000,"dateOfTransfer":"1996-08-30T00:00:00","postcodeFull":"WA8 6HL","propertyType":"Terraced","oldOrNew":"Established","duration":"Freehold","paon":"23","saon":"","street":"SYCAMORE AVENUE","locality":"WIDNES","townOrCity":"WIDNES","district":"HALTON","county":"HALTON","ppdCategoryType":"Standard","recordStatus":"Addition","latitude":53.373754,"longitude":-2.726872,"postcodeStart":"WA8 6","postcode":["WA8","6HL"]}
{"price":30000,"dateOfTransfer":"1996-05-31T00:00:00","postcodeFull":"WA8 6LW","propertyType":"Terraced","oldOrNew":"Established","duration":"Freehold","paon":"23","saon":"","street":"WOOD STREET","locality":"WIDNES","townOrCity":"WIDNES","district":"HALTON","county":"HALTON","ppdCategoryType":"Standard","recordStatus":"Addition","latitude":53.370952,"longitude":-2.720496,"postcodeStart":"WA8 6","postcode":["WA8","6LW"]}
{"price":22000,"dateOfTransfer":"1996-04-12T00:00:00","postcodeFull":"WA8 6ET","propertyType":"Terraced","oldOrNew":"Established","duration":"Freehold","paon":"45","saon":"","street":"FOSTER STREET","locality":"WIDNES","townOrCity":"WIDNES","district":"HALTON","county":"HALTON","ppdCategoryType":"Standard","recordStatus":"Addition","latitude":53.371336,"longitude":-2.725388,"postcodeStart":"WA8 6","postcode":["WA8","6ET"]}
{"price":36150,"dateOfTransfer":"1996-03-22T00:00:00","postcodeFull":"WA8 6QP","propertyType":"Terraced","oldOrNew":"Established","duration":"Freehold","paon":"7","saon":"","street":"ERIC STREET","locality":"WIDNES","townOrCity":"WIDNES","district":"HALTON","county":"HALTON","ppdCategoryType":"Standard","recordStatus":"Addition","latitude":53.37338,"longitude":-2.721875,"postcodeStart":"WA8 6","postcode":["WA8","6QP"]}
{"price":49000,"dateOfTransfer":"1996-01-31T00:00:00","postcodeFull":"WA8 6QG","propertyType":"Terraced","oldOrNew":"Established","duration":"Freehold","paon":"18","saon":"","street":"ALDER AVENUE","locality":"WIDNES","townOrCity":"WIDNES","district":"HALTON","county":"HALTON","ppdCategoryType":"Standard","recordStatus":"Addition","latitude":53.379244,"longitude":-2.727191,"postcodeStart":"WA8 6","postcode":["WA8","6QG"]}
{"price":43000,"dateOfTransfer":"1996-06-14T00:00:00","postcodeFull":"WA8 6NT","propertyType":"Terraced","oldOrNew":"Established","duration":"Freehold","paon":"67","saon":"","street":"PRINCES STREET","locality":"WIDNES","townOrCity":"WIDNES","district":"HALTON","county":"HALTON","ppdCategoryType":"Standard","recordStatus":"Addition","latitude":53.367294,"longitude":-2.730744,"postcodeStart":"WA8 6","postcode":["WA8","6NT"]}
{"price":39000,"dateOfTransfer":"1996-02-09T00:00:00","postcodeFull":"WA8 6QG","propertyType":"Terraced","oldOrNew":"Established","duration":"Freehold","paon":"9","saon":"","street":"ALDER AVENUE","locality":"WIDNES","townOrCity":"WIDNES","district":"HALTON","county":"HALTON","ppdCategoryType":"Standard","recordStatus":"Addition","latitude":53.379244,"longitude":-2.727191,"postcodeStart":"WA8 6","postcode":["WA8","6QG"]}
{"price":18000,"dateOfTransfer":"1996-09-16T00:00:00","postcodeFull":"WA8 6RJ","propertyType":"Terraced","oldOrNew":"Established","duration":"Freehold","paon":"3","saon":"","street":"REAY STREET","locality":"WIDNES","townOrCity":"WIDNES","district":"HALTON","county":"HALTON","ppdCategoryType":"Standard","recordStatus":"Addition","latitude":53.374495,"longitude":-2.721698,"postcodeStart":"WA8 6","postcode":["WA8","6RJ"]}
{"price":29125,"dateOfTransfer":"1996-05-31T00:00:00","postcodeFull":"WA8 6DG","propertyType":"Terraced","oldOrNew":"Established","duration":"Freehold","paon":"22","saon":"","street":"CAMBRIDGE STREET","locality":"WIDNES","townOrCity":"WIDNES","district":"HALTON","county":"HALTON","ppdCategoryType":"Standard","recordStatus":"Addition","latitude":53.363143,"longitude":-2.728975,"postcodeStart":"WA8 6","postcode":["WA8","6DG"]}
{"price":15800,"dateOfTransfer":"1996-11-29T00:00:00","postcodeFull":"WA8 6EU","propertyType":"Terraced","oldOrNew":"Established","duration":"Freehold","paon":"90","saon":"","street":"FOSTER STREET","locality":"WIDNES","townOrCity":"WIDNES","district":"HALTON","county":"HALTON","ppdCategoryType":"Standard","recordStatus":"Addition","latitude":53.371507,"longitude":-2.72527,"postcodeStart":"WA8 6","postcode":["WA8","6EU"]}
{"price":37000,"dateOfTransfer":"1996-02-20T00:00:00","postcodeFull":"WA8 6RA","propertyType":"Terraced","oldOrNew":"Established","duration":"Leasehold","paon":"15","saon":"","street":"FAIRHAVEN ROAD","locality":"WIDNES","townOrCity":"WIDNES","district":"HALTON","county":"HALTON","ppdCategoryType":"Standard","recordStatus":"Addition","latitude":53.37621,"longitude":-2.721983,"postcodeStart":"WA8 6","postcode":["WA8","6RA"]}
{"price":37500,"dateOfTransfer":"1996-01-05T00:00:00","postcodeFull":"WA8 6AP","propertyType":"Terraced","oldOrNew":"Established","duration":"Freehold","paon":"48","saon":"LAND ASSOCIATED WITH","street":"LAND ASSOCIATED WITH","locality":"LONG LANE","townOrCity":"WIDNES","district":"HALTON","county":"HALTON","ppdCategoryType":"Standard","recordStatus":"Addition","latitude":53.364176,"longitude":-2.730346,"postcodeStart":"WA8 6","postcode":["WA8","6AP"]}
{"price":31000,"dateOfTransfer":"1996-02-16T00:00:00","postcodeFull":"WA8 6HG","propertyType":"Terraced","oldOrNew":"Established","duration":"Freehold","paon":"56","saon":"","street":"PARK ROAD","locality":"WIDNES","townOrCity":"WIDNES","district":"HALTON","county":"HALTON","ppdCategoryType":"Standard","recordStatus":"Addition","latitude":53.371821,"longitude":-2.725381,"postcodeStart":"WA8 6","postcode":["WA8","6HG"]}
{"price":35000,"dateOfTransfer":"1996-10-30T00:00:00","postcodeFull":"WA8 6PZ","propertyType":"Terraced","oldOrNew":"Established","duration":"Leasehold","paon":"20","saon":"","street":"BRADSHAW STREET","locality":"WIDNES","townOrCity":"WIDNES","district":"HALTON","county":"HALTON","ppdCategoryType":"Standard","recordStatus":"Addition","latitude":53.374402,"longitude":-2.734052,"postcodeStart":"WA8 6","postcode":["WA8","6PZ"]}
{"price":33000,"dateOfTransfer":"1996-03-05T00:00:00","postcodeFull":"WA8 6HR","propertyType":"Terraced","oldOrNew":"Established","duration":"Freehold","paon":"32","saon":"","street":"BELVOIR ROAD","locality":"WIDNES","townOrCity":"WIDNES","district":"HALTON","county":"HALTON","ppdCategoryType":"Standard","recordStatus":"Addition","latitude":53.37236,"longitude":-2.723992,"postcodeStart":"WA8 6","postcode":["WA8","6HR"]}
{"price":33950,"dateOfTransfer":"1997-12-12T00:00:00","postcodeFull":"WA8 6LA","propertyType":"Terraced","oldOrNew":"Established","duration":"Freehold","paon":"6","saon":"","street":"CHESTER STREET","locality":"WIDNES","townOrCity":"WIDNES","district":"HALTON","county":"HALTON","ppdCategoryType":"Standard","recordStatus":"Addition","latitude":53.37077,"longitude":-2.726776,"postcodeStart":"WA8 6","postcode":["WA8","6LA"]}
{"price":35000,"dateOfTransfer":"1997-08-13T00:00:00","postcodeFull":"WA8 6JZ","propertyType":"Terraced","oldOrNew":"Established","duration":"Leasehold","paon":"43","saon":"","street":"MIDLAND STREET","locality":"WIDNES","townOrCity":"WIDNES","district":"HALTON","county":"HALTON","ppdCategoryType":"Standard","recordStatus":"Addition","latitude":53.370444,"longitude":-2.725628,"postcodeStart":"WA8 6","postcode":["WA8","6JZ"]}
{"price":24000,"dateOfTransfer":"1997-08-18T00:00:00","postcodeFull":"WA8 6QR","propertyType":"Semi-detached","oldOrNew":"Established","duration":"Freehold","paon":"11","saon":"","street":"MILLFIELD ROAD","locality":"WIDNES","townOrCity":"WIDNES","district":"HALTON","county":"HALTON","ppdCategoryType":"Standard","recordStatus":"Addition","latitude":53.373666,"longitude":-2.72212,"postcodeStart":"WA8 6","postcode":["WA8","6QR"]}
{"price":26000,"dateOfTransfer":"1997-08-01T00:00:00","postcodeFull":"WA8 6ES","propertyType":"Terraced","oldOrNew":"Established","duration":"Freehold","paon":"40","saon":"","street":"COOPER STREET","locality":"WIDNES","townOrCity":"WIDNES","district":"HALTON","county":"HALTON","ppdCategoryType":"Standard","recordStatus":"Addition","latitude":53.371154,"longitude":-2.72567,"postcodeStart":"WA8 6","postcode":["WA8","6ES"]}
{"price":32000,"dateOfTransfer":"1997-12-05T00:00:00","postcodeFull":"WA8 6ER","propertyType":"Terraced","oldOrNew":"Established","duration":"Freehold","paon":"87","saon":"","street":"COOPER STREET","locality":"WIDNES","townOrCity":"WIDNES","district":"HALTON","county":"HALTON","ppdCategoryType":"Standard","recordStatus":"Addition","latitude":53.371362,"longitude":-2.726921,"postcodeStart":"WA8 6","postcode":["WA8","6ER"]}
{"price":49995,"dateOfTransfer":"1997-05-19T00:00:00","postcodeFull":"WA8 6PA","propertyType":"Semi-detached","oldOrNew":"Established","duration":"Leasehold","paon":"21","saon":"","street":"DEIRDRE AVENUE","locality":"WIDNES","townOrCity":"WIDNES","district":"HALTON","county":"HALTON","ppdCategoryType":"Standard","recordStatus":"Addition","latitude":53.369207,"longitude":-2.730957,"postcodeStart":"WA8 6","postcode":["WA8","6PA"]}
{"price":22880,"dateOfTransfer":"1997-02-28T00:00:00","postcodeFull":"WA8 6HR","propertyType":"Terraced","oldOrNew":"Established","duration":"Freehold","paon":"49","saon":"","street":"BELVOIR ROAD","locality":"WIDNES","townOrCity":"WIDNES","district":"HALTON","county":"HALTON","ppdCategoryType":"Standard","recordStatus":"Addition","latitude":53.37236,"longitude":-2.723992,"postcodeStart":"WA8 6","postcode":["WA8","6HR"]}
{"price":31000,"dateOfTransfer":"1997-10-13T00:00:00","postcodeFull":"WA8 6JZ","propertyType":"Terraced","oldOrNew":"Established","duration":"Freehold","paon":"9","saon":"","street":"MIDLAND STREET","locality":"WIDNES","townOrCity":"WIDNES","district":"HALTON","county":"HALTON","ppdCategoryType":"Standard","recordStatus":"Addition","latitude":53.370444,"longitude":-2.725628,"postcodeStart":"WA8 6","postcode":["WA8","6JZ"]}
{"price":29000,"dateOfTransfer":"1997-09-08T00:00:00","postcodeFull":"WA8 6DW","propertyType":"Terraced","oldOrNew":"Established","duration":"Leasehold","paon":"43","saon":"","street":"VINE STREET","locality":"WIDNES","townOrCity":"WIDNES","district":"HALTON","county":"HALTON","ppdCategoryType":"Standard","recordStatus":"Addition","latitude":53.36292,"longitude":-2.730249,"postcodeStart":"WA8 6","postcode":["WA8","6DW"]}
{"price":30000,"dateOfTransfer":"1997-07-11T00:00:00","postcodeFull":"WA8 6DG","propertyType":"Semi-detached","oldOrNew":"Established","duration":"Freehold","paon":"44","saon":"","street":"CAMBRIDGE STREET","locality":"WIDNES","townOrCity":"WIDNES","district":"HALTON","county":"HALTON","ppdCategoryType":"Standard","recordStatus":"Addition","latitude":53.363143,"longitude":-2.728975,"postcodeStart":"WA8 6","postcode":["WA8","6DG"]}
{"price":21000,"dateOfTransfer":"1997-05-19T00:00:00","postcodeFull":"WA8 6NS","propertyType":"Terraced","oldOrNew":"Established","duration":"Leasehold","paon":"32","saon":"","street":"PRINCES STREET","locality":"WIDNES","townOrCity":"WIDNES","district":"HALTON","county":"HALTON","ppdCategoryType":"Standard","recordStatus":"Addition","latitude":53.366396,"longitude":-2.730669,"postcodeStart":"WA8 6","postcode":["WA8","6NS"]}
{"price":31000,"dateOfTransfer":"1997-06-06T00:00:00","postcodeFull":"WA8 6LW","propertyType":"Terraced","oldOrNew":"Established","duration":"Freehold","paon":"28","saon":"","street":"WOOD STREET","locality":"WIDNES","townOrCity":"WIDNES","district":"HALTON","county":"HALTON","ppdCategoryType":"Standard","recordStatus":"Addition","latitude":53.370952,"longitude":-2.720496,"postcodeStart":"WA8 6","postcode":["WA8","6LW"]}
{"price":19200,"dateOfTransfer":"1997-12-19T00:00:00","postcodeFull":"WA8 6QU","propertyType":"Terraced","oldOrNew":"Established","duration":"Freehold","paon":"28","saon":"","street":"DOWARD STREET","locality":"WIDNES","townOrCity":"WIDNES","district":"HALTON","county":"HALTON","ppdCategoryType":"Standard","recordStatus":"Addition","latitude":53.37462,"longitude":-2.720423,"postcodeStart":"WA8 6","postcode":["WA8","6QU"]}
{"price":28500,"dateOfTransfer":"1997-02-28T00:00:00","postcodeFull":"WA8 6QD","propertyType":"Semi-detached","oldOrNew":"Established","duration":"Freehold","paon":"120","saon":"","street":"ALDER AVENUE","locality":"WIDNES","townOrCity":"WIDNES","district":"HALTON","county":"HALTON","ppdCategoryType":"Standard","recordStatus":"Addition","latitude":53.378456,"longitude":-2.731026,"postcodeStart":"WA8 6","postcode":["WA8","6QD"]}
{"price":26000,"dateOfTransfer":"1997-06-30T00:00:00","postcodeFull":"WA8 6ET","propertyType":"Terraced","oldOrNew":"Established","duration":"Freehold","paon":"55","saon":"","street":"FOSTER STREET","locality":"WIDNES","townOrCity":"WIDNES","district":"HALTON","county":"HALTON","ppdCategoryType":"Standard","recordStatus":"Addition","latitude":53.371336,"longitude":-2.725388,"postcodeStart":"WA8 6","postcode":["WA8","6ET"]}
{"price":34000,"dateOfTransfer":"1997-10-22T00:00:00","postcodeFull":"WA8 6PF","propertyType":"Terraced","oldOrNew":"Established","duration":"Leasehold","paon":"19","saon":"","street":"FREDERICK STREET","locality":"WIDNES","townOrCity":"WIDNES","district":"HALTON","county":"HALTON","ppdCategoryType":"Standard","recordStatus":"Addition","latitude":53.367119,"longitude":-2.7299,"postcodeStart":"WA8 6","postcode":["WA8","6PF"]}
{"price":31500,"dateOfTransfer":"1997-11-25T00:00:00","postcodeFull":"WA8 6ES","propertyType":"Terraced","oldOrNew":"Established","duration":"Freehold","paon":"8","saon":"","street":"COOPER STREET","locality":"WIDNES","townOrCity":"WIDNES","district":"HALTON","county":"HALTON","ppdCategoryType":"Standard","recordStatus":"Addition","latitude":53.371154,"longitude":-2.72567,"postcodeStart":"WA8 6","postcode":["WA8","6ES"]}
{"price":28000,"dateOfTransfer":"1997-12-19T00:00:00","postcodeFull":"WA8 6QE","propertyType":"Terraced","oldOrNew":"Established","duration":"Freehold","paon":"15","saon":"","street":"BIRCH ROAD","locality":"WIDNES","townOrCity":"WIDNES","district":"HALTON","county":"HALTON","ppdCategoryType":"Standard","recordStatus":"Addition","latitude":53.378217,"longitude":-2.73051,"postcodeStart":"WA8 6","postcode":["WA8","6QE"]}
{"price":30500,"dateOfTransfer":"1997-10-13T00:00:00","postcodeFull":"WA8 6ES","propertyType":"Terraced","oldOrNew":"Established","duration":"Freehold","paon":"26","saon":"","street":"COOPER STREET","locality":"WIDNES","townOrCity":"WIDNES","district":"HALTON","county":"HALTON","ppdCategoryType":"Standard","recordStatus":"Addition","latitude":53.371154,"longitude":-2.72567,"postcodeStart":"WA8 6","postcode":["WA8","6ES"]}
{"price":37000,"dateOfTransfer":"1997-07-16T00:00:00","postcodeFull":"WA8 6NP","propertyType":"Terraced","oldOrNew":"Established","duration":"Leasehold","paon":"34","saon":"","street":"CARLTON STREET","locality":"WIDNES","townOrCity":"WIDNES","district":"HALTON","county":"HALTON","ppdCategoryType":"Standard","recordStatus":"Addition","latitude":53.366124,"longitude":-2.73101,"postcodeStart":"WA8 6","postcode":["WA8","6NP"]}
{"price":59950,"dateOfTransfer":"1997-08-08T00:00:00","postcodeFull":"WA8 6PE","propertyType":"Semi-detached","oldOrNew":"Established","duration":"Leasehold","paon":"95","saon":"","street":"FREDERICK STREET","locality":"WIDNES","townOrCity":"WIDNES","district":"HALTON","county":"HALTON","ppdCategoryType":"Standard","recordStatus":"Addition","latitude":53.369055,"longitude":-2.729347,"postcodeStart":"WA8 6","postcode":["WA8","6PE"]}
{"price":31950,"dateOfTransfer":"1997-09-19T00:00:00","postcodeFull":"WA8 6ET","propertyType":"Terraced","oldOrNew":"Established","duration":"Freehold","paon":"61","saon":"","street":"FOSTER STREET","locality":"WIDNES","townOrCity":"WIDNES","district":"HALTON","county":"HALTON","ppdCategoryType":"Standard","recordStatus":"Addition","latitude":53.371336,"longitude":-2.725388,"postcodeStart":"WA8 6","postcode":["WA8","6ET"]}
{"price":15000,"dateOfTransfer":"1997-02-28T00:00:00","postcodeFull":"WA8 6HD","propertyType":"Terraced","oldOrNew":"Established","duration":"Freehold","paon":"62","saon":"","street":"GREENWAY ROAD","locality":"WIDNES","townOrCity":"WIDNES","district":"HALTON","county":"HALTON","ppdCategoryType":"Standard","recordStatus":"Addition","latitude":53.372157,"longitude":-2.72483,"postcodeStart":"WA8 6","postcode":["WA8","6HD"]}
{"price":53000,"dateOfTransfer":"1997-04-30T00:00:00","postcodeFull":"WA8 6PA","propertyType":"Detached","oldOrNew":"Established","duration":"Freehold","paon":"25","saon":"","street":"DEIRDRE AVENUE","locality":"WIDNES","townOrCity":"WIDNES","district":"HALTON","county":"HALTON","ppdCategoryType":"Standard","recordStatus":"Addition","latitude":53.369207,"longitude":-2.730957,"postcodeStart":"WA8 6","postcode":["WA8","6PA"]}
{"price":32000,"dateOfTransfer":"1997-08-29T00:00:00","postcodeFull":"WA8 6JY","propertyType":"Terraced","oldOrNew":"Established","duration":"Freehold","paon":"14","saon":"","street":"SAXON TERRACE","locality":"WIDNES","townOrCity":"WIDNES","district":"HALTON","county":"HALTON","ppdCategoryType":"Standard","recordStatus":"Addition","latitude":53.369893,"longitude":-2.725692,"postcodeStart":"WA8 6","postcode":["WA8","6JY"]}
{"price":49000,"dateOfTransfer":"1997-11-17T00:00:00","postcodeFull":"WA8 6PB","propertyType":"Semi-detached","oldOrNew":"Established","duration":"Leasehold","paon":"22","saon":"","street":"SHELAGH AVENUE","locality":"WIDNES","townOrCity":"WIDNES","district":"HALTON","county":"HALTON","ppdCategoryType":"Standard","recordStatus":"Addition","latitude":53.36922,"longitude":-2.731874,"postcodeStart":"WA8 6","postcode":["WA8","6PB"]}
{"price":30950,"dateOfTransfer":"1997-06-20T00:00:00","postcodeFull":"WA8 6QR","propertyType":"Terraced","oldOrNew":"Established","duration":"Freehold","paon":"12","saon":"","street":"MILLFIELD ROAD","locality":"WIDNES","townOrCity":"WIDNES","district":"HALTON","county":"HALTON","ppdCategoryType":"Standard","recordStatus":"Addition","latitude":53.373666,"longitude":-2.72212,"postcodeStart":"WA8 6","postcode":["WA8","6QR"]}
{"price":25000,"dateOfTransfer":"1997-11-17T00:00:00","postcodeFull":"WA8 6HP","propertyType":"Terraced","oldOrNew":"Established","duration":"Freehold","paon":"30","saon":"","street":"ALLERTON ROAD","locality":"WIDNES","townOrCity":"WIDNES","district":"HALTON","county":"HALTON","ppdCategoryType":"Standard","recordStatus":"Addition","latitude":53.37282,"longitude":-2.723804,"postcodeStart":"WA8 6","postcode":["WA8","6HP"]}
{"price":37995,"dateOfTransfer":"1997-01-24T00:00:00","postcodeFull":"WA8 6ES","propertyType":"Terraced","oldOrNew":"Established","duration":"Leasehold","paon":"33","saon":"","street":"COOPER STREET","locality":"WIDNES","townOrCity":"WIDNES","district":"HALTON","county":"HALTON","ppdCategoryType":"Standard","recordStatus":"Addition","latitude":53.371154,"longitude":-2.72567,"postcodeStart":"WA8 6","postcode":["WA8","6ES"]}
{"price":50000,"dateOfTransfer":"1997-08-22T00:00:00","postcodeFull":"WA8 6TG","propertyType":"Semi-detached","oldOrNew":"Established","duration":"Freehold","paon":"150","saon":"","street":"PEEL HOUSE LANE","locality":"WIDNES","townOrCity":"WIDNES","district":"HALTON","county":"HALTON","ppdCategoryType":"Standard","recordStatus":"Addition","latitude":53.377077,"longitude":-2.724117,"postcodeStart":"WA8 6","postcode":["WA8","6TG"]}
{"price":16000,"dateOfTransfer":"1997-02-14T00:00:00","postcodeFull":"WA8 6HD","propertyType":"Terraced","oldOrNew":"Established","duration":"Freehold","paon":"68","saon":"","street":"GREENWAY ROAD","locality":"WIDNES","townOrCity":"WIDNES","district":"HALTON","county":"HALTON","ppdCategoryType":"Standard","recordStatus":"Addition","latitude":53.372157,"longitude":-2.72483,"postcodeStart":"WA8 6","postcode":["WA8","6HD"]}
{"price":29000,"dateOfTransfer":"1997-02-28T00:00:00","postcodeFull":"WA8 6NT","propertyType":"Semi-detached","oldOrNew":"Established","duration":"Freehold","paon":"50","saon":"","street":"PRINCES STREET","locality":"WIDNES","townOrCity":"WIDNES","district":"HALTON","county":"HALTON","ppdCategoryType":"Standard","recordStatus":"Addition","latitude":53.367294,"longitude":-2.730744,"postcodeStart":"WA8 6","postcode":["WA8","6NT"]}
